[{"name": "Additional Hill", "latitude": 35.7466649, "longitude": -111.6490393, "elevation": 1906.0, "source": "osm", "_tags": {"ele": "1906", "gnis:feature_id": "490", "name": "Additional Hill", "natural": "peak"}}, {"name": "Black Mesa", "latitude": 35.6705556, "longitude": -111.4479253, "elevation": 1607.0, "source": "osm", "_tags": {"ele": "1607", "gnis:feature_id": "1546", "name": "Black Mesa", "natural": "peak"}}, {"name": "Black Peak", "latitude": 36.2727676, "longitude": -111.3976446, "elevation": 1787.0, "source": "osm", "_tags": {"ele": "1787", "gnis:feature_id": "1573", "name": "Black Peak", "natural": "peak"}}, {"name": "Blue Point", "latitude": 35.9952755, "longitude": -110.9990288, "elevation": 1837.0, "source": "osm", "_tags": {"ele": "1837", "gnis:feature_id": "1722", "name": "Blue Point", "natural": "peak"}}, {"name": "Castle Buttes", "latitude": 36.1813812, "longitude": -111.1595861, "elevation": 1641.0, "source": "osm", "_tags": {"ele": "1641", "gnis:feature_id": "2522", "name": "Castle Buttes", "natural": "peak"}}, {"name": "Castle Rocks", "latitude": 36.1544371, "longitude": -111.2179184, "elevation": 1556.0, "source": "osm", "_tags": {"ele": "1556", "gnis:feature_id": "2548", "name": "Castle Rocks", "natural": "peak"}}, {"name": "Coal Mine Mesa", "latitude": 35.9688876, "longitude": -110.9551399, "elevation": 1862.0, "source": "osm", "_tags": {"ele": "1862", "gnis:feature_id": "3050", "name": "Coal Mine Mesa", "natural": "peak"}}, {"name": "TC Hill", "latitude": 36.1344373, "longitude": -111.2237516, "elevation": 1535.0, "source": "osm", "_tags": {"alt_name": "Dynamite Hill", "ele": "1535", "gnis:feature_id": "4222", "name": "TC Hill", "natural": "peak"}}, {"name": "Flat Mesa", "latitude": 35.8130583, "longitude": -110.8231948, "elevation": 1781.0, "source": "osm", "_tags": {"ele": "1781", "gnis:feature_id": "4661", "name": "Flat Mesa", "natural": "peak"}}, {"name": "Garces Mesas", "latitude": 35.590839, "longitude": -110.8554169, "elevation": 1610.0, "source": "osm", "_tags": {"ele": "1610", "gnis:feature_id": "4931", "name": "Garces Mesas", "natural": "peak"}}, {"name": "Gray Mountain", "latitude": 35.8963823, "longitude": -111.6168149, "elevation": 2145.0, "source": "osm", "_tags": {"ele": "2145", "gnis:feature_id": "5320", "name": "Gray Mountain", "natural": "peak"}}, {"name": "High Point Mountain", "latitude": 36.2774877, "longitude": -111.5904286, "elevation": 1818.0, "source": "osm", "_tags": {"ele": "1818", "gnis:feature_id": "5798", "name": "High Point Mountain", "natural": "peak"}}, {"name": "Howell Mesa", "latitude": 35.940556, "longitude": -110.8598621, "elevation": 1901.0, "source": "osm", "_tags": {"ele": "1901", "gnis:feature_id": "6073", "name": "Howell Mesa", "natural": "peak"}}, {"name": "Hunters Point", "latitude": 35.8236137, "longitude": -110.822917, "elevation": 1746.0, "source": "osm", "_tags": {"ele": "1746", "gnis:feature_id": "6139", "name": "Hunters Point", "natural": "peak"}}, {"name": "Kachina Points", "latitude": 35.568617, "longitude": -110.8704171, "elevation": 1629.0, "source": "osm", "_tags": {"ele": "1629", "gnis:feature_id": "6577", "name": "Kachina Points", "natural": "peak"}}, {"name": "Lava Point", "latitude": 35.7424982, "longitude": -111.5120908, "elevation": 1543.0, "source": "osm", "_tags": {"ele": "1543", "gnis:feature_id": "6918", "name": "Lava Point", "natural": "peak"}}, {"name": "Lice Hill", "latitude": 36.18027, "longitude": -111.0351429, "elevation": 1630.0, "source": "osm", "_tags": {"ele": "1630", "gnis:feature_id": "6998", "name": "Lice Hill", "natural": "peak"}}, {"name": "Lii Haaditiih Hill", "latitude": 35.5902805, "longitude": -111.1123651, "elevation": 1507.0, "source": "osm", "_tags": {"ele": "1507", "gnis:feature_id": "7007", "name": "Lii Haaditiih Hill", "natural": "peak"}}, {"name": "Little Gray Hill", "latitude": 35.9555331, "longitude": -111.2325013, "elevation": 1653.0, "source": "osm", "_tags": {"ele": "1653", "gnis:feature_id": "7116", "name": "Little Gray Hill", "natural": "peak"}}, {"name": "Middle Hill", "latitude": 35.8405506, "longitude": -111.6493165, "elevation": 1930.0, "source": "osm", "_tags": {"ele": "1930", "gnis:feature_id": "7981", "name": "Middle Hill", "natural": "peak"}}, {"name": "Middle Mesa", "latitude": 36.247768, "longitude": -111.0129222, "elevation": 1806.0, "source": "osm", "_tags": {"ele": "1806", "gnis:feature_id": "7983", "name": "Middle Mesa", "natural": "peak"}}, {"name": "Newberry Mesa", "latitude": 35.4280636, "longitude": -110.9306958, "elevation": 1558.0, "source": "osm", "_tags": {"ele": "1558", "gnis:feature_id": "8638", "name": "Newberry Mesa", "natural": "peak"}}, {"name": "No Trail Mesa", "latitude": 35.8555581, "longitude": -110.7926392, "elevation": 1862.0, "source": "osm", "_tags": {"ele": "1862", "gnis:feature_id": "8679", "name": "No Trail Mesa", "natural": "peak"}}, {"name": "Oraibi Butte", "latitude": 35.8802807, "longitude": -110.7143052, "elevation": 1993.0, "source": "osm", "_tags": {"ele": "1993", "gnis:feature_id": "9004", "name": "Oraibi Butte", "natural": "peak"}}, {"name": "Owls Cap", "latitude": 36.0286051, "longitude": -111.2276391, "elevation": 1604.0, "source": "osm", "_tags": {"ele": "1604", "gnis:feature_id": "9065", "name": "Owls Cap", "natural": "peak"}}, {"name": "Padilla Mesa", "latitude": 35.7847258, "longitude": -110.7898611, "elevation": 1808.0, "source": "osm", "_tags": {"ele": "1808", "gnis:feature_id": "9106", "name": "Padilla Mesa", "natural": "peak"}}, {"name": "Pillow Mountain", "latitude": 36.2463764, "longitude": -111.6095956, "elevation": 1698.0, "source": "osm", "_tags": {"ele": "1698", "gnis:feature_id": "9429", "name": "Pillow Mountain", "natural": "peak"}}, {"name": "Pottery Hill", "latitude": 35.582504, "longitude": -111.0184747, "elevation": 1477.0, "source": "osm", "_tags": {"ele": "1477", "gnis:feature_id": "9707", "name": "Pottery Hill", "natural": "peak"}}, {"name": "Red Butte", "latitude": 35.9549917, "longitude": -111.6084808, "elevation": 1589.0, "source": "osm", "_tags": {"ele": "1589", "gnis:feature_id": "10016", "name": "Red Butte", "natural": "peak"}}, {"name": "Red Hill", "latitude": 35.8613833, "longitude": -111.6432051, "elevation": 1979.0, "source": "osm", "_tags": {"ele": "1979", "gnis:feature_id": "10050", "name": "Red Hill", "natural": "peak"}}, {"name": "Red Point Hills", "latitude": 36.2297104, "longitude": -111.5395922, "elevation": 1679.0, "source": "osm", "_tags": {"ele": "1679", "gnis:feature_id": "10110", "name": "Red Point Hills", "natural": "peak"}}, {"name": "Rock Head", "latitude": 35.6791687, "longitude": -111.0284745, "elevation": 1669.0, "source": "osm", "_tags": {"ele": "1669", "gnis:feature_id": "10402", "name": "Rock Head", "natural": "peak"}}, {"name": "Sand Springs Mesa", "latitude": 35.804166, "longitude": -111.0676409, "elevation": 1651.0, "source": "osm", "_tags": {"ele": "1651", "gnis:feature_id": "10891", "name": "Sand Springs Mesa", "natural": "peak"}}, {"name": "Black Knob", "latitude": 35.9836038, "longitude": -111.4640308, "elevation": 1651.0, "source": "osm", "_tags": {"ele": "1651", "gnis:feature_id": "11138", "name": "Black Knob", "natural": "peak"}}, {"name": "Side Mountain", "latitude": 35.9108263, "longitude": -111.6132036, "elevation": 2011.0, "source": "osm", "_tags": {"ele": "2011", "gnis:feature_id": "11269", "name": "Side Mountain", "natural": "peak"}}, {"name": "The Ghost", "latitude": 36.038052, "longitude": -111.0023629, "elevation": 1657.0, "source": "osm", "_tags": {"ele": "1657", "gnis:feature_id": "12323", "name": "The Ghost", "natural": "peak"}}, {"name": "The Landmark", "latitude": 35.8702742, "longitude": -111.1945854, "elevation": 1686.0, "source": "osm", "_tags": {"ele": "1686", "gnis:feature_id": "12343", "name": "The Landmark", "natural": "peak"}}, {"name": "Tohnali Mesa", "latitude": 35.9736061, "longitude": -111.2034727, "elevation": 1626.0, "source": "osm", "_tags": {"ele": "1626", "gnis:feature_id": "12554", "name": "Tohnali Mesa", "natural": "peak"}}, {"name": "Tuba Butte", "latitude": 36.189991, "longitude": -111.3512537, "elevation": 1761.0, "source": "osm", "_tags": {"ele": "1761", "gnis:feature_id": "12801", "name": "Tuba Butte", "natural": "peak"}}, {"name": "Black Knob", "latitude": 35.9194385, "longitude": -111.4668096, "elevation": 1416.0, "source": "osm", "_tags": {"alt_name": "Shadow Mountain", "ele": "1416", "gnis:feature_id": "20662", "name": "Black Knob", "natural": "peak"}}, {"name": "Mori Mesa", "latitude": 36.1383252, "longitude": -111.3290304, "elevation": 1549.0, "source": "osm", "_tags": {"ele": "1549", "gnis:feature_id": "20914", "name": "Mori Mesa", "natural": "peak"}}, {"name": "Oraibi Mesa", "latitude": 35.9063915, "longitude": -110.6990273, "elevation": 2002.0, "source": "osm", "_tags": {"ele": "2002", "gnis:feature_id": "23411", "name": "Oraibi Mesa", "natural": "peak"}}, {"name": "Aubineau Peak", "latitude": 35.3552751, "longitude": -111.6597237, "elevation": 3608.0, "source": "osm", "_tags": {"alt_name": "Abineau Peak", "ele": "3608", "gnis:feature_id": "25435", "name": "Aubineau Peak", "natural": "peak"}}, {"name": "Cinder Hills", "latitude": 35.3419529, "longitude": -111.436266, "elevation": 2097.0, "source": "osm", "_tags": {"ele": "2097", "gnis:feature_id": "27655", "name": "Cinder Hills", "natural": "peak"}}, {"name": "Deadman Mesa", "latitude": 35.4475064, "longitude": -111.5379336, "elevation": 1976.0, "source": "osm", "_tags": {"ele": "1976", "gnis:feature_id": "28339", "name": "Deadman Mesa", "natural": "peak"}}, {"name": "Doney Mountain", "latitude": 35.5388921, "longitude": -111.3993166, "elevation": 1692.0, "source": "osm", "_tags": {"ele": "1692", "gnis:feature_id": "28531", "name": "Doney Mountain", "name_1": "Big Donkey Mountain", "name_2": "Big Donkey Crater", "natural": "peak"}}, {"name": "Doyle Peak", "latitude": 35.3297879, "longitude": -111.6461648, "elevation": 3493.0, "source": "osm", "_tags": {"ele": "3493", "gnis:feature_id": "28586", "name": "Doyle Peak", "natural": "peak", "wikidata": "Q5303772"}}, {"name": "East Mesa", "latitude": 35.5741694, "longitude": -111.464873, "elevation": 1663.0, "source": "osm", "_tags": {"ele": "1663", "gnis:feature_id": "28774", "name": "East Mesa", "natural": "peak"}}, {"name": "Fremont Peak", "latitude": 35.323084, "longitude": -111.660731, "elevation": 3648.0, "source": "osm", "_tags": {"ele": "3648", "gnis:feature_id": "29185", "name": "Fremont Peak", "natural": "peak", "wikidata": "Q5501610", "wikipedia": "en:Fremont Peak (Arizona)"}}, {"name": "Inscription Point", "latitude": 35.5952789, "longitude": -111.2937572, "elevation": 1342.0, "source": "osm", "_tags": {"ele": "1342", "gnis:feature_id": "30391", "name": "Inscription Point", "natural": "peak"}}, {"name": "Magnetic Mesa", "latitude": 35.568614, "longitude": -111.4782068, "elevation": 1667.0, "source": "osm", "_tags": {"ele": "1667", "gnis:feature_id": "31446", "name": "Magnetic Mesa", "natural": "peak"}}, {"name": "Middle Mesa", "latitude": 35.5744471, "longitude": -111.4715398, "elevation": 1656.0, "source": "osm", "_tags": {"ele": "1656", "gnis:feature_id": "31815", "name": "Middle Mesa", "natural": "peak"}}, {"name": "North Mesa", "latitude": 35.5866689, "longitude": -111.4365385, "elevation": 1625.0, "source": "osm", "_tags": {"ele": "1625", "gnis:feature_id": "32378", "name": "North Mesa", "natural": "peak"}}, {"name": "Rees Peak", "latitude": 35.3560289, "longitude": -111.6516908, "elevation": 3497.0, "source": "osm", "_tags": {"ele": "3497", "gnis:feature_id": "33555", "name": "Rees Peak", "natural": "peak"}}, {"name": "Robinson Mountain", "latitude": 35.386119, "longitude": -111.5445599, "elevation": 2411.0, "source": "osm", "_tags": {"ele": "2411", "gnis:feature_id": "33683", "name": "Robinson Mountain", "natural": "peak"}}, {"name": "Schultz Peak", "latitude": 35.3155646, "longitude": -111.6315494, "elevation": 3074.0, "source": "osm", "_tags": {"ele": "3074", "gnis:feature_id": "34156", "name": "Schultz Peak", "natural": "peak"}}, {"name": "South Mesa", "latitude": 35.5588921, "longitude": -111.4784849, "elevation": 1683.0, "source": "osm", "_tags": {"ele": "1683", "gnis:feature_id": "34676", "name": "South Mesa", "natural": "peak"}}, {"name": "West Mesa", "latitude": 35.5625032, "longitude": -111.4970964, "elevation": 1700.0, "source": "osm", "_tags": {"ele": "1700", "gnis:feature_id": "36006", "name": "West Mesa", "natural": "peak"}}, {"name": "White Mesa", "latitude": 35.613057, "longitude": -111.4284821, "elevation": 1575.0, "source": "osm", "_tags": {"ele": "1575", "gnis:feature_id": "36085", "name": "White Mesa", "natural": "peak"}}, {"name": "Woodhouse Mesa", "latitude": 35.5030597, "longitude": -111.382928, "elevation": 1613.0, "source": "osm", "_tags": {"ele": "1613", "gnis:feature_id": "36376", "name": "Woodhouse Mesa", "natural": "peak"}}, {"name": "Deer Hill", "latitude": 35.2980652, "longitude": -111.5857156, "elevation": 2264.0, "source": "osm", "_tags": {"ele": "2264", "gnis:feature_id": "42644", "name": "Deer Hill", "natural": "peak"}}, {"name": "Mowaapi", "latitude": 35.8669474, "longitude": -110.7487502, "elevation": 1923.0, "source": "osm", "_tags": {"ele": "1923", "gnis:feature_id": "45579", "name": "Mowaapi", "natural": "peak"}}, {"name": "Doney Mountain", "latitude": 35.5308192, "longitude": -111.403823, "elevation": null, "source": "osm", "_tags": {"name": "Doney Mountain", "name_1": "Little Donkey Mountain", "name_2": "Little Donkey Crater", "natural": "peak"}}, {"name": "Agassiz Peak", "latitude": 35.3259364, "longitude": -111.6777474, "elevation": 3766.0, "source": "osm", "_tags": {"ele": "3766", "gnis:feature_id": "25531", "name": "Agassiz Peak", "natural": "peak", "wikidata": "Q390770"}}, {"name": "", "latitude": 35.7348432, "longitude": -111.2403274, "elevation": 1427.4, "source": "osm", "_tags": {"ele": "1427.4", "natural": "peak"}}, {"name": "", "latitude": 35.3409449, "longitude": -111.6831359, "elevation": 3748.0, "source": "osm", "_tags": {"ele": "3748", "natural": "peak"}}, {"name": "S P Mountain", "latitude": 35.5823247, "longitude": -111.6298459, "elevation": null, "source": "osm", "_tags": {"gnis:feature_id": "33909", "name": "S P Mountain", "natural": "peak"}}, {"name": "Merriam Mountain", "latitude": 35.3386314, "longitude": -111.2865355, "elevation": null, "source": "osm", "_tags": {"gnis:feature_id": "31714", "name": "Merriam Mountain", "natural": "peak"}}, {"name": "Tohnali Mesa", "latitude": 35.8370948, "longitude": -111.1302696, "elevation": null, "source": "osm", "_tags": {"gnis:feature_id": "12554", "name": "Tohnali Mesa", "natural": "peak"}}, {"name": "The Point", "latitude": 35.640557, "longitude": -111.6134855, "elevation": null, "source": "osm", "_tags": {"gnis:feature_id": "12365", "name": "The Point", "natural": "peak"}}, {"name": "Sand Springs Mesa", "latitude": 35.7051476, "longitude": -111.0129987, "elevation": null, "source": "osm", "_tags": {"gnis:feature_id": "10891", "name": "Sand Springs Mesa", "natural": "peak"}}, {"name": "Garces Mesas", "latitude": 35.6862588, "longitude": -110.8223611, "elevation": null, "source": "osm", "_tags": {"gnis:feature_id": "4931", "name": "Garces Mesas", "natural": "peak"}}]