[{"name": "Chestnut Knob", "latitude": 35.3906058, "longitude": -84.0082179, "elevation": 1319.0, "source": "osm", "_tags": {"ele": "1319", "gnis:feature_id": "1269448", "name": "Chestnut Knob", "natural": "peak", "wikidata": "Q31424166"}}, {"name": "Big Junction", "latitude": 35.3014398, "longitude": -84.0212983, "elevation": 1638.0, "source": "osm", "_tags": {"ele": "1638", "gnis:feature_id": "1019140", "name": "Big Junction", "natural": "peak"}}, {"name": "Gregory Bald", "latitude": 35.5204468, "longitude": -83.8661931, "elevation": 1505.1, "source": "osm", "_tags": {"ele": "1505.1", "gnis:feature_id": "1000702", "name": "Gregory Bald", "name:chr": "ᏥᏧᏱ", "natural": "peak", "official_name": "Gregory Bald", "source": "NPS", "wikidata": "Q5606809"}}, {"name": "Parson Bald", "latitude": 35.5156455, "longitude": -83.8830356, "elevation": 1441.65, "source": "osm", "_tags": {"ele": "1441.65", "gnis:feature_id": "1000707", "name": "Parson Bald", "natural": "peak", "official_name": "Parson Bald", "source": "NPS", "wikidata": "Q31682229"}}, {"name": "Gregorys Little Bald", "latitude": 35.5214756, "longitude": -83.8568433, "elevation": 1452.0, "source": "osm", "_tags": {"ele": "1452", "gnis:feature_id": "1004529", "name": "Gregorys Little Bald", "natural": "peak", "wikidata": "Q31626091"}}, {"name": "Grassy Top", "latitude": 35.2888758, "longitude": -84.035456, "elevation": 1514.0, "source": "osm", "_tags": {"ele": "1514", "gnis:feature_id": "1011662", "name": "Grassy Top", "natural": "peak", "wikidata": "Q31427766"}}, {"name": "Johns Knob", "latitude": 35.3309869, "longitude": -84.0302396, "elevation": 1491.0, "source": "osm", "_tags": {"ele": "1491", "gnis:feature_id": "1012514", "name": "Johns Knob", "natural": "peak", "wikidata": "Q31428115"}}, {"name": "Laurel Top", "latitude": 35.2970275, "longitude": -84.0228903, "elevation": 1615.0, "source": "osm", "_tags": {"ele": "1615", "gnis:feature_id": "1012755", "name": "Laurel Top", "natural": "peak"}}, {"name": "Forge Knob", "latitude": 35.5215212, "longitude": -83.8417648, "elevation": 1358.82, "source": "osm", "_tags": {"ele": "1358.82", "gnis:feature_id": "1020305", "name": "Forge Knob", "natural": "peak", "official_name": "Forge Knob", "source": "NPS", "wikidata": "Q31624158"}}, {"name": "Sheep Wallow Knob", "latitude": 35.4895579, "longitude": -83.9042812, "elevation": 1023.24, "source": "osm", "_tags": {"ele": "1023.24", "gnis:feature_id": "1022579", "name": "Sheep Wallow Knob", "natural": "peak", "official_name": "Sheep Wallow Knob", "source": "NPS", "wikidata": "Q31687442"}}, {"name": "Spence Field", "latitude": 35.5636208, "longitude": -83.7325733, "elevation": 1509.76, "source": "osm", "_tags": {"ele": "1509.76", "gnis:feature_id": "1022732", "name": "Spence Field", "natural": "peak", "official_name": "Spence Field", "source": "NPS", "wikidata": "Q7575948"}}, {"name": "Grassy Mountain", "latitude": 36.2484105, "longitude": -84.6029978, "elevation": 715.0, "source": "osm", "_tags": {"ele": "715", "gnis:feature_id": "1269275", "name": "Grassy Mountain", "natural": "peak"}}, {"name": "Brown Mountain", "latitude": 35.9100841, "longitude": -83.8701806, "elevation": 384.0, "source": "osm", "_tags": {"ele": "384", "gnis:feature_id": "1269382", "name": "Brown Mountain", "natural": "peak", "wikidata": "Q31663990"}}, {"name": "Buffalo Mountain", "latitude": 36.1617454, "longitude": -84.3096509, "elevation": 1008.0, "source": "osm", "_tags": {"ele": "1008", "gnis:feature_id": "1269398", "name": "Buffalo Mountain", "natural": "peak", "wikidata": "Q31664453"}}, {"name": "Donehew Head", "latitude": 36.2093507, "longitude": -83.6989453, "elevation": 643.0, "source": "osm", "_tags": {"ele": "643", "gnis:feature_id": "1269530", "name": "Donehew Head", "natural": "peak", "wikidata": "Q31669181"}}, {"name": "Old Mac Mountain", "latitude": 36.1289667, "longitude": -84.4599351, "elevation": 955.0, "source": "osm", "_tags": {"ele": "955", "gnis:feature_id": "1269840", "name": "Old Mac Mountain", "natural": "peak", "wikidata": "Q31681778"}}, {"name": "Shingle Mountain", "latitude": 35.5611939, "longitude": -84.0235167, "elevation": 488.0, "source": "osm", "_tags": {"ele": "488", "gnis:feature_id": "1270108", "name": "Shingle Mountain", "natural": "peak", "wikidata": "Q31687594"}}, {"name": "Short Mountain", "latitude": 35.5853593, "longitude": -84.0768528, "elevation": 393.0, "source": "osm", "_tags": {"ele": "393", "gnis:feature_id": "1270207", "name": "Short Mountain", "natural": "peak", "wikidata": "Q31687608"}}, {"name": "Smith Knob", "latitude": 35.7189757, "longitude": -83.791563, "elevation": 538.0, "source": "osm", "_tags": {"ele": "538", "gnis:feature_id": "1270698", "name": "Smith Knob", "natural": "peak", "wikidata": "Q31688152"}}, {"name": "Smoky Mountain", "latitude": 36.1836896, "longitude": -84.4027113, "elevation": 961.0, "source": "osm", "_tags": {"ele": "961", "gnis:feature_id": "1270725", "name": "Smoky Mountain", "natural": "peak", "wikidata": "Q31688194"}}, {"name": "Squire Knob", "latitude": 36.1503558, "longitude": -84.456602, "elevation": 1002.0, "source": "osm", "_tags": {"ele": "1002", "gnis:feature_id": "1271179", "name": "Squire Knob", "natural": "peak", "wikidata": "Q31688388"}}, {"name": "Mt. Squires", "latitude": 35.5628309, "longitude": -83.7411991, "elevation": 1540.46, "source": "osm", "_tags": {"ele": "1540.46", "gnis:feature_id": "1271181", "name": "Mt. Squires", "natural": "peak", "official_name": "Mt. Squires", "source": "NPS", "wikidata": "Q31660330"}}, {"name": "Stallion Mountain", "latitude": 36.1484113, "longitude": -84.4427124, "elevation": 1007.0, "source": "osm", "_tags": {"ele": "1007", "gnis:feature_id": "1271205", "name": "Stallion Mountain", "natural": "peak", "wikidata": "Q31688416"}}, {"name": "Stratton Knob", "latitude": 35.5506381, "longitude": -84.0382396, "elevation": 464.0, "source": "osm", "_tags": {"ele": "464", "gnis:feature_id": "1271580", "name": "Stratton Knob", "natural": "peak", "wikidata": "Q31688879"}}, {"name": "Swafford Knob", "latitude": 35.2995175, "longitude": -84.6766042, "elevation": 313.0, "source": "osm", "_tags": {"ele": "313", "gnis:feature_id": "1271921", "name": "Swafford Knob", "natural": "peak", "wikidata": "Q31689176"}}, {"name": "Tellico Mountain", "latitude": 35.3206326, "longitude": -84.3001988, "elevation": 587.0, "source": "osm", "_tags": {"ele": "587", "gnis:feature_id": "1272276", "name": "Tellico Mountain", "natural": "peak", "wikidata": "Q31689573"}}, {"name": "Ten Mile Knob", "latitude": 35.6845172, "longitude": -84.6491043, "elevation": 374.0, "source": "osm", "_tags": {"ele": "374", "gnis:feature_id": "1272297", "name": "Ten Mile Knob", "natural": "peak", "wikidata": "Q31689624"}}, {"name": "Terry Knob", "latitude": 35.6364662, "longitude": -84.2801968, "elevation": 366.0, "source": "osm", "_tags": {"ele": "366", "gnis:feature_id": "1272343", "name": "Terry Knob", "natural": "peak", "wikidata": "Q31689636"}}, {"name": "The Flag Pole", "latitude": 36.1981346, "longitude": -84.2307593, "elevation": 1075.0, "source": "osm", "_tags": {"ele": "1075", "gnis:feature_id": "1272388", "name": "The Flag Pole", "natural": "peak", "wikidata": "Q31670390"}}, {"name": "The Garden Spot", "latitude": 36.1559114, "longitude": -84.4404903, "elevation": 953.0, "source": "osm", "_tags": {"ele": "953", "gnis:feature_id": "1272392", "name": "The Garden Spot", "natural": "peak", "wikidata": "Q31671314"}}, {"name": "Thompson Mountain", "latitude": 36.1450772, "longitude": -84.5329939, "elevation": 792.0, "source": "osm", "_tags": {"ele": "792", "gnis:feature_id": "1272555", "name": "Thompson Mountain", "natural": "peak", "wikidata": "Q31689697"}}, {"name": "Thunderstruck Knob", "latitude": 36.0517442, "longitude": -84.3974303, "elevation": 364.0, "source": "osm", "_tags": {"ele": "364", "gnis:feature_id": "1272597", "name": "Thunderstruck Knob", "natural": "peak", "wikidata": "Q31689769"}}, {"name": "Toddy Mountain", "latitude": 36.1009115, "longitude": -84.3471512, "elevation": 971.0, "source": "osm", "_tags": {"ele": "971", "gnis:feature_id": "1272720", "name": "Toddy Mountain", "natural": "peak", "wikidata": "Q31689915"}}, {"name": "Turkey Knob", "latitude": 35.9892422, "longitude": -84.542436, "elevation": 374.0, "source": "osm", "_tags": {"ele": "374", "gnis:feature_id": "1273026", "name": "Turkey Knob", "natural": "peak", "wikidata": "Q31690178"}}, {"name": "Vowell Mountain", "latitude": 36.2148011, "longitude": -84.1927025, "elevation": 813.0, "source": "osm", "_tags": {"ele": "813", "gnis:feature_id": "1273502", "name": "Vowell Mountain", "natural": "peak", "wikidata": "Q31690610"}}, {"name": "Walnut Knob", "latitude": 36.1717449, "longitude": -84.4454908, "elevation": 988.0, "source": "osm", "_tags": {"ele": "988", "gnis:feature_id": "1273741", "name": "Walnut Knob", "natural": "peak", "wikidata": "Q31690757"}}, {"name": "Webb Knob", "latitude": 35.7158887, "longitude": -83.7853082, "elevation": 563.0, "source": "osm", "_tags": {"ele": "563", "gnis:feature_id": "1274035", "name": "Webb Knob", "natural": "peak", "official_name": "Webb Knob", "source": "NPS", "wikidata": "Q31691089"}}, {"name": "Whetstone Mountain", "latitude": 36.0039652, "longitude": -84.4927121, "elevation": 471.0, "source": "osm", "_tags": {"ele": "471", "gnis:feature_id": "1274303", "name": "Whetstone Mountain", "natural": "peak", "wikidata": "Q31691264"}}, {"name": "Whittle Mountain", "latitude": 35.9109197, "longitude": -83.7479534, "elevation": 365.0, "source": "osm", "_tags": {"ele": "365", "gnis:feature_id": "1274499", "name": "Whittle Mountain", "natural": "peak", "wikidata": "Q31691527"}}, {"name": "Wilson Knob", "latitude": 35.4056302, "longitude": -84.4449269, "elevation": 388.0, "source": "osm", "_tags": {"ele": "388", "gnis:feature_id": "1274837", "name": "Wilson Knob", "natural": "peak", "wikidata": "Q31691778"}}, {"name": "Windrock Mountain", "latitude": 36.1159117, "longitude": -84.3215948, "elevation": 913.0, "source": "osm", "_tags": {"ele": "913", "gnis:feature_id": "1274862", "name": "Windrock Mountain", "natural": "peak", "wikidata": "Q31691834"}}, {"name": "Wise Hill", "latitude": 35.9275834, "longitude": -83.8999044, "elevation": 360.0, "source": "osm", "_tags": {"ele": "360", "gnis:feature_id": "1274898", "name": "Wise Hill", "natural": "peak", "wikidata": "Q31691961"}}, {"name": "Woodpecker Knobs", "latitude": 35.6398047, "longitude": -84.01935, "elevation": 341.0, "source": "osm", "_tags": {"ele": "341", "gnis:feature_id": "1275065", "name": "Woodpecker Knobs", "natural": "peak", "wikidata": "Q31692057"}}, {"name": "Wright Mountain", "latitude": 36.226467, "longitude": -84.5324398, "elevation": 728.0, "source": "osm", "_tags": {"ele": "728", "gnis:feature_id": "1275185", "name": "Wright Mountain", "natural": "peak", "wikidata": "Q31692240"}}, {"name": "Yellow Knob", "latitude": 35.7837264, "longitude": -83.7034505, "elevation": 657.0, "source": "osm", "_tags": {"ele": "657", "gnis:feature_id": "1275283", "name": "Yellow Knob", "natural": "peak", "wikidata": "Q31692379"}}, {"name": "Young Mountain", "latitude": 36.2272998, "longitude": -84.5596628, "elevation": 872.0, "source": "osm", "_tags": {"ele": "872", "gnis:feature_id": "1275335", "name": "Young Mountain", "natural": "peak", "wikidata": "Q31692432"}}, {"name": "Alexander Knob", "latitude": 35.7103568, "longitude": -84.1793584, "elevation": 401.0, "source": "osm", "_tags": {"ele": "401", "gnis:feature_id": "1275561", "name": "Alexander Knob", "natural": "peak", "wikidata": "Q31660463"}}, {"name": "Alie Mountain", "latitude": 35.7048098, "longitude": -83.7571171, "elevation": 519.0, "source": "osm", "_tags": {"ele": "519", "gnis:feature_id": "1275568", "name": "Alie Mountain", "natural": "peak", "wikidata": "Q31660498"}}, {"name": "Alie Mountain", "latitude": 35.7103657, "longitude": -83.7407276, "elevation": 576.0, "source": "osm", "_tags": {"ele": "576", "gnis:feature_id": "1275569", "name": "Alie Mountain", "natural": "peak", "wikidata": "Q31660515"}}, {"name": "American Knob", "latitude": 36.0953558, "longitude": -84.3788193, "elevation": 984.0, "source": "osm", "_tags": {"ele": "984", "gnis:feature_id": "1275658", "name": "American Knob", "natural": "peak", "wikidata": "Q31660617"}}, {"name": "Arch Mountain", "latitude": 36.2164676, "longitude": -84.3954895, "elevation": 856.0, "source": "osm", "_tags": {"ele": "856", "gnis:feature_id": "1275840", "name": "Arch Mountain", "natural": "peak", "wikidata": "Q31660783"}}, {"name": "Ash Log Mountain", "latitude": 36.2695236, "longitude": -84.3013197, "elevation": 975.0, "source": "osm", "_tags": {"ele": "975", "gnis:feature_id": "1275933", "name": "Ash Log Mountain", "natural": "peak", "wikidata": "Q31660833"}}, {"name": "Bakers Grave Mountain", "latitude": 35.3236879, "longitude": -84.3115881, "elevation": 492.0, "source": "osm", "_tags": {"ele": "492", "gnis:feature_id": "1276194", "name": "Bakers Grave Mountain", "natural": "peak"}}, {"name": "Bald Knob", "latitude": 36.1570224, "longitude": -84.4629914, "elevation": 985.0, "source": "osm", "_tags": {"ele": "985", "gnis:feature_id": "1276211", "name": "Bald Knob", "natural": "peak", "wikidata": "Q31661228"}}, {"name": "Barber Hill", "latitude": 35.9203602, "longitude": -83.9524064, "elevation": 344.0, "source": "osm", "_tags": {"ele": "344", "gnis:feature_id": "1276281", "name": "Barber Hill", "natural": "peak", "wikidata": "Q31661431"}}, {"name": "Bat Creek Knobs", "latitude": 35.61341, "longitude": -84.3201988, "elevation": 328.0, "source": "osm", "_tags": {"ele": "328", "gnis:feature_id": "1276445", "name": "Bat Creek Knobs", "natural": "peak", "wikidata": "Q31661585"}}, {"name": "Bear Knob", "latitude": 36.2017453, "longitude": -84.3924335, "elevation": 917.0, "source": "osm", "_tags": {"ele": "917", "gnis:feature_id": "1276624", "name": "Bear Knob", "natural": "peak", "wikidata": "Q31661763"}}, {"name": "Bearwallow Mountain", "latitude": 35.7698098, "longitude": -83.7323943, "elevation": 720.0, "source": "osm", "_tags": {"ele": "720", "gnis:feature_id": "1276672", "name": "Bearwallow Mountain", "natural": "peak", "wikidata": "Q31661817"}}, {"name": "Betsy Mountain", "latitude": 35.8781405, "longitude": -83.8374008, "elevation": 358.0, "source": "osm", "_tags": {"ele": "358", "gnis:feature_id": "1277186", "name": "Betsy Mountain", "natural": "peak", "wikidata": "Q31662264"}}, {"name": "Big Butte", "latitude": 36.0748005, "longitude": -84.3057595, "elevation": 499.0, "source": "osm", "_tags": {"ele": "499", "gnis:feature_id": "1277267", "name": "Big Butte", "natural": "peak", "wikidata": "Q31662329"}}, {"name": "Big Hill", "latitude": 35.6517449, "longitude": -84.2254718, "elevation": 307.0, "source": "osm", "_tags": {"ele": "307", "gnis:feature_id": "1277304", "name": "Big Hill", "natural": "peak", "wikidata": "Q31662540"}}, {"name": "Big Mountain", "latitude": 36.0667445, "longitude": -84.3774296, "elevation": 304.0, "source": "osm", "_tags": {"ele": "304", "gnis:feature_id": "1277343", "name": "Big Mountain", "natural": "peak", "wikidata": "Q31662657"}}, {"name": "Big Mountain", "latitude": 36.2389677, "longitude": -84.4341028, "elevation": 795.0, "source": "osm", "_tags": {"ele": "795", "gnis:feature_id": "1277344", "name": "Big Mountain", "natural": "peak", "wikidata": "Q31662690"}}, {"name": "Big Pine Mountain", "latitude": 35.813699, "longitude": -83.698783, "elevation": 604.0, "source": "osm", "_tags": {"ele": "604", "gnis:feature_id": "1277354", "name": "Big Pine Mountain", "natural": "peak", "wikidata": "Q31662755"}}, {"name": "Birchfield Mountain", "latitude": 35.4873007, "longitude": -84.2243601, "elevation": 368.0, "source": "osm", "_tags": {"ele": "368", "gnis:feature_id": "1277495", "name": "Birchfield Mountain", "natural": "peak", "wikidata": "Q31662849"}}, {"name": "Bird Mountain", "latitude": 36.1495223, "longitude": -84.4816032, "elevation": 958.0, "source": "osm", "_tags": {"ele": "958", "gnis:feature_id": "1277511", "name": "Bird Mountain", "natural": "peak", "wikidata": "Q31662873"}}, {"name": "Black Sulphur Knobs", "latitude": 35.6761947, "longitude": -83.9593474, "elevation": 416.0, "source": "osm", "_tags": {"ele": "416", "gnis:feature_id": "1277599", "name": "Black Sulphur Knobs", "natural": "peak", "wikidata": "Q31663009"}}, {"name": "Blue Mountain", "latitude": 35.4634147, "longitude": -84.101299, "elevation": 521.0, "source": "osm", "_tags": {"ele": "521", "gnis:feature_id": "1277770", "name": "Blue Mountain", "natural": "peak", "wikidata": "Q31663228"}}, {"name": "Blue Rock Mountain", "latitude": 35.7724312, "longitude": -83.7131709, "elevation": 679.0, "source": "osm", "_tags": {"ele": "679", "gnis:feature_id": "1277773", "name": "Blue Rock Mountain", "natural": "peak", "wikidata": "Q31663247"}}, {"name": "Bootjack Mountain", "latitude": 36.2142455, "longitude": -84.3568766, "elevation": 831.0, "source": "osm", "_tags": {"ele": "831", "gnis:feature_id": "1277994", "name": "Bootjack Mountain", "natural": "peak", "wikidata": "Q31663473"}}, {"name": "Borden Top", "latitude": 35.7067547, "longitude": -83.7401721, "elevation": 619.0, "source": "osm", "_tags": {"ele": "619", "gnis:feature_id": "1277998", "name": "Borden Top", "natural": "peak", "wikidata": "Q31663482"}}, {"name": "Brickyard Mountain", "latitude": 35.8645278, "longitude": -83.9201817, "elevation": 318.0, "source": "osm", "_tags": {"ele": "318", "gnis:feature_id": "1278334", "name": "Brickyard Mountain", "natural": "peak", "wikidata": "Q31663791"}}, {"name": "Brier Lick Knob", "latitude": 35.5243767, "longitude": -83.8254047, "elevation": 1379.07, "source": "osm", "_tags": {"ele": "1379.07", "gnis:feature_id": "1278372", "name": "Brier Lick Knob", "natural": "peak", "official_name": "Brier Lick Knob", "source": "NPS", "wikidata": "Q31663825"}}, {"name": "Brush Mountain", "latitude": 35.3753606, "longitude": -84.0451872, "elevation": 1218.0, "source": "osm", "_tags": {"ele": "1218", "gnis:feature_id": "1278692", "name": "Brush Mountain", "natural": "peak", "wikidata": "Q31427057"}}, {"name": "Brushy Knob", "latitude": 36.1200808, "longitude": -83.9251882, "elevation": 471.0, "source": "osm", "_tags": {"ele": "471", "gnis:feature_id": "1278708", "name": "Brushy Knob", "natural": "peak", "wikidata": "Q31664060"}}, {"name": "Buchannan Mountain", "latitude": 35.5598343, "longitude": -84.021174, "elevation": 154.838, "source": "osm", "_tags": {"ele": "154.838", "gnis:feature_id": "1278785", "name": "Buchannan Mountain", "natural": "peak", "official_name": "Buchannan Mountain", "source": "NPS", "wikidata": "Q31664180"}}, {"name": "Bunker Hill", "latitude": 35.532235, "longitude": -83.9362571, "elevation": 843.265, "source": "osm", "_tags": {"ele": "843.265", "gnis:feature_id": "1279005", "name": "Bunker Hill", "natural": "peak", "official_name": "Bunker Hill", "source": "NPS", "wikidata": "Q31664686"}}, {"name": "Bunker Hill", "latitude": 35.5345268, "longitude": -84.0476845, "elevation": 434.0, "source": "osm", "_tags": {"ele": "434", "gnis:feature_id": "1279006", "name": "Bunker Hill", "natural": "peak", "wikidata": "Q31664633"}}, {"name": "Burge Mountain", "latitude": 36.1792451, "longitude": -84.4004889, "elevation": 993.0, "source": "osm", "_tags": {"ele": "993", "gnis:feature_id": "1279034", "name": "Burge Mountain", "natural": "peak", "wikidata": "Q31664702"}}, {"name": "Butler Hill", "latitude": 35.9925752, "longitude": -84.5577144, "elevation": 353.0, "source": "osm", "_tags": {"ele": "353", "gnis:feature_id": "1279185", "name": "Butler Hill", "natural": "peak", "wikidata": "Q31664862"}}, {"name": "Butler Mountain", "latitude": 35.5042464, "longitude": -84.1704685, "elevation": 396.0, "source": "osm", "_tags": {"ele": "396", "gnis:feature_id": "1279191", "name": "Butler Mountain", "natural": "peak", "wikidata": "Q31664898"}}, {"name": "Buzzard Hill", "latitude": 35.8831399, "longitude": -83.8651798, "elevation": 373.0, "source": "osm", "_tags": {"ele": "373", "gnis:feature_id": "1279219", "name": "Buzzard Hill", "natural": "peak", "wikidata": "Q31665060"}}, {"name": "Buzzard Roost", "latitude": 35.5461926, "longitude": -84.0837975, "elevation": 467.0, "source": "osm", "_tags": {"ele": "467", "gnis:feature_id": "1279224", "name": "Buzzard Roost", "natural": "peak", "wikidata": "Q31665096"}}, {"name": "Cane Creek Mountain", "latitude": 35.4100795, "longitude": -84.1851927, "elevation": 560.0, "source": "osm", "_tags": {"ele": "560", "gnis:feature_id": "1279528", "name": "Cane Creek Mountain", "natural": "peak", "wikidata": "Q31665440"}}, {"name": "Canebrake Mountain", "latitude": 35.4709135, "longitude": -84.1524124, "elevation": 454.0, "source": "osm", "_tags": {"ele": "454", "gnis:feature_id": "1279543", "name": "Canebrake Mountain", "natural": "peak", "wikidata": "Q31665481"}}, {"name": "Case Mountain", "latitude": 35.897586, "longitude": -83.7729542, "elevation": 422.0, "source": "osm", "_tags": {"ele": "422", "gnis:feature_id": "1279842", "name": "Case Mountain", "natural": "peak", "wikidata": "Q31665777"}}, {"name": "Chestnut Top", "latitude": 35.6490345, "longitude": -83.7406784, "elevation": 736.224, "source": "osm", "_tags": {"ele": "736.224", "gnis:feature_id": "1280425", "name": "Chestnut Top", "natural": "peak", "official_name": "Chestnut Top", "source": "NPS", "wikidata": "Q31666549"}}, {"name": "Chestnut Top Lead", "latitude": 35.6508584, "longitude": -83.7360139, "elevation": 698.516, "source": "osm", "_tags": {"ele": "698.516", "gnis:feature_id": "1280426", "name": "Chestnut Top Lead", "natural": "peak", "official_name": "Chestnut Top Lead", "source": "NPS", "wikidata": "Q31666568"}}, {"name": "Chilly Spring Knob", "latitude": 35.5109188, "longitude": -83.9378294, "elevation": 736.096, "source": "osm", "_tags": {"ele": "736.096", "gnis:feature_id": "1280468", "name": "Chilly Spring Knob", "natural": "peak", "official_name": "Chilly Spring Knob", "source": "NPS", "wikidata": "Q31666659"}}, {"name": "Chimney Rocks", "latitude": 35.5922171, "longitude": -83.7014629, "elevation": 1221.07, "source": "osm", "_tags": {"ele": "1221.07", "gnis:feature_id": "1280478", "name": "Chimney Rocks", "natural": "peak", "official_name": "Chimney Rocks", "source": "NPS", "wikidata": "Q31666698"}}, {"name": "Chimney Top Mountain", "latitude": 36.1047995, "longitude": -84.4949363, "elevation": 948.0, "source": "osm", "_tags": {"ele": "948", "gnis:feature_id": "1280481", "name": "Chimney Top Mountain", "natural": "peak", "wikidata": "Q31666881"}}, {"name": "Church Hill", "latitude": 35.873417, "longitude": -83.897681, "elevation": 320.0, "source": "osm", "_tags": {"ele": "320", "gnis:feature_id": "1280546", "name": "Church Hill", "natural": "peak", "wikidata": "Q31666963"}}, {"name": "Citico Mountain", "latitude": 35.5048036, "longitude": -84.0965758, "elevation": 424.0, "source": "osm", "_tags": {"ele": "424", "gnis:feature_id": "1280569", "name": "Citico Mountain", "natural": "peak", "wikidata": "Q31667036"}}, {"name": "Clark Mountain", "latitude": 35.9023083, "longitude": -83.7671206, "elevation": 423.0, "source": "osm", "_tags": {"ele": "423", "gnis:feature_id": "1280611", "name": "Clark Mountain", "natural": "peak", "wikidata": "Q31667096"}}, {"name": "Cobb Butt", "latitude": 35.5743799, "longitude": -83.79135, "elevation": 1176.8, "source": "osm", "_tags": {"ele": "1176.8", "gnis:feature_id": "1280818", "name": "Cobb Butt", "natural": "peak", "official_name": "Cobb Butt", "source": "NPS", "wikidata": "Q31667373"}}, {"name": "Cockspur Knob", "latitude": 35.5834222, "longitude": -84.0256698, "elevation": 249.936, "source": "osm", "_tags": {"ele": "249.936", "gnis:feature_id": "1280853", "name": "Cockspur Knob", "natural": "peak", "official_name": "Cockspur Knob", "source": "NPS", "wikidata": "Q31667392"}}, {"name": "Cold Water Knob", "latitude": 35.5859835, "longitude": -83.7381614, "elevation": 1219.73, "source": "osm", "_tags": {"ele": "1219.73", "gnis:feature_id": "1280907", "name": "Cold Water Knob", "natural": "peak", "official_name": "Cold Water Knob", "source": "NPS", "wikidata": "Q31667450"}}, {"name": "College Hill", "latitude": 36.1067459, "longitude": -84.1357524, "elevation": 312.0, "source": "osm", "_tags": {"ele": "312", "gnis:feature_id": "1280965", "name": "College Hill", "natural": "peak", "wikidata": "Q31667525"}}, {"name": "Cooke Knob", "latitude": 36.010909, "longitude": -84.5391029, "elevation": 505.0, "source": "osm", "_tags": {"ele": "505", "gnis:feature_id": "1281133", "name": "Cooke Knob", "natural": "peak", "wikidata": "Q31667649"}}, {"name": "Coon Hollow Knobs", "latitude": 35.7036954, "longitude": -83.9201793, "elevation": 369.0, "source": "osm", "_tags": {"ele": "369", "gnis:feature_id": "1281177", "name": "Coon Hollow Knobs", "natural": "peak", "wikidata": "Q31667703"}}, {"name": "Corbin Hill", "latitude": 36.0420216, "longitude": -84.4313207, "elevation": 402.0, "source": "osm", "_tags": {"ele": "402", "gnis:feature_id": "1281283", "name": "Corbin Hill", "natural": "peak", "wikidata": "Q31667903"}}, {"name": "Devils Tater Patch", "latitude": 35.5473477, "longitude": -83.7892633, "elevation": 1451.0, "source": "osm", "_tags": {"ele": "1451", "gnis:feature_id": "1282405", "name": "Devils Tater Patch", "natural": "peak"}}, {"name": "Doe Knob", "latitude": 35.5258329, "longitude": -83.8201586, "elevation": 1381.11, "source": "osm", "_tags": {"ele": "1381.11", "gnis:feature_id": "1282580", "name": "Doe Knob", "natural": "peak", "official_name": "Doe Knob", "source": "NPS", "wikidata": "Q31669147"}}, {"name": "Ellis Butt", "latitude": 35.6606449, "longitude": -83.8960901, "elevation": 738.0, "source": "osm", "_tags": {"ele": "738", "gnis:feature_id": "1283676", "name": "Ellis Butt", "natural": "peak", "official_name": "Ellis Butt", "source": "NPS", "wikidata": "Q31669940"}}, {"name": "England Mountain", "latitude": 36.148411, "longitude": -84.5052153, "elevation": 921.0, "source": "osm", "_tags": {"ele": "921", "gnis:feature_id": "1283787", "name": "England Mountain", "natural": "peak", "wikidata": "Q31670020"}}, {"name": "Fanny Knob", "latitude": 35.9728561, "longitude": -84.2607548, "elevation": 378.0, "source": "osm", "_tags": {"ele": "378", "gnis:feature_id": "1284125", "name": "Fanny Knob", "natural": "peak", "wikidata": "Q31670206"}}, {"name": "Flagpole Hill", "latitude": 35.5045258, "longitude": -84.0965758, "elevation": 416.0, "source": "osm", "_tags": {"ele": "416", "gnis:feature_id": "1284356", "name": "Flagpole Hill", "natural": "peak", "wikidata": "Q31670410"}}, {"name": "Flagpole Knob", "latitude": 36.0767443, "longitude": -84.4107648, "elevation": 977.0, "source": "osm", "_tags": {"ele": "977", "gnis:feature_id": "1284358", "name": "Flagpole Knob", "natural": "peak", "wikidata": "Q31670444"}}, {"name": "Flats Mountain", "latitude": 35.3834148, "longitude": -84.0982448, "elevation": 1013.0, "source": "osm", "_tags": {"ele": "1013", "gnis:feature_id": "1284445", "name": "Flats Mountain", "natural": "peak", "wikidata": "Q31427626"}}, {"name": "Flower Mountain", "latitude": 36.2250786, "longitude": -84.4882715, "elevation": 854.0, "source": "osm", "_tags": {"ele": "854", "gnis:feature_id": "1284508", "name": "Flower Mountain", "natural": "peak", "wikidata": "Q31670661"}}, {"name": "Fodderstack Mountain", "latitude": 35.6345847, "longitude": -83.6980618, "elevation": 768.951, "source": "osm", "_tags": {"ele": "768.951", "gnis:feature_id": "1284543", "name": "Fodderstack Mountain", "natural": "peak", "official_name": "Fodderstack Mountain", "source": "NPS", "wikidata": "Q31670680"}}, {"name": "Fork Mountain", "latitude": 36.148967, "longitude": -84.4196558, "elevation": 944.0, "source": "osm", "_tags": {"ele": "944", "gnis:feature_id": "1284622", "name": "Fork Mountain", "natural": "peak", "wikidata": "Q31670773"}}, {"name": "Fork Mountain", "latitude": 36.1961891, "longitude": -84.5141054, "elevation": 787.0, "source": "osm", "_tags": {"ele": "787", "gnis:feature_id": "1284623", "name": "Fork Mountain", "natural": "peak", "wikidata": "Q31670826"}}, {"name": "Freels Mountain", "latitude": 36.2339662, "longitude": -84.5852193, "elevation": 774.0, "source": "osm", "_tags": {"ele": "774", "gnis:feature_id": "1284882", "name": "Freels Mountain", "natural": "peak", "wikidata": "Q31671080"}}, {"name": "French Hill", "latitude": 35.9973082, "longitude": -83.7354548, "elevation": 408.0, "source": "osm", "_tags": {"ele": "408", "gnis:feature_id": "1284909", "name": "French Hill", "natural": "peak", "wikidata": "Q31671096"}}, {"name": "Frozen Head", "latitude": 36.1225777, "longitude": -84.4582681, "elevation": 1001.0, "source": "osm", "_tags": {"alt_name": "Frozen Head Mountain", "ele": "1001", "gnis:feature_id": "1284984;1284983", "name": "Frozen Head", "natural": "peak", "wikidata": "Q5506295"}}, {"name": "Gage Hill", "latitude": 35.7420179, "longitude": -84.5577117, "elevation": 350.0, "source": "osm", "_tags": {"ele": "350", "gnis:feature_id": "1285064", "name": "Gage Hill", "natural": "peak", "wikidata": "Q31671245"}}, {"name": "Garner Top", "latitude": 35.8781429, "longitude": -83.7087847, "elevation": 387.0, "source": "osm", "_tags": {"ele": "387", "gnis:feature_id": "1285180", "name": "Garner Top", "natural": "peak", "wikidata": "Q31671348"}}, {"name": "Gibson Knob", "latitude": 36.26869, "longitude": -84.4424367, "elevation": 887.0, "source": "osm", "_tags": {"ele": "887", "gnis:feature_id": "1285352", "name": "Gibson Knob", "natural": "peak", "wikidata": "Q31671499"}}, {"name": "Goddard Mountain", "latitude": 35.8520285, "longitude": -83.8854578, "elevation": 357.0, "source": "osm", "_tags": {"ele": "357", "gnis:feature_id": "1285559", "name": "Goddard Mountain", "natural": "peak", "wikidata": "Q31671720"}}, {"name": "Grassy Mountain", "latitude": 36.2511882, "longitude": -84.6054979, "elevation": 733.0, "source": "osm", "_tags": {"ele": "733", "gnis:feature_id": "1285908", "name": "Grassy Mountain", "natural": "peak"}}, {"name": "Grassy Mountain", "latitude": 36.2761875, "longitude": -84.6485543, "elevation": 482.0, "source": "osm", "_tags": {"ele": "482", "gnis:feature_id": "1285909", "name": "Grassy Mountain", "natural": "peak", "wikidata": "Q31672108"}}, {"name": "Grave Hill", "latitude": 36.097023, "longitude": -84.2785366, "elevation": 418.0, "source": "osm", "_tags": {"ele": "418", "gnis:feature_id": "1285924", "name": "Grave Hill", "natural": "peak", "wikidata": "Q31672157"}}, {"name": "Gravelly Mountain", "latitude": 35.8356392, "longitude": -83.9162921, "elevation": 403.0, "source": "osm", "_tags": {"ele": "403", "gnis:feature_id": "1285941", "name": "Gravelly Mountain", "natural": "peak", "wikidata": "Q31672189"}}, {"name": "Griffith Mountain", "latitude": 36.2364668, "longitude": -84.5491071, "elevation": 806.0, "source": "osm", "_tags": {"ele": "806", "gnis:feature_id": "1286288", "name": "Griffith Mountain", "natural": "peak", "wikidata": "Q31672616"}}, {"name": "Groundhog Mountain", "latitude": 35.3478541, "longitude": -84.3385335, "elevation": 455.0, "source": "osm", "_tags": {"ele": "455", "gnis:feature_id": "1286349", "name": "Groundhog Mountain", "natural": "peak", "wikidata": "Q31672799"}}, {"name": "Guinea Hill Knob", "latitude": 36.1634115, "longitude": -84.4404904, "elevation": 977.0, "source": "osm", "_tags": {"ele": "977", "gnis:feature_id": "1286379", "name": "Guinea Hill Knob", "natural": "peak", "wikidata": "Q31672814"}}, {"name": "Hall Mountain", "latitude": 35.8464726, "longitude": -83.9076808, "elevation": 385.0, "source": "osm", "_tags": {"ele": "385", "gnis:feature_id": "1286595", "name": "Hall Mountain", "natural": "peak", "wikidata": "Q31672968"}}, {"name": "Hannah Top", "latitude": 36.1356339, "longitude": -84.3690975, "elevation": 963.0, "source": "osm", "_tags": {"ele": "963", "gnis:feature_id": "1286749", "name": "Hannah Top", "natural": "peak", "wikidata": "Q31673152"}}, {"name": "Hatmaker Knob", "latitude": 36.2861904, "longitude": -84.2804858, "elevation": 976.0, "source": "osm", "_tags": {"ele": "976", "gnis:feature_id": "1287147", "name": "Hatmaker Knob", "natural": "peak", "wikidata": "Q31673365"}}, {"name": "Haw Knob Number One", "latitude": 35.4742502, "longitude": -84.0068497, "elevation": 721.0, "source": "osm", "_tags": {"ele": "721", "gnis:feature_id": "1287165", "name": "Haw Knob Number One", "natural": "peak", "wikidata": "Q31673384"}}, {"name": "Hickory Top", "latitude": 35.5257295, "longitude": -83.8979112, "elevation": 1114.79, "source": "osm", "_tags": {"ele": "1114.79", "gnis:feature_id": "1287622", "name": "Hickory Top", "natural": "peak", "official_name": "Hickory Top", "source": "NPS", "wikidata": "Q31692558"}}, {"name": "High Knob", "latitude": 36.2073005, "longitude": -84.5046608, "elevation": 938.0, "source": "osm", "_tags": {"ele": "938", "gnis:feature_id": "1287697", "name": "High Knob", "natural": "peak", "wikidata": "Q31673836"}}, {"name": "High Point", "latitude": 35.5322243, "longitude": -83.8683116, "elevation": 1328.6, "source": "osm", "_tags": {"ele": "1328.6", "gnis:feature_id": "1287705", "name": "High Point", "natural": "peak", "official_name": "High Point", "source": "NPS", "wikidata": "Q31673905"}}, {"name": "High Point", "latitude": 35.8161872, "longitude": -84.3799259, "elevation": 378.0, "source": "osm", "_tags": {"ele": "378", "gnis:feature_id": "1287706", "name": "High Point", "natural": "peak", "wikidata": "Q31673939"}}, {"name": "High Point", "latitude": 35.8839735, "longitude": -83.8524015, "elevation": 400.0, "source": "osm", "_tags": {"ele": "400", "gnis:feature_id": "1287707", "name": "High Point", "natural": "peak", "wikidata": "Q31673922"}}, {"name": "High Point", "latitude": 36.2042452, "longitude": -84.4402135, "elevation": 966.0, "source": "osm", "_tags": {"ele": "966", "gnis:feature_id": "1287709", "name": "High Point", "natural": "peak", "wikidata": "Q31673956"}}, {"name": "High Point", "latitude": 36.2242452, "longitude": -84.0688081, "elevation": 439.0, "source": "osm", "_tags": {"ele": "439", "gnis:feature_id": "1287710", "name": "High Point", "natural": "peak", "wikidata": "Q31673889"}}, {"name": "High Point Mountain", "latitude": 36.1825783, "longitude": -84.4368795, "elevation": 867.0, "source": "osm", "_tags": {"ele": "867", "gnis:feature_id": "1287715", "name": "High Point Mountain", "natural": "peak", "wikidata": "Q31674008"}}, {"name": "High Top", "latitude": 35.652022, "longitude": -84.2554733, "elevation": 336.0, "source": "osm", "_tags": {"ele": "336", "gnis:feature_id": "1287722", "name": "High Top", "natural": "peak", "wikidata": "Q31674109"}}, {"name": "High Top", "latitude": 35.6950885, "longitude": -83.7157267, "elevation": 553.0, "source": "osm", "_tags": {"ele": "553", "name": "High Top", "natural": "peak", "wikidata": "Q31674059"}}, {"name": "High Top", "latitude": 35.8434168, "longitude": -83.917959, "elevation": 410.0, "source": "osm", "_tags": {"ele": "410", "gnis:feature_id": "1287726", "name": "High Top", "natural": "peak", "wikidata": "Q31674077"}}, {"name": "Hightop", "latitude": 35.9845302, "longitude": -83.7493438, "elevation": 429.0, "source": "osm", "_tags": {"ele": "429", "gnis:feature_id": "1287765", "name": "Hightop", "natural": "peak", "wikidata": "Q31674211"}}, {"name": "Hiwassee Knobs", "latitude": 35.5717425, "longitude": -84.389091, "elevation": 402.0, "source": "osm", "_tags": {"ele": "402", "gnis:feature_id": "1287915", "name": "Hiwassee Knobs", "natural": "peak", "wikidata": "Q31674295"}}, {"name": "Hornet Tree Top", "latitude": 35.6060388, "longitude": -83.6914305, "elevation": 1141.02, "source": "osm", "_tags": {"ele": "1141.02", "gnis:feature_id": "1288375", "name": "Hornet Tree Top", "natural": "peak", "official_name": "Hornet Tree Top", "source": "NPS", "wikidata": "Q31674591"}}, {"name": "House Mountain", "latitude": 35.7709215, "longitude": -83.7035044, "elevation": 595.0, "source": "osm", "_tags": {"ele": "595", "gnis:feature_id": "1288489", "name": "House Mountain", "natural": "peak", "wikidata": "Q31674772"}}, {"name": "House Mountain", "latitude": 36.1117502, "longitude": -83.7665709, "elevation": 629.0, "source": "osm", "_tags": {"ele": "629", "gnis:feature_id": "1288490", "name": "House Mountain", "natural": "peak", "wikidata": "Q5913704"}}, {"name": "Hoze Mountain", "latitude": 35.9036972, "longitude": -83.765454, "elevation": 411.0, "source": "osm", "_tags": {"ele": "411", "gnis:feature_id": "1288573", "name": "Hoze Mountain", "natural": "peak", "wikidata": "Q31674838"}}, {"name": "Hurricane Mountain", "latitude": 35.6722346, "longitude": -83.8413381, "elevation": 592.0, "source": "osm", "_tags": {"ele": "592", "gnis:feature_id": "1288834", "name": "Hurricane Mountain", "natural": "peak", "official_name": "Hurricane Mountain", "source": "NPS", "wikidata": "Q31675046"}}, {"name": "Hurricane Mountain", "latitude": 36.2795237, "longitude": -84.2738187, "elevation": 1007.0, "source": "osm", "_tags": {"ele": "1007", "gnis:feature_id": "1288835", "name": "Hurricane Mountain", "natural": "peak", "wikidata": "Q31675062"}}, {"name": "Ikes Peak", "latitude": 35.3848048, "longitude": -84.0535207, "elevation": 1155.0, "source": "osm", "_tags": {"ele": "1155", "gnis:feature_id": "1288915", "name": "Ikes Peak", "natural": "peak"}}, {"name": "Indian Knob", "latitude": 36.1036886, "longitude": -84.4688239, "elevation": 931.0, "source": "osm", "_tags": {"ele": "931", "gnis:feature_id": "1288993", "name": "Indian Knob", "natural": "peak", "wikidata": "Q31675162"}}, {"name": "Jackson Mountain", "latitude": 36.0747999, "longitude": -84.3996531, "elevation": 768.0, "source": "osm", "_tags": {"ele": "768", "gnis:feature_id": "1289238", "name": "Jackson Mountain", "natural": "peak", "wikidata": "Q31675492"}}, {"name": "John Pratt Hill", "latitude": 36.0317511, "longitude": -83.7926804, "elevation": 341.0, "source": "osm", "_tags": {"ele": "341", "gnis:feature_id": "1289491", "name": "John Pratt Hill", "natural": "peak", "wikidata": "Q31675936"}}, {"name": "Johnson Knob", "latitude": 35.4145193, "longitude": -84.4296484, "elevation": 392.0, "source": "osm", "_tags": {"ele": "392", "gnis:feature_id": "1289640", "name": "Johnson Knob", "natural": "peak", "wikidata": "Q31676020"}}, {"name": "Johnson Mountain", "latitude": 35.8661951, "longitude": -83.8849025, "elevation": 359.0, "source": "osm", "_tags": {"ele": "359", "gnis:feature_id": "1289647", "name": "Johnson Mountain", "natural": "peak", "wikidata": "Q31676037"}}, {"name": "Julians Rock", "latitude": 36.1511899, "longitude": -84.2729823, "elevation": 946.0, "source": "osm", "_tags": {"ele": "946", "gnis:feature_id": "1289877", "name": "Julians Rock", "natural": "peak", "wikidata": "Q31676157"}}, {"name": "Justice Mountain", "latitude": 36.1923004, "longitude": -84.5032715, "elevation": 877.0, "source": "osm", "_tags": {"ele": "877", "gnis:feature_id": "1289894", "name": "Justice Mountain", "natural": "peak", "wikidata": "Q31676207"}}, {"name": "Kelley Mountain", "latitude": 36.0942441, "longitude": -84.4713238, "elevation": 856.0, "source": "osm", "_tags": {"ele": "856", "gnis:feature_id": "1290009", "name": "Kelley Mountain", "natural": "peak", "wikidata": "Q31676295"}}, {"name": "Kelly Hill", "latitude": 35.4281291, "longitude": -84.5654884, "elevation": 346.0, "source": "osm", "_tags": {"ele": "346", "gnis:feature_id": "1290037", "name": "Kelly Hill", "natural": "peak", "wikidata": "Q31676312"}}, {"name": "Kelly Knob", "latitude": 35.3853519, "longitude": -84.4732616, "elevation": 435.0, "source": "osm", "_tags": {"ele": "435", "gnis:feature_id": "1290040", "name": "Kelly Knob", "natural": "peak", "wikidata": "Q31676346"}}, {"name": "Knolling Knob", "latitude": 36.2200777, "longitude": -84.5527181, "elevation": 834.0, "source": "osm", "_tags": {"ele": "834", "gnis:feature_id": "1290386", "name": "Knolling Knob", "natural": "peak", "wikidata": "Q31676751"}}, {"name": "Lakey Woods Knob", "latitude": 35.5144079, "longitude": -84.0012515, "elevation": 434.28, "source": "osm", "_tags": {"ele": "434.28", "gnis:feature_id": "1290537", "name": "Lakey Woods Knob", "natural": "peak", "official_name": "Lakey Woods Knob", "source": "NPS", "wikidata": "Q31676834"}}, {"name": "Landrom Mountain", "latitude": 36.2014663, "longitude": -84.5552178, "elevation": 884.0, "source": "osm", "_tags": {"ele": "884", "gnis:feature_id": "1290587", "name": "Landrom Mountain", "natural": "peak", "wikidata": "Q31676866"}}, {"name": "Listening Top", "latitude": 35.7070325, "longitude": -83.732394, "elevation": 624.0, "source": "osm", "_tags": {"ele": "624", "gnis:feature_id": "1291362", "name": "Listening Top", "natural": "peak", "wikidata": "Q31677250"}}, {"name": "Little Brushy Mountain", "latitude": 36.0675775, "longitude": -84.4110425, "elevation": 715.0, "source": "osm", "_tags": {"ele": "715", "gnis:feature_id": "1291404", "name": "Little Brushy Mountain", "natural": "peak", "wikidata": "Q31677366"}}, {"name": "Little Double", "latitude": 35.7959214, "longitude": -83.6960047, "elevation": 851.0, "source": "osm", "_tags": {"ele": "851", "gnis:feature_id": "1291475", "name": "Little Double", "natural": "peak", "wikidata": "Q31677500"}}, {"name": "Little Fodderstack", "latitude": 36.1050779, "longitude": -84.3963204, "elevation": 902.0, "source": "osm", "_tags": {"ele": "902", "gnis:feature_id": "1291504", "name": "Little Fodderstack", "natural": "peak", "wikidata": "Q31677605"}}, {"name": "Little Fork Mountain", "latitude": 36.1097997, "longitude": -84.4760466, "elevation": 965.0, "source": "osm", "_tags": {"ele": "965", "gnis:feature_id": "1291505", "name": "Little Fork Mountain", "natural": "peak", "wikidata": "Q31677554"}}, {"name": "Little Fork Mountain", "latitude": 36.141189, "longitude": -84.4588241, "elevation": 958.0, "source": "osm", "_tags": {"ele": "958", "gnis:feature_id": "1291506", "name": "Little Fork Mountain", "natural": "peak", "wikidata": "Q31677570"}}, {"name": "Little Mountain", "latitude": 35.6596472, "longitude": -83.7664783, "elevation": 571.0, "source": "osm", "_tags": {"ele": "571", "gnis:feature_id": "1291576", "name": "Little Mountain", "natural": "peak", "official_name": "Little Mountain", "source": "NPS", "wikidata": "Q31677723"}}, {"name": "Little Mountain", "latitude": 35.822855, "longitude": -84.2968658, "elevation": 372.0, "source": "osm", "_tags": {"ele": "372", "gnis:feature_id": "1291579", "name": "Little Mountain", "natural": "peak", "wikidata": "Q31677843"}}, {"name": "Little Mountain", "latitude": 35.9361853, "longitude": -84.6029933, "elevation": 456.0, "source": "osm", "_tags": {"ele": "456", "gnis:feature_id": "1291581", "name": "Little Mountain", "natural": "peak", "wikidata": "Q31677926"}}, {"name": "Little Mountain", "latitude": 36.2231343, "longitude": -84.4249354, "elevation": 624.0, "source": "osm", "_tags": {"ele": "624", "gnis:feature_id": "1291582", "name": "Little Mountain", "natural": "peak", "wikidata": "Q31677937"}}, {"name": "Little Mountain", "latitude": 36.273966, "longitude": -84.6032753, "elevation": 701.0, "source": "osm", "_tags": {"ele": "701", "gnis:feature_id": "1291583", "name": "Little Mountain", "natural": "peak", "wikidata": "Q31677951"}}, {"name": "Little Pilot Mountain", "latitude": 36.1747984, "longitude": -84.6143858, "elevation": 606.0, "source": "osm", "_tags": {"ele": "606", "gnis:feature_id": "1291606", "name": "Little Pilot Mountain", "natural": "peak", "wikidata": "Q31678241"}}, {"name": "Logan Hill", "latitude": 35.8195257, "longitude": -84.0432417, "elevation": 327.0, "source": "osm", "_tags": {"ele": "327", "gnis:feature_id": "1291822", "name": "Logan Hill", "natural": "peak", "wikidata": "Q31678701"}}, {"name": "Lone Mountain", "latitude": 36.0514648, "longitude": -84.5521596, "elevation": 767.0, "source": "osm", "_tags": {"ele": "767", "gnis:feature_id": "1291843", "name": "Lone Mountain", "natural": "peak", "wikidata": "Q31678735"}}, {"name": "Lone Mountain", "latitude": 36.2625788, "longitude": -84.4941056, "elevation": 454.0, "source": "osm", "_tags": {"ele": "454", "gnis:feature_id": "1291844", "name": "Lone Mountain", "natural": "peak", "wikidata": "Q31678769"}}, {"name": "Look Rock", "latitude": 35.6334472, "longitude": -83.941543, "elevation": 810.463, "source": "osm", "_tags": {"ele": "810.463", "gnis:feature_id": "1292030", "name": "Look Rock", "natural": "peak", "official_name": "Look Rock", "source": "NPS", "wikidata": "Q31678891"}}, {"name": "Lotterdale Knob", "latitude": 35.6700783, "longitude": -84.2176936, "elevation": 377.0, "source": "osm", "_tags": {"ele": "377", "gnis:feature_id": "1292096", "name": "Lotterdale Knob", "natural": "peak", "wikidata": "Q31679052"}}, {"name": "Love Mountain", "latitude": 36.1070216, "longitude": -84.5057701, "elevation": 778.0, "source": "osm", "_tags": {"ele": "778", "gnis:feature_id": "1292128", "name": "Love Mountain", "natural": "peak", "wikidata": "Q31679104"}}, {"name": "Luther Bookout Knob", "latitude": 35.4328533, "longitude": -84.4024248, "elevation": 408.0, "source": "osm", "_tags": {"ele": "408", "gnis:feature_id": "1292307", "name": "Luther Bookout Knob", "natural": "peak", "wikidata": "Q31679190"}}, {"name": "Lynn Carden Mountain", "latitude": 35.4873006, "longitude": -84.2304716, "elevation": 351.0, "source": "osm", "_tags": {"ele": "351", "gnis:feature_id": "1292347", "name": "Lynn Carden Mountain", "natural": "peak", "wikidata": "Q31679257"}}, {"name": "Marble Hill", "latitude": 35.9648057, "longitude": -83.8835156, "elevation": 311.0, "source": "osm", "_tags": {"ele": "311", "gnis:feature_id": "1292663", "name": "Marble Hill", "natural": "peak", "wikidata": "Q31679465"}}, {"name": "Mark Mountain", "latitude": 35.6950965, "longitude": -83.7788999, "elevation": 400.0, "source": "osm", "_tags": {"ele": "400", "gnis:feature_id": "1292689", "name": "Mark Mountain", "natural": "peak", "official_name": "Mark Mountain", "source": "NPS", "wikidata": "Q31679483"}}, {"name": "Maroney Top", "latitude": 35.5028609, "longitude": -84.0237944, "elevation": 515.0, "source": "osm", "_tags": {"ele": "515", "gnis:feature_id": "1292721", "name": "Maroney Top", "natural": "peak", "wikidata": "Q31679518"}}, {"name": "Matthew Mountain", "latitude": 35.6977268, "longitude": -83.7857652, "elevation": 433.0, "source": "osm", "_tags": {"ele": "433", "gnis:feature_id": "1292952", "name": "Matthew Mountain", "natural": "peak", "official_name": "Matthew Mountain", "source": "NPS", "wikidata": "Q31679745"}}, {"name": "Maxie Ridge", "latitude": 35.8495279, "longitude": -83.9196258, "elevation": 334.0, "source": "osm", "_tags": {"ele": "334", "gnis:feature_id": "1292973", "name": "Maxie Ridge", "natural": "peak", "wikidata": "Q31679764"}}, {"name": "McCampbell Knob", "latitude": 35.5626306, "longitude": -83.7642181, "elevation": 1359.1, "source": "osm", "_tags": {"ele": "1359.1", "gnis:feature_id": "1293113", "name": "McCampbell Knob", "natural": "peak", "official_name": "Mccampbell Knob", "source": "NPS"}}, {"name": "Melton Hill", "latitude": 35.9095219, "longitude": -84.304923, "elevation": 411.0, "source": "osm", "_tags": {"ele": "411", "gnis:feature_id": "1293569", "name": "Melton Hill", "natural": "peak", "wikidata": "Q31680226"}}, {"name": "Militia Hill", "latitude": 36.2156345, "longitude": -84.1754795, "elevation": 434.0, "source": "osm", "_tags": {"ele": "434", "gnis:feature_id": "1293779", "name": "Militia Hill", "natural": "peak", "wikidata": "Q31680310"}}, {"name": "Miller Cove Mountain", "latitude": 35.7300869, "longitude": -83.783507, "elevation": 528.0, "source": "osm", "_tags": {"ele": "528", "gnis:feature_id": "1293945", "name": "Miller Cove Mountain", "natural": "peak", "wikidata": "Q31680397"}}, {"name": "Miller Knobs", "latitude": 36.2136916, "longitude": -83.8590775, "elevation": 394.0, "source": "osm", "_tags": {"ele": "394", "gnis:feature_id": "1293957", "name": "Miller Knobs", "natural": "peak", "wikidata": "Q31680431"}}, {"name": "Miller Mountain", "latitude": 36.2631348, "longitude": -84.2907636, "elevation": 923.0, "source": "osm", "_tags": {"ele": "923", "gnis:feature_id": "1293958", "name": "Miller Mountain", "natural": "peak", "wikidata": "Q31680501"}}, {"name": "Mitchell Knob", "latitude": 36.1425804, "longitude": -83.9318557, "elevation": 463.0, "source": "osm", "_tags": {"ele": "463", "gnis:feature_id": "1294113", "name": "Mitchell Knob", "natural": "peak", "wikidata": "Q31680645"}}, {"name": "Mocking Crow Mountain", "latitude": 35.3331322, "longitude": -84.3232552, "elevation": 536.0, "source": "osm", "_tags": {"ele": "536", "gnis:feature_id": "1294142", "name": "Mocking Crow Mountain", "natural": "peak", "wikidata": "Q31680734"}}, {"name": "Mollies Butt", "latitude": 35.550665, "longitude": -83.8135834, "elevation": 1093.9, "source": "osm", "_tags": {"ele": "1093.9", "gnis:feature_id": "1294153", "name": "Mollies Butt", "natural": "peak", "official_name": "Mollies Butt", "source": "NPS", "wikidata": "Q31680769"}}, {"name": "Mose Mountain", "latitude": 35.3959114, "longitude": -84.2443622, "elevation": 491.0, "source": "osm", "_tags": {"ele": "491", "gnis:feature_id": "1294479", "name": "Mose Mountain", "natural": "peak", "wikidata": "Q31680970"}}, {"name": "Mount Lanier", "latitude": 35.5542519, "longitude": -83.9165679, "elevation": 948.0, "source": "osm", "_tags": {"ele": "948", "gnis:feature_id": "1307386", "name": "Mount Lanier", "natural": "peak", "source": "NPS", "wikidata": "Q31676884"}}, {"name": "Mount Nebo", "latitude": 35.7289749, "longitude": -83.8298978, "elevation": 600.0, "source": "osm", "_tags": {"ele": "600", "gnis:feature_id": "1294684", "name": "Mount Nebo", "natural": "peak", "wikidata": "Q31681251"}}, {"name": "Mountain Hill", "latitude": 35.8314694, "longitude": -84.087133, "elevation": 332.0, "source": "osm", "_tags": {"ele": "332", "gnis:feature_id": "1294932", "name": "Mountain Hill", "natural": "peak", "wikidata": "Q31681054"}}, {"name": "Needmore Hill", "latitude": 35.6975824, "longitude": -84.012961, "elevation": 385.0, "source": "osm", "_tags": {"ele": "385", "gnis:feature_id": "1295312", "name": "Needmore Hill", "natural": "peak", "wikidata": "Q31681302"}}, {"name": "Nichols Mountain", "latitude": 35.8828628, "longitude": -83.8301784, "elevation": 330.0, "source": "osm", "_tags": {"ele": "330", "gnis:feature_id": "1295731", "name": "Nichols Mountain", "natural": "peak", "wikidata": "Q31681495"}}, {"name": "Norman Pond Knob", "latitude": 36.1820227, "longitude": -84.4585471, "elevation": 898.0, "source": "osm", "_tags": {"ele": "898", "gnis:feature_id": "1295827", "name": "Norman Pond Knob", "natural": "peak", "wikidata": "Q31681542"}}, {"name": "Observation Point", "latitude": 36.2089675, "longitude": -84.0701967, "elevation": 417.0, "source": "osm", "_tags": {"ele": "417", "gnis:feature_id": "1296227", "name": "Observation Point", "natural": "peak", "wikidata": "Q31681707"}}, {"name": "Parson High Top", "latitude": 35.5249314, "longitude": -83.9120801, "elevation": 991.928, "source": "osm", "_tags": {"ele": "991.928", "gnis:feature_id": "1296889", "name": "Parson High Top", "natural": "peak", "official_name": "Parson High Top", "source": "NPS", "wikidata": "Q31682247"}}, {"name": "Patterson Mountain", "latitude": 36.1295227, "longitude": -84.3477075, "elevation": 984.0, "source": "osm", "_tags": {"ele": "984", "gnis:feature_id": "1296968", "name": "Patterson Mountain", "natural": "peak", "wikidata": "Q31682279"}}, {"name": "Peach Orchard Mountain", "latitude": 35.8595281, "longitude": -83.9018475, "elevation": 355.0, "source": "osm", "_tags": {"ele": "355", "gnis:feature_id": "1297052", "name": "Peach Orchard Mountain", "natural": "peak", "wikidata": "Q31682365"}}, {"name": "Peaky Mountain", "latitude": 36.2217436, "longitude": -84.5985528, "elevation": 780.0, "source": "osm", "_tags": {"ele": "780", "gnis:feature_id": "1297065", "name": "Peaky Mountain", "natural": "peak", "wikidata": "Q31682417"}}, {"name": "Peaky Top", "latitude": 35.3328544, "longitude": -84.3229775, "elevation": 524.0, "source": "osm", "_tags": {"ele": "524", "gnis:feature_id": "1297066", "name": "Peaky Top", "natural": "peak"}}, {"name": "Peaked Top", "latitude": 35.4403561, "longitude": -84.2349168, "elevation": 565.0, "source": "osm", "_tags": {"ele": "565", "gnis:feature_id": "1297067", "name": "Peaked Top", "natural": "peak", "wikidata": "Q31682384"}}, {"name": "Pictured Pine Knob", "latitude": 35.517582, "longitude": -84.0676855, "elevation": 453.0, "source": "osm", "_tags": {"ele": "453", "gnis:feature_id": "1297408", "name": "Pictured Pine Knob", "natural": "peak", "wikidata": "Q31682821"}}, {"name": "Pilot Knob", "latitude": 36.0356345, "longitude": -84.2063092, "elevation": 366.0, "source": "osm", "_tags": {"ele": "366", "gnis:feature_id": "1297485", "name": "Pilot Knob", "natural": "peak", "wikidata": "Q31682858"}}, {"name": "Pilot Mountain", "latitude": 36.1481344, "longitude": -84.2707598, "elevation": 993.0, "source": "osm", "_tags": {"ele": "993", "gnis:feature_id": "1297498", "name": "Pilot Mountain", "natural": "peak", "wikidata": "Q31683134"}}, {"name": "Pilot Mountain", "latitude": 36.1870205, "longitude": -84.6279977, "elevation": 764.0, "source": "osm", "_tags": {"ele": "764", "gnis:feature_id": "1297499", "name": "Pilot Mountain", "natural": "peak", "wikidata": "Q31683152"}}, {"name": "Pine Mountain", "latitude": 35.2975757, "longitude": -84.3638127, "elevation": 419.0, "source": "osm", "_tags": {"ele": "419", "gnis:feature_id": "1297562", "name": "Pine Mountain", "natural": "peak", "wikidata": "Q31683371"}}, {"name": "Pine Top", "latitude": 35.816744, "longitude": -84.2863096, "elevation": 311.0, "source": "osm", "_tags": {"ele": "311", "gnis:feature_id": "1297589", "name": "Pine Top", "natural": "peak", "wikidata": "Q31683475"}}, {"name": "Pinestand Knob", "latitude": 35.7270314, "longitude": -83.7790625, "elevation": 525.0, "source": "osm", "_tags": {"ele": "525", "gnis:feature_id": "1297597", "name": "Pinestand Knob", "natural": "peak"}}, {"name": "Pleas McCartt Mountain", "latitude": 36.1922994, "longitude": -84.5618845, "elevation": 849.0, "source": "osm", "_tags": {"ele": "849", "gnis:feature_id": "1297783", "name": "Pleas McCartt Mountain", "natural": "peak", "wikidata": "Q31683759"}}, {"name": "Pleasant View", "latitude": 35.7736987, "longitude": -83.7315611, "elevation": 712.0, "source": "osm", "_tags": {"ele": "712", "gnis:feature_id": "1297945", "name": "Pleasant View", "natural": "peak", "wikidata": "Q31683796"}}, {"name": "Pole Knob", "latitude": 35.5672882, "longitude": -83.783559, "elevation": 1330.75, "source": "osm", "_tags": {"ele": "1330.75", "gnis:feature_id": "1298029", "name": "Pole Knob", "natural": "peak", "official_name": "Pole Knob", "source": "NPS", "wikidata": "Q31683852"}}, {"name": "Pond Knob", "latitude": 36.2106322, "longitude": -84.6135531, "elevation": 659.0, "source": "osm", "_tags": {"ele": "659", "gnis:feature_id": "1298112", "name": "Pond Knob", "natural": "peak", "wikidata": "Q31683937"}}, {"name": "Potato Knob", "latitude": 36.2475777, "longitude": -84.5682745, "elevation": 601.0, "source": "osm", "_tags": {"ele": "601", "gnis:feature_id": "1298338", "name": "Potato Knob", "natural": "peak", "wikidata": "Q31684344"}}, {"name": "Potter Knob", "latitude": 36.1545246, "longitude": -83.9318561, "elevation": 428.0, "source": "osm", "_tags": {"ele": "428", "gnis:feature_id": "1298358", "name": "Potter Knob", "natural": "peak", "wikidata": "Q31684411"}}, {"name": "Powell Knob", "latitude": 35.5315841, "longitude": -83.8129411, "elevation": 1354.09, "source": "osm", "_tags": {"ele": "1354.09", "gnis:feature_id": "1298418", "name": "Powell Knob", "natural": "peak", "official_name": "Powell Knob", "source": "NPS"}}, {"name": "Queens Mountain", "latitude": 35.3189654, "longitude": -84.3271443, "elevation": 467.0, "source": "osm", "_tags": {"ele": "467", "gnis:feature_id": "1298760", "name": "Queens Mountain", "natural": "peak", "wikidata": "Q31684896"}}, {"name": "Rainy Knob", "latitude": 35.9584119, "longitude": -84.2249196, "elevation": 331.0, "source": "osm", "_tags": {"ele": "331", "gnis:feature_id": "1298856", "name": "Rainy Knob", "natural": "peak", "wikidata": "Q31685032"}}, {"name": "Red Hill", "latitude": 35.8523049, "longitude": -83.9565719, "elevation": 332.0, "source": "osm", "_tags": {"ele": "332", "gnis:feature_id": "1299054", "name": "Red Hill", "natural": "peak", "wikidata": "Q31685195"}}, {"name": "Red Hills", "latitude": 35.3828509, "longitude": -84.6407697, "elevation": 312.0, "source": "osm", "_tags": {"ele": "312", "gnis:feature_id": "1299068", "name": "Red Hills", "natural": "peak", "wikidata": "Q31685294"}}, {"name": "Red Knobs", "latitude": 35.6909121, "longitude": -84.1901923, "elevation": 355.0, "source": "osm", "_tags": {"ele": "355", "gnis:feature_id": "1299072", "name": "Red Knobs", "natural": "peak", "wikidata": "Q31685320"}}, {"name": "Red Mountain", "latitude": 35.4567451, "longitude": -84.2296386, "elevation": 407.0, "source": "osm", "_tags": {"ele": "407", "gnis:feature_id": "1299074", "name": "Red Mountain", "natural": "peak", "wikidata": "Q31685349"}}, {"name": "Red Mountain", "latitude": 35.859251, "longitude": -83.8715685, "elevation": 403.0, "source": "osm", "_tags": {"ele": "403", "gnis:feature_id": "1299075", "name": "Red Mountain", "natural": "peak", "wikidata": "Q31685336"}}, {"name": "Redoak Mountain", "latitude": 36.1831346, "longitude": -84.251871, "elevation": 1027.0, "source": "osm", "_tags": {"ele": "1027", "gnis:feature_id": "1299105", "name": "Redoak Mountain", "natural": "peak", "wikidata": "Q31685402"}}, {"name": "Reservoir Hill", "latitude": 36.2100786, "longitude": -84.0624185, "elevation": 413.0, "source": "osm", "_tags": {"ele": "413", "gnis:feature_id": "1299228", "name": "Reservoir Hill", "natural": "peak", "wikidata": "Q31685470"}}, {"name": "Revenue Hill", "latitude": 35.51042, "longitude": -83.9430297, "elevation": 693.701, "source": "osm", "_tags": {"ele": "693.701", "gnis:feature_id": "1299240", "name": "Revenue Hill", "natural": "peak", "official_name": "Revenue Hill", "source": "NPS", "wikidata": "Q31685496"}}, {"name": "Richland Mountain", "latitude": 36.2422995, "longitude": -84.5902196, "elevation": 714.0, "source": "osm", "_tags": {"ele": "714", "gnis:feature_id": "1299367", "name": "Richland Mountain", "natural": "peak", "wikidata": "Q31685718"}}, {"name": "Richmond Hill", "latitude": 35.968693, "longitude": -83.9668524, "elevation": 344.0, "source": "osm", "_tags": {"ele": "344", "gnis:feature_id": "1299374", "name": "Richmond Hill", "natural": "peak", "wikidata": "Q31685744"}}, {"name": "Rider Knob", "latitude": 35.4270197, "longitude": -84.411592, "elevation": 378.0, "source": "osm", "_tags": {"ele": "378", "gnis:feature_id": "1299389", "name": "Rider Knob", "natural": "peak", "wikidata": "Q31685768"}}, {"name": "River Knobs", "latitude": 35.8545185, "longitude": -84.5704912, "elevation": 261.0, "source": "osm", "_tags": {"ele": "261", "gnis:feature_id": "1299496", "name": "River Knobs", "natural": "peak", "wikidata": "Q31685802"}}, {"name": "Rocky Hill", "latitude": 35.8314694, "longitude": -84.0874109, "elevation": 336.0, "source": "osm", "_tags": {"ele": "336", "gnis:feature_id": "1299895", "name": "Rocky Hill", "natural": "peak", "wikidata": "Q31686004"}}, {"name": "Rocky Knob", "latitude": 35.6694077, "longitude": -83.7598018, "elevation": 464.0, "source": "osm", "_tags": {"ele": "464", "gnis:feature_id": "1299908", "name": "Rocky Knob", "natural": "peak", "official_name": "Rocky Knob", "source": "NPS", "wikidata": "Q31686044"}}, {"name": "Rocky Mountain", "latitude": 35.7161994, "longitude": -83.7182268, "elevation": 815.0, "source": "osm", "_tags": {"ele": "815", "name": "Rocky Mountain", "natural": "peak", "wikidata": "Q31686073"}}, {"name": "Rocky Top", "latitude": 35.5641679, "longitude": -83.7138965, "elevation": 1657.32, "source": "osm", "_tags": {"ele": "1657.32", "gnis:feature_id": "1299942", "name": "Rocky Top", "natural": "peak", "official_name": "Rocky Top", "source": "NPS"}}, {"name": "Round Mountain", "latitude": 35.9492403, "longitude": -84.6479951, "elevation": 433.0, "source": "osm", "_tags": {"ele": "433", "gnis:feature_id": "1300165", "name": "Round Mountain", "natural": "peak", "wikidata": "Q31686441"}}, {"name": "Round Mountain", "latitude": 36.1298009, "longitude": -84.2771485, "elevation": 801.0, "source": "osm", "_tags": {"ele": "801", "gnis:feature_id": "1300166", "name": "Round Mountain", "natural": "peak", "wikidata": "Q31686483"}}, {"name": "Roy Knob", "latitude": 35.5242417, "longitude": -84.4465936, "elevation": 468.0, "source": "osm", "_tags": {"ele": "468", "gnis:feature_id": "1300210", "name": "Roy Knob", "natural": "peak", "wikidata": "Q31686634"}}, {"name": "Salt Spring Mountain", "latitude": 35.4650825, "longitude": -84.0526855, "elevation": 953.0, "source": "osm", "_tags": {"ele": "953", "gnis:feature_id": "1300595", "name": "Salt Spring Mountain", "natural": "peak", "wikidata": "Q31686777"}}, {"name": "Salting Knob", "latitude": 36.2828569, "longitude": -84.3918791, "elevation": 736.0, "source": "osm", "_tags": {"ele": "736", "gnis:feature_id": "1300598", "name": "Salting Knob", "natural": "peak", "wikidata": "Q31686791"}}, {"name": "Sandy Gap Mountan", "latitude": 36.198134, "longitude": -84.4718814, "elevation": 929.0, "source": "osm", "_tags": {"ele": "929", "gnis:feature_id": "1300759", "name": "Sandy Gap Mountan", "natural": "peak", "wikidata": "Q31687006"}}, {"name": "Sassafras Mountain", "latitude": 36.1359119, "longitude": -84.2924272, "elevation": 935.0, "source": "osm", "_tags": {"ele": "935", "gnis:feature_id": "1300802", "name": "Sassafras Mountain", "natural": "peak", "wikidata": "Q31687030"}}, {"name": "Scott Mountain", "latitude": 35.6250879, "longitude": -83.7696177, "elevation": 1105.0, "source": "osm", "_tags": {"ele": "1105", "gnis:feature_id": "1300959", "name": "Scott Mountain", "natural": "peak", "nps:verified": "yes", "wikidata": "Q31687170"}}, {"name": "Rhetts View", "latitude": 36.1725837, "longitude": -83.7068488, "elevation": 500.0, "source": "osm", "_tags": {"ele": "500", "gnis:feature_id": "1303536", "name": "Rhetts View", "natural": "peak", "wikidata": "Q31685541"}}, {"name": "Signal Mountain", "latitude": 36.2834122, "longitude": -84.4677156, "elevation": 887.0, "source": "osm", "_tags": {"ele": "887", "gnis:feature_id": "1303618", "name": "Signal Mountain", "natural": "peak", "wikidata": "Q31687806"}}, {"name": "Thunderhead Mountain", "latitude": 35.5686387, "longitude": -83.7062801, "elevation": 1685.16, "source": "osm", "_tags": {"ele": "1685.16", "gnis:feature_id": "1304098", "name": "Thunderhead Mountain", "natural": "peak", "official_name": "Thunderhead Mountain", "source": "NPS", "wikidata": "Q7799150"}}, {"name": "Turkeypen Mountain", "latitude": 35.4900782, "longitude": -84.2393608, "elevation": 368.0, "source": "osm", "_tags": {"ele": "368", "gnis:feature_id": "1304200", "name": "Turkeypen Mountain", "natural": "peak", "wikidata": "Q31690247"}}, {"name": "Bates Mountain", "latitude": 35.7170336, "longitude": -83.7661102, "elevation": 495.0, "source": "osm", "_tags": {"ele": "495", "gnis:feature_id": "1304992", "name": "Bates Mountain", "natural": "peak", "official_name": "Bates Mountain", "source": "NPS", "wikidata": "Q31661602"}}, {"name": "Big Brushy Mountain", "latitude": 36.077022, "longitude": -84.4107649, "elevation": 979.0, "source": "osm", "_tags": {"ele": "979", "gnis:feature_id": "1305206", "name": "Big Brushy Mountain", "natural": "peak", "wikidata": "Q31662313"}}, {"name": "Big Fodderstack", "latitude": 36.1075778, "longitude": -84.4154881, "elevation": 1013.0, "source": "osm", "_tags": {"ele": "1013", "gnis:feature_id": "1305215", "name": "Big Fodderstack", "natural": "peak", "wikidata": "Q31662428"}}, {"name": "Big Mountain", "latitude": 36.0864668, "longitude": -84.3821525, "elevation": 712.0, "source": "osm", "_tags": {"ele": "712", "gnis:feature_id": "1305221", "name": "Big Mountain", "natural": "peak", "wikidata": "Q31662674"}}, {"name": "Rambo Mountain", "latitude": 35.8684168, "longitude": -83.9115703, "elevation": 336.0, "source": "osm", "_tags": {"ele": "336", "gnis:feature_id": "1305363", "name": "Rambo Mountain", "natural": "peak", "wikidata": "Q31685059"}}, {"name": "Bowman Mountain", "latitude": 35.8895295, "longitude": -83.8215671, "elevation": 395.0, "source": "osm", "_tags": {"ele": "395", "gnis:feature_id": "1305364", "name": "Bowman Mountain", "natural": "peak", "wikidata": "Q31663503"}}, {"name": "Cedar Cliffs", "latitude": 35.8598062, "longitude": -83.8896248, "elevation": 335.0, "source": "osm", "_tags": {"ele": "335", "gnis:feature_id": "1305752", "name": "Cedar Cliffs", "natural": "peak", "wikidata": "Q31665972"}}, {"name": "Cross Mountain", "latitude": 36.1981346, "longitude": -84.2307593, "elevation": 1075.0, "source": "osm", "_tags": {"ele": "1075", "gnis:feature_id": "1306194", "name": "Cross Mountain", "natural": "peak", "wikidata": "Q31668209"}}, {"name": "Sun Butte", "latitude": 36.2234122, "longitude": -84.1982585, "elevation": 587.0, "source": "osm", "_tags": {"ele": "587", "gnis:feature_id": "1307753", "name": "Sun Butte", "natural": "peak", "wikidata": "Q31689163"}}, {"name": "Yankee Hill", "latitude": 35.8273075, "longitude": -83.8301772, "elevation": 343.0, "source": "osm", "_tags": {"ele": "343", "gnis:feature_id": "1308057", "name": "Yankee Hill", "natural": "peak", "wikidata": "Q31692274"}}, {"name": "Little Bald", "latitude": 35.5501315, "longitude": -83.7836588, "elevation": 1445.0, "source": "osm", "_tags": {"ele": "1445", "gnis:feature_id": "1308142", "name": "Little Bald", "natural": "peak", "wikidata": "Q31677266"}}, {"name": "McDaniel Knob", "latitude": 35.4417424, "longitude": -84.3868684, "elevation": 409.0, "source": "osm", "_tags": {"ele": "409", "gnis:feature_id": "1308318", "name": "McDaniel Knob", "natural": "peak", "wikidata": "Q31680098"}}, {"name": "Chapel HIll", "latitude": 35.7009111, "longitude": -84.2371391, "elevation": 303.0, "source": "osm", "_tags": {"ele": "303", "gnis:feature_id": "1309529", "name": "Chapel HIll", "natural": "peak", "wikidata": "Q31666223"}}, {"name": "Griffith Knob", "latitude": 36.2703548, "longitude": -84.6110533, "elevation": 512.0, "source": "osm", "_tags": {"ele": "512", "gnis:feature_id": "1309663", "name": "Griffith Knob", "natural": "peak", "wikidata": "Q31672630"}}, {"name": "Glass Knob", "latitude": 35.9031411, "longitude": -83.7985108, "elevation": 372.0, "source": "osm", "_tags": {"ele": "372", "gnis:feature_id": "1312279", "name": "Glass Knob", "natural": "peak", "wikidata": "Q31671601"}}, {"name": "Mary Hill", "latitude": 35.9845299, "longitude": -83.7693446, "elevation": 361.0, "source": "osm", "_tags": {"ele": "361", "gnis:feature_id": "1312345", "name": "Mary Hill", "natural": "peak", "wikidata": "Q31679590"}}, {"name": "Mascot Rocks", "latitude": 36.0709184, "longitude": -83.7168455, "elevation": 318.0, "source": "osm", "_tags": {"ele": "318", "gnis:feature_id": "1312346", "name": "Mascot Rocks", "natural": "peak", "wikidata": "Q31679625"}}, {"name": "Little Mountain", "latitude": 35.6981405, "longitude": -83.8904559, "elevation": 443.0, "source": "osm", "_tags": {"ele": "443", "gnis:feature_id": "1326952", "name": "Little Mountain", "natural": "peak", "wikidata": "Q31677707"}}, {"name": "Notchy Creek Knobs", "latitude": 35.4667434, "longitude": -84.3338102, "elevation": 363.0, "source": "osm", "_tags": {"ele": "363", "gnis:feature_id": "1326963", "name": "Notchy Creek Knobs", "natural": "peak", "wikidata": "Q31681590"}}, {"name": "The Knobs", "latitude": 35.4236845, "longitude": -84.5704886, "elevation": 349.0, "source": "osm", "_tags": {"ele": "349", "gnis:feature_id": "1327203", "name": "The Knobs", "natural": "peak", "wikidata": "Q31676715"}}, {"name": "Turkey Creek Mountain", "latitude": 35.3603587, "longitude": -84.1260243, "elevation": 1063.0, "source": "osm", "_tags": {"ele": "1063", "gnis:feature_id": "1327262", "name": "Turkey Creek Mountain", "natural": "peak", "wikidata": "Q31429455"}}, {"name": "Wies Mountain", "latitude": 35.4520219, "longitude": -84.2779743, "elevation": 377.0, "source": "osm", "_tags": {"ele": "377", "gnis:feature_id": "1327380", "name": "Wies Mountain", "natural": "peak", "wikidata": "Q31691545"}}, {"name": "Almon Knob", "latitude": 35.3700753, "longitude": -84.4010362, "elevation": 370.0, "source": "osm", "_tags": {"ele": "370", "gnis:feature_id": "1327453", "name": "Almon Knob", "natural": "peak", "wikidata": "Q31660568"}}, {"name": "Atkins Knob", "latitude": 35.3984097, "longitude": -84.3421444, "elevation": 413.0, "source": "osm", "_tags": {"ele": "413", "gnis:feature_id": "1327478", "name": "Atkins Knob", "natural": "peak", "wikidata": "Q31660850"}}, {"name": "Bascom Irvin Knob", "latitude": 35.3834091, "longitude": -84.3729793, "elevation": 412.0, "source": "osm", "_tags": {"ele": "412", "gnis:feature_id": "1327511", "name": "Bascom Irvin Knob", "natural": "peak", "wikidata": "Q31661550"}}, {"name": "Bell Mountain", "latitude": 35.3748005, "longitude": -84.2338064, "elevation": 549.0, "source": "osm", "_tags": {"ele": "549", "gnis:feature_id": "1327557", "name": "Bell Mountain", "natural": "peak", "wikidata": "Q31662056"}}, {"name": "Black Mountain", "latitude": 35.3111857, "longitude": -84.4268708, "elevation": 721.0, "source": "osm", "_tags": {"ele": "721", "gnis:feature_id": "1327650", "name": "Black Mountain", "natural": "peak", "wikidata": "Q31662941"}}, {"name": "Bullet Mountain", "latitude": 35.4053557, "longitude": -84.2526958, "elevation": 494.0, "source": "osm", "_tags": {"ele": "494", "gnis:feature_id": "1327757", "name": "Bullet Mountain", "natural": "peak", "wikidata": "Q31664545"}}, {"name": "Cartwright Knob", "latitude": 35.3642403, "longitude": -84.492707, "elevation": 441.0, "source": "osm", "_tags": {"ele": "441", "gnis:feature_id": "1327838", "name": "Cartwright Knob", "natural": "peak", "wikidata": "Q31665742"}}, {"name": "Cedar Knob", "latitude": 35.4645219, "longitude": -84.2818632, "elevation": 376.0, "source": "osm", "_tags": {"ele": "376", "gnis:feature_id": "1327864", "name": "Cedar Knob", "natural": "peak", "wikidata": "Q31666030"}}, {"name": "Daugherty Knob", "latitude": 35.37063, "longitude": -84.4499272, "elevation": 348.0, "source": "osm", "_tags": {"ele": "348", "gnis:feature_id": "1328021", "name": "Daugherty Knob", "natural": "peak", "wikidata": "Q31668539"}}, {"name": "Donley Mountain", "latitude": 35.3853556, "longitude": -84.2568628, "elevation": 432.0, "source": "osm", "_tags": {"ele": "432", "gnis:feature_id": "1328067", "name": "Donley Mountain", "natural": "peak", "wikidata": "Q31669199"}}, {"name": "Fate Irvin Knob", "latitude": 35.3856315, "longitude": -84.3677013, "elevation": 406.0, "source": "osm", "_tags": {"ele": "406", "gnis:feature_id": "1328176", "name": "Fate Irvin Knob", "natural": "peak", "wikidata": "Q31670247"}}, {"name": "Goat Knob", "latitude": 35.3561845, "longitude": -84.5002073, "elevation": 423.0, "source": "osm", "_tags": {"ele": "423", "gnis:feature_id": "1328278", "name": "Goat Knob", "natural": "peak", "wikidata": "Q31671633"}}, {"name": "Gravelstand Top", "latitude": 35.2973013, "longitude": -84.2038062, "elevation": 924.0, "source": "osm", "_tags": {"ele": "924", "gnis:feature_id": "1328314", "name": "Gravelstand Top", "natural": "peak", "wikidata": "Q31804928"}}, {"name": "Haw Knob", "latitude": 35.3094788, "longitude": -84.0265855, "elevation": 1662.0, "source": "osm", "_tags": {"ele": "1662", "gnis:feature_id": "1328409", "name": "Haw Knob", "natural": "peak"}}, {"name": "Hemlock Knob", "latitude": 35.3595259, "longitude": -84.1032455, "elevation": 1211.0, "source": "osm", "_tags": {"ele": "1211", "gnis:feature_id": "1328418", "name": "Hemlock Knob", "natural": "peak", "wikidata": "Q31427921"}}, {"name": "Henderson Top", "latitude": 35.3009136, "longitude": -84.1549154, "elevation": 888.0, "source": "osm", "_tags": {"ele": "888", "gnis:feature_id": "1328421", "name": "Henderson Top", "natural": "peak", "wikidata": "Q31673548"}}, {"name": "High Top", "latitude": 35.3884112, "longitude": -84.254085, "elevation": 477.0, "source": "osm", "_tags": {"ele": "477", "gnis:feature_id": "1328437", "name": "High Top", "natural": "peak", "wikidata": "Q31674127"}}, {"name": "Jones Mountain", "latitude": 35.4256322, "longitude": -84.3332549, "elevation": 427.0, "source": "osm", "_tags": {"ele": "427", "gnis:feature_id": "1328591", "name": "Jones Mountain", "natural": "peak", "wikidata": "Q31676106"}}, {"name": "Kelso Knob", "latitude": 35.3895205, "longitude": -84.3579786, "elevation": 371.0, "source": "osm", "_tags": {"ele": "371", "gnis:feature_id": "1328608", "name": "Kelso Knob", "natural": "peak", "wikidata": "Q31676376"}}, {"name": "Kirby Knob", "latitude": 35.3639639, "longitude": -84.4135367, "elevation": 363.0, "source": "osm", "_tags": {"ele": "363", "gnis:feature_id": "1328618", "name": "Kirby Knob", "natural": "peak", "wikidata": "Q31676558"}}, {"name": "Laurel Mountain", "latitude": 35.439244, "longitude": -84.2893638, "elevation": 429.0, "source": "osm", "_tags": {"ele": "429", "gnis:feature_id": "1328657", "name": "Laurel Mountain", "natural": "peak", "wikidata": "Q31676972"}}, {"name": "Little Haw Knob", "latitude": 35.3147409, "longitude": -84.0358713, "elevation": 1562.0, "source": "osm", "_tags": {"ele": "1562", "gnis:feature_id": "1328724", "name": "Little Haw Knob", "natural": "peak", "wikidata": "Q31428292"}}, {"name": "Little Mountain", "latitude": 35.3034064, "longitude": -84.5590989, "elevation": 302.0, "source": "osm", "_tags": {"ele": "302", "gnis:feature_id": "1328736", "name": "Little Mountain", "natural": "peak", "wikidata": "Q31677860"}}, {"name": "Little Renfrow Top", "latitude": 35.4259102, "longitude": -84.3138096, "elevation": 408.0, "source": "osm", "_tags": {"ele": "408", "gnis:feature_id": "1328744", "name": "Little Renfrow Top", "natural": "peak", "wikidata": "Q31678293"}}, {"name": "Moses Mountain", "latitude": 35.4020209, "longitude": -84.3329774, "elevation": 386.0, "source": "osm", "_tags": {"ele": "386", "gnis:feature_id": "1328954", "name": "Moses Mountain", "natural": "peak", "wikidata": "Q31680987"}}, {"name": "Rattlesnake Rock", "latitude": 35.3467491, "longitude": -84.0637998, "elevation": 1239.0, "source": "osm", "_tags": {"ele": "1239", "gnis:feature_id": "1639551", "name": "Rattlesnake Rock", "natural": "peak", "wikidata": "Q31428969"}}, {"name": "Red Mountain", "latitude": 35.4278551, "longitude": -84.2874194, "elevation": 387.0, "source": "osm", "_tags": {"ele": "387", "gnis:feature_id": "1639558", "name": "Red Mountain", "natural": "peak", "wikidata": "Q31685362"}}, {"name": "Renfrow Top", "latitude": 35.424799, "longitude": -84.3221433, "elevation": 459.0, "source": "osm", "_tags": {"ele": "459", "gnis:feature_id": "1639572", "name": "Renfrow Top", "natural": "peak", "wikidata": "Q31685457"}}, {"name": "Robinson Point", "latitude": 35.4295214, "longitude": -84.3093648, "elevation": 455.0, "source": "osm", "_tags": {"ele": "455", "gnis:feature_id": "1639626", "name": "Robinson Point", "natural": "peak", "wikidata": "Q31685909"}}, {"name": "Round Mountain", "latitude": 35.303685, "longitude": -84.4604835, "elevation": 630.0, "source": "osm", "_tags": {"ele": "630", "gnis:feature_id": "1639671", "name": "Round Mountain", "natural": "peak", "wikidata": "Q31686415"}}, {"name": "Round Mountain", "latitude": 35.3311933, "longitude": -84.0726894, "elevation": 927.0, "source": "osm", "_tags": {"ele": "927", "gnis:feature_id": "1639672", "name": "Round Mountain", "natural": "peak", "wikidata": "Q31686428"}}, {"name": "Prospect Knob", "latitude": 35.3614638, "longitude": -84.4202038, "elevation": 373.0, "source": "osm", "_tags": {"ele": "373", "gnis:feature_id": "1640638", "name": "Prospect Knob", "natural": "peak", "wikidata": "Q31684687"}}, {"name": "Rockstack", "latitude": 35.3977139, "longitude": -84.0137964, "elevation": 1335.0, "source": "osm", "_tags": {"ele": "1335", "gnis:feature_id": "1641185", "name": "Rockstack", "natural": "peak", "wikidata": "Q31429059"}}, {"name": "Tallasee Mountain", "latitude": 35.4803614, "longitude": -84.0026827, "elevation": 650.0, "source": "osm", "_tags": {"ele": "650", "gnis:feature_id": "1641218", "name": "Tallasee Mountain", "natural": "peak", "wikidata": "Q31689279"}}, {"name": "Harlan Mountain", "latitude": 35.4403561, "longitude": -84.2349168, "elevation": 565.0, "source": "osm", "_tags": {"ele": "565", "gnis:feature_id": "1641390", "name": "Harlan Mountain", "natural": "peak", "wikidata": "Q31673201"}}, {"name": "Tyler Mountain", "latitude": 35.4242465, "longitude": -84.1696362, "elevation": 560.0, "source": "osm", "_tags": {"ele": "560", "gnis:feature_id": "1641391", "name": "Tyler Mountain", "natural": "peak", "wikidata": "Q31690349"}}, {"name": "Bakers Grave Mountain", "latitude": 35.3236878, "longitude": -84.3157549, "elevation": 409.0, "source": "osm", "_tags": {"ele": "409", "gnis:feature_id": "1641407", "name": "Bakers Grave Mountain", "natural": "peak"}}, {"name": "Tellico Mountain", "latitude": 35.3322994, "longitude": -84.2901982, "elevation": 546.0, "source": "osm", "_tags": {"ele": "546", "gnis:feature_id": "1641408", "name": "Tellico Mountain", "natural": "peak", "wikidata": "Q31689560"}}, {"name": "Mocking Crow Mountain", "latitude": 35.3261875, "longitude": -84.3352002, "elevation": 418.0, "source": "osm", "_tags": {"ele": "418", "gnis:feature_id": "1641411", "name": "Mocking Crow Mountain", "natural": "peak", "wikidata": "Q31680751"}}, {"name": "Peaky Top", "latitude": 35.3331322, "longitude": -84.3238108, "elevation": 532.0, "source": "osm", "_tags": {"ele": "532", "gnis:feature_id": "1641412", "name": "Peaky Top", "natural": "peak"}}, {"name": "Queens Mountain", "latitude": 35.3164648, "longitude": -84.3579791, "elevation": 353.0, "source": "osm", "_tags": {"ele": "353", "gnis:feature_id": "1641413", "name": "Queens Mountain", "natural": "peak", "wikidata": "Q31684879"}}, {"name": "Little Fodderstack", "latitude": 35.4503302, "longitude": -84.016116, "elevation": 1137.0, "source": "osm", "_tags": {"ele": "1137", "gnis:feature_id": "1641542", "name": "Little Fodderstack", "natural": "peak", "wikidata": "Q31428290"}}, {"name": "Stiffknee Top", "latitude": 35.4627857, "longitude": -84.0123988, "elevation": 732.0, "source": "osm", "_tags": {"ele": "732", "gnis:feature_id": "1641543", "name": "Stiffknee Top", "natural": "peak", "wikidata": "Q31688580"}}, {"name": "Ikes Peak", "latitude": 35.3848048, "longitude": -84.0537985, "elevation": 1155.0, "source": "osm", "_tags": {"ele": "1155", "gnis:feature_id": "1641549", "name": "Ikes Peak", "natural": "peak"}}, {"name": "Luke Mountain", "latitude": 35.6912214, "longitude": -83.7818194, "elevation": 463.0, "source": "osm", "_tags": {"ele": "463", "gnis:feature_id": "1642592", "name": "Luke Mountain", "natural": "peak", "official_name": "Luke Mountain", "source": "NPS", "wikidata": "Q31679173"}}, {"name": "Gregorys Little Bald", "latitude": 35.5298088, "longitude": -83.8568433, "elevation": 1176.0, "source": "osm", "_tags": {"ele": "1176", "gnis:feature_id": "1642639", "name": "Gregorys Little Bald", "natural": "peak", "wikidata": "Q31672570"}}, {"name": "Round Top", "latitude": 35.2964671, "longitude": -84.240752, "elevation": 573.0, "source": "osm", "_tags": {"ele": "573", "gnis:feature_id": "1642790", "name": "Round Top", "natural": "peak", "wikidata": "Q31686527"}}, {"name": "Flint Hill", "latitude": 35.9645274, "longitude": -83.9085166, "elevation": 288.0, "source": "osm", "_tags": {"ele": "288", "gnis:feature_id": "1646790", "name": "Flint Hill", "natural": "peak", "wikidata": "Q31670608"}}, {"name": "Mabrys Hill", "latitude": 35.9728609, "longitude": -83.9010165, "elevation": 324.0, "source": "osm", "_tags": {"ele": "324", "gnis:feature_id": "1646791", "name": "Mabrys Hill", "natural": "peak", "wikidata": "Q31679307"}}, {"name": "Temperance Hill", "latitude": 35.9689718, "longitude": -83.9115724, "elevation": 312.0, "source": "osm", "_tags": {"ele": "312", "gnis:feature_id": "1646792", "name": "Temperance Hill", "natural": "peak", "wikidata": "Q31689584"}}, {"name": "Big Fodderstack", "latitude": 35.4123054, "longitude": -84.0274078, "elevation": 1321.0, "source": "osm", "_tags": {"ele": "1321", "gnis:feature_id": "1646822", "name": "Big Fodderstack", "natural": "peak", "wikidata": "Q31426944"}}, {"name": "Summit Hill", "latitude": 35.9664716, "longitude": -83.9224061, "elevation": 296.0, "source": "osm", "_tags": {"ele": "296", "gnis:feature_id": "1647922", "name": "Summit Hill", "natural": "peak", "wikidata": "Q31689110"}}, {"name": "Cerulean Knob", "latitude": 35.6287293, "longitude": -83.7851873, "elevation": 1128.06, "source": "osm", "_tags": {"ele": "1128.06", "gnis:feature_id": "1652471", "name": "Cerulean Knob", "natural": "peak", "official_name": "Cerulean Knob", "source": "NPS", "wikidata": "Q31666140"}}, {"name": "Rich Mountain", "latitude": 35.6399356, "longitude": -83.7975924, "elevation": 1117.0, "source": "osm", "_tags": {"ele": "1117", "gnis:feature_id": "1652488", "name": "Rich Mountain", "natural": "peak"}}, {"name": "Big Swag", "latitude": 35.5121949, "longitude": -83.7921664, "elevation": 1128.42, "source": "osm", "_tags": {"ele": "1128.42", "gnis:feature_id": "981461", "name": "Big Swag", "natural": "peak", "official_name": "Big Swag", "source": "NPS", "wikidata": "Q31617149"}}, {"name": "Cherry Knob", "latitude": 35.5306452, "longitude": -83.7215604, "elevation": 1311.0, "source": "osm", "_tags": {"ele": "1311", "gnis:feature_id": "983083", "name": "Cherry Knob", "natural": "peak", "wikidata": "Q31620287"}}, {"name": "De Armond Bald", "latitude": 35.5460046, "longitude": -83.7194619, "elevation": 1554.75, "source": "osm", "_tags": {"ele": "1554.75", "gnis:feature_id": "984022", "name": "De Armond Bald", "natural": "peak", "official_name": "De Armond Bald", "source": "NPS", "wikidata": "Q31622165"}}, {"name": "Greer Knob", "latitude": 35.5164661, "longitude": -83.8106362, "elevation": 1362.08, "source": "osm", "_tags": {"ele": "1362.08", "gnis:feature_id": "986134", "name": "Greer Knob", "natural": "peak", "official_name": "Greer Knob", "source": "NPS", "wikidata": "Q31626079"}}, {"name": "Blockhouse Mountain", "latitude": 35.549827, "longitude": -83.710655, "elevation": 1650.92, "source": "osm", "_tags": {"ele": "1650.92", "gnis:feature_id": "1000695", "name": "Blockhouse Mountain", "natural": "peak", "official_name": "Blockhouse Mountain", "source": "NPS", "wikidata": "Q31617605"}}, {"name": "Cedar Top", "latitude": 35.3256412, "longitude": -83.9274051, "elevation": 1217.0, "source": "osm", "_tags": {"ele": "1217", "gnis:feature_id": "1010138", "name": "Cedar Top", "natural": "peak"}}, {"name": "High Top", "latitude": 35.4205696, "longitude": -83.7755393, "elevation": 1147.0, "source": "osm", "_tags": {"ele": "1147", "gnis:feature_id": "1012054", "name": "High Top", "natural": "peak"}}, {"name": "Little Huckleberry Knob", "latitude": 35.3298064, "longitude": -83.9921305, "elevation": 1636.0, "source": "osm", "_tags": {"ele": "1636", "gnis:feature_id": "1012978", "name": "Little Huckleberry Knob", "natural": "peak"}}, {"name": "Shuckstack", "latitude": 35.4856434, "longitude": -83.8148975, "elevation": 1216.0, "source": "osm", "_tags": {"ele": "1216", "gnis:feature_id": "1015494", "name": "Shuckstack", "natural": "peak", "wikidata": "Q7504621"}}, {"name": "Bee Cove Knob", "latitude": 35.4355833, "longitude": -83.7938596, "elevation": 821.0, "source": "osm", "_tags": {"ele": "821", "gnis:feature_id": "1019042", "name": "Bee Cove Knob", "natural": "peak"}}, {"name": "Bee Knobs", "latitude": 35.288696, "longitude": -83.9643522, "elevation": 1442.0, "source": "osm", "_tags": {"ele": "1442", "gnis:feature_id": "1019045", "name": "Bee Knobs", "natural": "peak"}}, {"name": "Big Butte", "latitude": 35.4697833, "longitude": -83.7455532, "elevation": 962.868, "source": "osm", "_tags": {"ele": "962.868", "gnis:feature_id": "1019124", "name": "Big Butte", "natural": "peak", "official_name": "Big Butte", "source": "NPS", "wikidata": "Q31616743"}}, {"name": "Big Elk Knob", "latitude": 35.3981454, "longitude": -83.7271167, "elevation": 768.0, "source": "osm", "_tags": {"ele": "768", "gnis:feature_id": "1019130", "name": "Big Elk Knob", "natural": "peak"}}, {"name": "Cold Spring Knob", "latitude": 35.4220288, "longitude": -83.9724051, "elevation": 1056.0, "source": "osm", "_tags": {"ele": "1056", "gnis:feature_id": "1019727", "name": "Cold Spring Knob", "natural": "peak"}}, {"name": "Cooper Knob", "latitude": 35.3059699, "longitude": -83.7725483, "elevation": 929.0, "source": "osm", "_tags": {"ele": "929", "gnis:feature_id": "1019775", "name": "Cooper Knob", "natural": "peak"}}, {"name": "Devils Race Patch", "latitude": 35.5584616, "longitude": -83.7030409, "elevation": 1564.85, "source": "osm", "_tags": {"ele": "1564.85", "gnis:feature_id": "1019960", "name": "Devils Race Patch", "natural": "peak", "official_name": "Devils Race Patch", "source": "NPS", "wikidata": "Q31622439"}}, {"name": "Dobson Hill", "latitude": 35.3128646, "longitude": -83.8712913, "elevation": 697.0, "source": "osm", "_tags": {"ele": "697", "gnis:feature_id": "1019988", "name": "Dobson Hill", "natural": "peak"}}, {"name": "Eagle Knob", "latitude": 35.3445332, "longitude": -83.7782306, "elevation": 919.0, "source": "osm", "_tags": {"ele": "919", "gnis:feature_id": "1020067", "name": "Eagle Knob", "natural": "peak"}}, {"name": "Funnel Top", "latitude": 35.3473087, "longitude": -83.8818468, "elevation": 937.0, "source": "osm", "_tags": {"ele": "937", "gnis:feature_id": "1020382", "name": "Funnel Top", "natural": "peak"}}, {"name": "Hazanet Knob", "latitude": 35.3881437, "longitude": -83.8085094, "elevation": 1249.0, "source": "osm", "_tags": {"ele": "1249", "gnis:feature_id": "1020661", "name": "Hazanet Knob", "natural": "peak"}}, {"name": "Hogback Mountain", "latitude": 35.3845349, "longitude": -83.6960041, "elevation": 1055.0, "source": "osm", "_tags": {"ele": "1055", "gnis:feature_id": "1020792", "name": "Hogback Mountain", "natural": "peak"}}, {"name": "Hooper Bald", "latitude": 35.3059175, "longitude": -83.9940757, "elevation": 1650.0, "source": "osm", "_tags": {"ele": "1650", "gnis:feature_id": "1020822", "name": "Hooper Bald", "natural": "peak", "wikidata": "Q5898352", "wikipedia": "en:Hooper Bald"}}, {"name": "Huckleberry Knob", "latitude": 35.3220286, "longitude": -83.9935196, "elevation": 1696.0, "source": "osm", "_tags": {"ele": "1696", "gnis:feature_id": "1020854", "name": "Huckleberry Knob", "natural": "peak"}}, {"name": "Little Elk Knob", "latitude": 35.4048124, "longitude": -83.7101714, "elevation": 719.0, "source": "osm", "_tags": {"ele": "719", "gnis:feature_id": "1021184", "name": "Little Elk Knob", "natural": "peak"}}, {"name": "Little Shuckstack", "latitude": 35.4831436, "longitude": -83.8060083, "elevation": 1145.0, "source": "osm", "_tags": {"ele": "1145", "gnis:feature_id": "1021239", "name": "Little Shuckstack", "natural": "peak", "wikidata": "Q31631467"}}, {"name": "Matt Mountain", "latitude": 35.4614778, "longitude": -83.7654514, "elevation": 834.8, "source": "osm", "_tags": {"ele": "834.8", "gnis:feature_id": "1021368", "name": "Matt Mountain", "natural": "peak", "official_name": "Matt Mountain", "source": "NPS", "wikidata": "Q31632550"}}, {"name": "Mitchell Lick", "latitude": 35.2878203, "longitude": -84.0238999, "elevation": 1404.0, "source": "osm", "_tags": {"ele": "1404", "gnis:feature_id": "1021502", "name": "Mitchell Lick", "natural": "peak"}}, {"name": "Perry Knob", "latitude": 35.4175894, "longitude": -83.7476731, "elevation": 988.0, "source": "osm", "_tags": {"ele": "988", "gnis:feature_id": "1021869", "name": "Perry Knob", "natural": "peak"}}, {"name": "Pinnacle Knob", "latitude": 35.332311, "longitude": -83.7821198, "elevation": 802.0, "source": "osm", "_tags": {"ele": "802", "gnis:feature_id": "1021982", "name": "Pinnacle Knob", "natural": "peak"}}, {"name": "Rock Creek Knob", "latitude": 35.3875856, "longitude": -83.9212924, "elevation": 1292.0, "source": "osm", "_tags": {"ele": "1292", "gnis:feature_id": "1022323", "name": "Rock Creek Knob", "natural": "peak"}}, {"name": "Round Mountain", "latitude": 35.4420318, "longitude": -83.8371211, "elevation": 740.0, "source": "osm", "_tags": {"ele": "740", "gnis:feature_id": "1022417", "name": "Round Mountain", "natural": "peak"}}, {"name": "Round Mountain Knob", "latitude": 35.4952979, "longitude": -83.7776644, "elevation": 907.953, "source": "osm", "_tags": {"ele": "907.953", "gnis:feature_id": "1022421", "name": "Round Mountain Knob", "natural": "peak", "official_name": "Round Mountain Knob", "source": "NPS", "wikidata": "Q31639485"}}, {"name": "Sheep Knob", "latitude": 35.4808503, "longitude": -83.824542, "elevation": 1166.0, "source": "osm", "_tags": {"ele": "1166", "gnis:feature_id": "1022571", "name": "Sheep Knob", "natural": "peak", "official_name": "Sheep Knob", "source": "NPS", "wikidata": "Q31640313"}}, {"name": "The Pinnacle", "latitude": 35.4984231, "longitude": -83.7257272, "elevation": 1123.0, "source": "osm", "_tags": {"ele": "1123", "gnis:feature_id": "1022931", "name": "The Pinnacle", "natural": "peak", "official_name": "The Pinnacle", "source": "NPS", "wikidata": "Q31636054"}}, {"name": "Tommy Knob", "latitude": 35.4141809, "longitude": -83.767223, "elevation": 1056.0, "source": "osm", "_tags": {"ele": "1056", "gnis:feature_id": "1022963", "name": "Tommy Knob", "natural": "peak"}}, {"name": "Wauchecha Bald", "latitude": 35.3862, "longitude": -83.7723967, "elevation": 1335.0, "source": "osm", "_tags": {"ele": "1335", "gnis:feature_id": "1023132", "name": "Wauchecha Bald", "natural": "peak"}}, {"name": "Woodward Knob", "latitude": 35.5168056, "longitude": -83.7168602, "elevation": 1198.1, "source": "osm", "_tags": {"ele": "1198.1", "gnis:feature_id": "1023322", "name": "Woodward Knob", "natural": "peak", "official_name": "Woodward Knob", "source": "NPS", "wikidata": "Q31644598"}}, {"name": "Strawberry Knob", "latitude": 35.3562681, "longitude": -84.0227847, "elevation": 1413.0, "source": "osm", "_tags": {"ele": "1413", "gnis:feature_id": "1327142", "name": "Strawberry Knob", "natural": "peak", "wikidata": "Q31426153"}}, {"name": "Mt John", "latitude": 35.6915522, "longitude": -83.803632, "elevation": null, "source": "osm", "_tags": {"name": "Mt John", "natural": "peak"}}, {"name": "Cades Cove Mountain", "latitude": 35.6262772, "longitude": -83.8166322, "elevation": 879.766, "source": "osm", "_tags": {"ele": "879.766", "gnis:feature_id": "1279278", "name": "Cades Cove Mountain", "natural": "peak", "official_name": "Cades Cove Mountain", "source": "NPS", "wikidata": "Q31665256"}}, {"name": "Coon Butt", "latitude": 35.5845652, "longitude": -83.8708747, "elevation": 705.431, "source": "osm", "_tags": {"ele": "705.431", "gnis:feature_id": "1281159", "name": "Coon Butt", "natural": "peak", "official_name": "Coon Butt", "source": "NPS", "wikidata": "Q31667685"}}, {"name": "Double Mountain", "latitude": 35.6283329, "longitude": -83.790807, "elevation": 1082.75, "source": "osm", "_tags": {"ele": "1082.75", "gnis:feature_id": "1282694", "name": "Double Mountain", "natural": "peak", "official_name": "Double Mountain", "source": "NPS", "wikidata": "Q31669289"}}, {"name": "Pine Mountain", "latitude": 35.5993485, "longitude": -83.9222405, "elevation": 562.0, "source": "osm", "_tags": {"ele": "562", "name": "Pine Mountain", "natural": "peak", "official_name": "Pine Mountain", "source": "NPS", "wikidata": "Q31683467"}}, {"name": "Short Mountain", "latitude": 35.639627, "longitude": -83.8520627, "elevation": null, "source": "osm", "_tags": {"gnis:feature_id": "1270208", "name": "Short Mountain", "natural": "peak", "official_name": "Short Mountain", "source": "NPS", "wikidata": "Q31687753"}}, {"name": "Spruce Double", "latitude": 35.5992147, "longitude": -83.8740413, "elevation": 622.0, "source": "osm", "_tags": {"ele": "622", "gnis:feature_id": "1271157", "name": "Spruce Double", "natural": "peak", "nps:verified": "yes", "wikidata": "Q31688349"}}, {"name": "Grassy Mountain", "latitude": 35.7189768, "longitude": -83.7368385, "elevation": 712.0, "source": "osm", "_tags": {"ele": "712", "name": "Grassy Mountain", "natural": "peak", "official_name": "Grassy Mountain", "source": "NPS", "wikidata": "Q31672059"}}, {"name": "Pinestand Knob", "latitude": 35.727009, "longitude": -83.7791373, "elevation": 0.0, "source": "osm", "_tags": {"ele": "0.0", "name": "Pinestand Knob", "natural": "peak", "official_name": "Pinestand Knob", "source": "NPS"}}, {"name": "Rye Patch", "latitude": 35.5104994, "longitude": -83.849094, "elevation": 1334.96, "source": "osm", "_tags": {"ele": "1334.96", "name": "Rye Patch", "natural": "peak", "official_name": "Rye Patch", "source": "NPS"}}, {"name": "The Horseshoe", "latitude": 35.5996473, "longitude": -83.8664008, "elevation": 572.46, "source": "osm", "_tags": {"ele": "572.46", "name": "The Horseshoe", "natural": "peak", "official_name": "The Horseshoe", "source": "NPS"}}, {"name": "Pond Knob", "latitude": 35.5326799, "longitude": -83.7728071, "elevation": 1273.56, "source": "osm", "_tags": {"ele": "1273.56", "gnis:feature_id": "992655", "name": "Pond Knob", "natural": "peak", "official_name": "Pond Knob", "source": "NPS", "wikidata": "Q31636389"}}, {"name": "Susan's Summit", "latitude": 35.9969053, "longitude": -84.398685, "elevation": null, "source": "osm", "_tags": {"name": "Susan's Summit", "natural": "peak"}}, {"name": "Lawson Gant Lot", "latitude": 35.5457476, "longitude": -83.7944372, "elevation": null, "source": "osm", "_tags": {"gnis:feature_id": "988228", "name": "Lawson Gant Lot", "natural": "peak"}}, {"name": "Stratton Bald", "latitude": 35.3734105, "longitude": -83.9929586, "elevation": null, "source": "osm", "_tags": {"gnis:feature_id": "1022813", "name": "Stratton Bald", "natural": "peak"}}, {"name": "Bob Bald", "latitude": 35.3709104, "longitude": -84.0010145, "elevation": null, "source": "osm", "_tags": {"gnis:feature_id": "1019239", "name": "Bob Bald", "natural": "peak"}}]