[{"name": "Bass Mountain", "latitude": 35.945416, "longitude": -79.395297, "elevation": 275.0, "source": "osm", "_tags": {"ele": "275", "gnis:feature_id": "980606", "name": "Bass Mountain", "natural": "peak"}}, {"name": "Blackwood Mountain", "latitude": 35.9837016, "longitude": -79.0862433, "elevation": 224.0, "source": "osm", "_tags": {"ele": "224", "gnis:feature_id": "981571", "name": "Blackwood Mountain", "natural": "peak"}}, {"name": "Boothe Hill", "latitude": 35.8268131, "longitude": -79.0580667, "elevation": 183.0, "source": "osm", "_tags": {"ele": "183", "gnis:feature_id": "981744", "name": "Boothe Hill", "natural": "peak"}}, {"name": "Burnett Mountain", "latitude": 35.7740355, "longitude": -79.1055678, "elevation": 183.0, "source": "osm", "_tags": {"ele": "183", "gnis:feature_id": "982283", "name": "Burnett Mountain", "natural": "peak"}}, {"name": "Carolina Hill", "latitude": 35.7118096, "longitude": -79.3455741, "elevation": 196.0, "source": "osm", "_tags": {"ele": "196", "gnis:feature_id": "982662", "name": "Carolina Hill", "natural": "peak"}}, {"name": "Collins Mountain", "latitude": 35.8687533, "longitude": -79.2116816, "elevation": 213.0, "source": "osm", "_tags": {"ele": "213", "gnis:feature_id": "983391", "name": "Collins Mountain", "natural": "peak"}}, {"name": "Currie Hill", "latitude": 36.0115299, "longitude": -79.101679, "elevation": 212.0, "source": "osm", "_tags": {"ele": "212", "gnis:feature_id": "983854", "name": "Currie Hill", "natural": "peak"}}, {"name": "Edwards Mountain", "latitude": 35.8459793, "longitude": -79.0505665, "elevation": 203.0, "source": "osm", "_tags": {"ele": "203", "gnis:feature_id": "984665", "name": "Edwards Mountain", "natural": "peak"}}, {"name": "High Hill", "latitude": 35.8657013, "longitude": -79.0388997, "elevation": 144.0, "source": "osm", "_tags": {"ele": "144", "gnis:feature_id": "986746", "name": "High Hill", "natural": "peak"}}, {"name": "Iron Mine Hill", "latitude": 35.9290323, "longitude": -79.0691781, "elevation": 159.0, "source": "osm", "_tags": {"ele": "159", "gnis:feature_id": "987398", "name": "Iron Mine Hill", "natural": "peak"}}, {"name": "Lambeth Mountain", "latitude": 35.7801461, "longitude": -79.1225127, "elevation": 177.0, "source": "osm", "_tags": {"ele": "177", "gnis:feature_id": "988116", "name": "Lambeth Mountain", "natural": "peak"}}, {"name": "Laurel Hill", "latitude": 35.9381979, "longitude": -79.1202906, "elevation": 159.0, "source": "osm", "_tags": {"ele": "159", "gnis:feature_id": "988196", "name": "Laurel Hill", "natural": "peak"}}, {"name": "Mathis Hill", "latitude": 35.2934926, "longitude": -79.0303042, "elevation": 122.0, "source": "osm", "_tags": {"ele": "122", "gnis:feature_id": "989461", "name": "Mathis Hill", "natural": "peak"}}, {"name": "Pilot Mountain", "latitude": 35.6631937, "longitude": -79.678362, "elevation": 272.0, "source": "osm", "_tags": {"ele": "272", "gnis:feature_id": "992213", "name": "Pilot Mountain", "natural": "peak"}}, {"name": "Piney Mountain", "latitude": 35.9884758, "longitude": -79.0102879, "elevation": 136.0, "source": "osm", "_tags": {"ele": "136", "gnis:feature_id": "992381", "name": "Piney Mountain", "natural": "peak"}}, {"name": "Red Hill", "latitude": 35.765147, "longitude": -79.1000122, "elevation": 183.0, "source": "osm", "_tags": {"ele": "183", "gnis:feature_id": "993107", "name": "Red Hill", "natural": "peak"}}, {"name": "Round Top Mountain", "latitude": 35.6970901, "longitude": -79.2355722, "elevation": 184.0, "source": "osm", "_tags": {"ele": "184", "gnis:feature_id": "993755", "name": "Round Top Mountain", "natural": "peak"}}, {"name": "Stony Creek Mountain", "latitude": 36.2445798, "longitude": -79.4144669, "elevation": 286.0, "source": "osm", "_tags": {"ele": "286", "gnis:feature_id": "995562", "name": "Stony Creek Mountain", "natural": "peak"}}, {"name": "Stony Hill", "latitude": 35.9461726, "longitude": -79.1048276, "elevation": 186.0, "source": "osm", "_tags": {"ele": "186", "gnis:feature_id": "995569", "name": "Stony Hill", "natural": "peak"}}, {"name": "Terrells Mountain", "latitude": 35.866532, "longitude": -79.1672361, "elevation": 232.0, "source": "osm", "_tags": {"ele": "232", "gnis:feature_id": "995943", "name": "Terrells Mountain", "natural": "peak"}}, {"name": "Albama Hills", "latitude": 35.3212703, "longitude": -78.9872475, "elevation": 127.0, "source": "osm", "_tags": {"ele": "127", "gnis:feature_id": "1018782", "name": "Albama Hills", "natural": "peak"}}, {"name": "Bennett Mountain", "latitude": 35.8248678, "longitude": -79.0972343, "elevation": 167.0, "source": "osm", "_tags": {"ele": "167", "gnis:feature_id": "1019092", "name": "Bennett Mountain", "natural": "peak"}}, {"name": "Big Hill", "latitude": 35.9626418, "longitude": -79.1144571, "elevation": 191.0, "source": "osm", "_tags": {"ele": "191", "gnis:feature_id": "1019138", "name": "Big Hill", "natural": "peak"}}, {"name": "Couch Mountain", "latitude": 36.0223643, "longitude": -79.0002877, "elevation": 193.0, "source": "osm", "_tags": {"ele": "193", "gnis:feature_id": "1019803", "name": "Couch Mountain", "natural": "peak"}}, {"name": "Crawford Mountain", "latitude": 35.9573626, "longitude": -79.2211264, "elevation": 199.0, "source": "osm", "_tags": {"ele": "199", "gnis:feature_id": "1019850", "name": "Crawford Mountain", "natural": "peak"}}, {"name": "Fox Hill", "latitude": 35.2962703, "longitude": -79.0319707, "elevation": 126.0, "source": "osm", "_tags": {"ele": "126", "gnis:feature_id": "1020343", "name": "Fox Hill", "natural": "peak"}}, {"name": "Hickory Mountain", "latitude": 35.7240313, "longitude": -79.3483518, "elevation": 215.0, "source": "osm", "_tags": {"ele": "215", "gnis:feature_id": "1020713", "name": "Hickory Mountain", "natural": "peak"}}, {"name": "Holmes Hill", "latitude": 35.3146031, "longitude": -79.0425257, "elevation": 140.0, "source": "osm", "_tags": {"ele": "140", "gnis:feature_id": "1020810", "name": "Holmes Hill", "natural": "peak"}}, {"name": "McCauley Mount", "latitude": 35.8904216, "longitude": -79.1044568, "elevation": 185.0, "source": "osm", "_tags": {"ele": "185", "gnis:feature_id": "1021382", "name": "McCauley Mount", "natural": "peak"}}, {"name": "Mitchell Mountain", "latitude": 35.960418, "longitude": -79.2366823, "elevation": 211.0, "source": "osm", "_tags": {"ele": "211", "gnis:feature_id": "1021504", "name": "Mitchell Mountain", "natural": "peak"}}, {"name": "Nunn Mountain", "latitude": 35.9543097, "longitude": -79.0494555, "elevation": 188.0, "source": "osm", "_tags": {"ele": "188", "gnis:feature_id": "1021680", "name": "Nunn Mountain", "natural": "peak"}}, {"name": "Occoneechee Mountain", "latitude": 36.0618071, "longitude": -79.1216798, "elevation": 261.0, "source": "osm", "_tags": {"ele": "261", "gnis:feature_id": "1021715", "name": "Occoneechee Mountain", "natural": "peak"}}, {"name": "Pine Mountain", "latitude": 35.5104237, "longitude": -79.492246, "elevation": 173.0, "source": "osm", "_tags": {"ele": "173", "gnis:feature_id": "1021924", "name": "Pine Mountain", "natural": "peak"}}, {"name": "Red Mountain", "latitude": 36.2404197, "longitude": -78.9150078, "elevation": 243.0, "source": "osm", "_tags": {"ele": "243", "gnis:feature_id": "1022196", "name": "Red Mountain", "natural": "peak"}}, {"name": "Scarlett Hill", "latitude": 36.0243077, "longitude": -79.0939012, "elevation": 228.0, "source": "osm", "_tags": {"ele": "228", "gnis:feature_id": "1022518", "name": "Scarlett Hill", "natural": "peak"}}, {"name": "Spring Hill", "latitude": 35.3682144, "longitude": -78.9491896, "elevation": 105.0, "source": "osm", "_tags": {"ele": "105", "gnis:feature_id": "1022750", "name": "Spring Hill", "natural": "peak"}}, {"name": "Thompson Mountain", "latitude": 35.9812511, "longitude": -79.2219597, "elevation": 219.0, "source": "osm", "_tags": {"ele": "219", "gnis:feature_id": "1022941", "name": "Thompson Mountain", "natural": "peak"}}, {"name": "Cane Creek Mountains", "latitude": 35.9468043, "longitude": -79.4358534, "elevation": 301.0, "source": "osm", "_tags": {"ele": "301", "gnis:feature_id": "1023877", "name": "Cane Creek Mountains", "natural": "peak"}}, {"name": "Glenns Mountain", "latitude": 36.2609753, "longitude": -78.9011187, "elevation": 244.0, "source": "osm", "_tags": {"ele": "244", "gnis:feature_id": "1966753", "name": "Glenns Mountain", "natural": "peak"}}, {"name": "Brown Elfin Knob", "latitude": 36.0635101, "longitude": -79.114075, "elevation": 234.0, "source": "osm", "_tags": {"ele": "234", "name": "Brown Elfin Knob", "natural": "peak"}}, {"name": "Huckleberry Hill", "latitude": 36.0393383, "longitude": -78.9589025, "elevation": null, "source": "osm", "_tags": {"name": "Huckleberry Hill", "natural": "peak"}}, {"name": "Pickards Mountain", "latitude": 35.9636726, "longitude": -79.1596199, "elevation": 237.0, "source": "osm", "_tags": {"ele": "237", "name": "Pickards Mountain", "natural": "peak"}}, {"name": "Bald Mountain", "latitude": 35.9755748, "longitude": -79.112435, "elevation": 232.0, "source": "osm", "_tags": {"ele": "232", "name": "Bald Mountain", "natural": "peak"}}, {"name": "Poplar Ridge", "latitude": 36.0663509, "longitude": -79.0736005, "elevation": 223.0, "source": "osm", "_tags": {"ele": "223", "name": "Poplar Ridge", "natural": "peak"}}, {"name": "", "latitude": 36.0689266, "longitude": -79.07168, "elevation": null, "source": "osm", "_tags": {"natural": "peak"}}]