[{"name": "Mount Ararat", "latitude": 36.9674476, "longitude": -121.1796462, "elevation": 981.0, "source": "osm", "_tags": {"ele": "981", "gnis:feature_id": "218332", "name": "Mount Ararat", "natural": "peak"}}, {"name": "Bald Mountain", "latitude": 36.5705164, "longitude": -121.0899164, "elevation": 890.0, "source": "osm", "_tags": {"ele": "890", "gnis:feature_id": "218581", "name": "Bald Mountain", "natural": "peak"}}, {"name": "Big Mountain", "latitude": 36.591162, "longitude": -121.0260232, "elevation": 1211.0, "source": "osm", "_tags": {"ANSICODE": "00219218", "COUNTYFP": "069", "STATEFP": "06", "Tiger:MTFCC": "C3022", "ele": "1211", "gnis:feature_id": "219218", "name": "Big Mountain", "natural": "peak", "source": "Tiger2009"}}, {"name": "Bills Hill", "latitude": 37.0457791, "longitude": -121.4402139, "elevation": 595.0, "source": "osm", "_tags": {"ele": "595", "gnis:feature_id": "219296", "name": "Bills Hill", "natural": "peak", "wikidata": "Q35727304"}}, {"name": "Black Hill", "latitude": 37.191884, "longitude": -121.2693755, "elevation": 543.0, "source": "osm", "_tags": {"ele": "543", "gnis:feature_id": "219367", "name": "Black Hill", "natural": "peak", "wikidata": "Q35727611"}}, {"name": "Black Mountain", "latitude": 37.2685481, "longitude": -121.2432651, "elevation": 687.0, "source": "osm", "_tags": {"ele": "687", "gnis:feature_id": "219374", "name": "Black Mountain", "natural": "peak", "wikidata": "Q35727893"}}, {"name": "Blue Rocks", "latitude": 37.2482746, "longitude": -121.6110552, "elevation": 742.0, "source": "osm", "_tags": {"ele": "742", "gnis:feature_id": "219522", "name": "Blue Rocks", "natural": "peak", "wikidata": "Q35728405"}}, {"name": "Bone Spring Hill", "latitude": 37.1621628, "longitude": -121.2357628, "elevation": 760.0, "source": "osm", "_tags": {"ele": "760", "gnis:feature_id": "219633", "name": "Bone Spring Hill", "natural": "peak", "wikidata": "Q35728683"}}, {"name": "Buck Peak", "latitude": 36.5449573, "longitude": -120.8729599, "elevation": 1075.0, "source": "osm", "_tags": {"ele": "1075", "gnis:feature_id": "220003", "name": "Buck Peak", "natural": "peak"}}, {"name": "Bullard Mountain", "latitude": 36.876061, "longitude": -121.1085309, "elevation": 708.0, "source": "osm", "_tags": {"ele": "708", "gnis:feature_id": "220129", "name": "Bullard Mountain", "natural": "peak"}}, {"name": "Burra Burra East Peak", "latitude": 37.1093953, "longitude": -121.3652506, "elevation": 695.0, "source": "osm", "_tags": {"ele": "695", "name": "Burra Burra East Peak", "natural": "peak"}}, {"name": "Cerro Colorado", "latitude": 36.718284, "longitude": -120.957686, "elevation": 1112.0, "source": "osm", "_tags": {"ANSICODE": "00220861", "COUNTYFP": "069", "STATEFP": "06", "Tiger:MTFCC": "C3022", "ele": "1112", "gnis:feature_id": "220861", "name": "Cerro Colorado", "natural": "peak", "source": "Tiger2009"}}, {"name": "Cherry Peak", "latitude": 36.6924573, "longitude": -121.1432537, "elevation": 886.0, "source": "osm", "_tags": {"ele": "886", "gnis:feature_id": "220960", "name": "Cherry Peak", "natural": "peak"}}, {"name": "Cibo Peak", "latitude": 36.8274544, "longitude": -121.2196482, "elevation": 846.0, "source": "osm", "_tags": {"ele": "846", "gnis:feature_id": "221106", "name": "Cibo Peak", "natural": "peak"}}, {"name": "Cima Hill", "latitude": 36.6433519, "longitude": -120.6954542, "elevation": 413.0, "source": "osm", "_tags": {"ele": "413", "gnis:feature_id": "221110", "name": "Cima Hill", "natural": "peak", "wikidata": "Q35734777"}}, {"name": "Cow Hill", "latitude": 37.2627186, "longitude": -121.6057773, "elevation": 989.0, "source": "osm", "_tags": {"ele": "989", "gnis:feature_id": "221704", "name": "Cow Hill", "natural": "peak", "wikidata": "Q35736118"}}, {"name": "Coyote Peak", "latitude": 36.8782861, "longitude": -121.2968743, "elevation": 471.0, "source": "osm", "_tags": {"ele": "471", "gnis:feature_id": "221758", "name": "Coyote Peak", "natural": "peak"}}, {"name": "Crevison Peak", "latitude": 37.1910509, "longitude": -121.1888178, "elevation": 626.0, "source": "osm", "_tags": {"ele": "626", "gnis:feature_id": "221829", "name": "Crevison Peak", "natural": "peak", "wikidata": "Q35736471"}}, {"name": "Cushman Hill", "latitude": 36.5805188, "longitude": -121.2885403, "elevation": 893.0, "source": "osm", "_tags": {"ele": "893", "gnis:feature_id": "221941", "name": "Cushman Hill", "natural": "peak"}}, {"name": "El Toro", "latitude": 37.1205328, "longitude": -121.6733214, "elevation": 393.0, "source": "osm", "_tags": {"ele": "393", "gnis:feature_id": "223063", "loc_name": "Morgan Hill", "name": "El Toro", "natural": "peak", "wikidata": "Q14681911"}}, {"name": "Elephant Head", "latitude": 37.0251121, "longitude": -121.3513427, "elevation": 581.0, "source": "osm", "_tags": {"ANSICODE": "00223084", "COUNTYFP": "085", "STATEFP": "06", "Tiger:MTFCC": "C3022", "ele": "581", "gnis:feature_id": "223084", "name": "Elephant Head", "natural": "peak", "source": "Tiger2009", "wikidata": "Q49027570"}}, {"name": "Eli Hill", "latitude": 37.1971615, "longitude": -121.2429858, "elevation": 624.0, "source": "osm", "_tags": {"ele": "624", "gnis:feature_id": "223093", "name": "Eli Hill", "natural": "peak"}}, {"name": "Flint Hills", "latitude": 36.8785646, "longitude": -121.4682718, "elevation": 102.0, "source": "osm", "_tags": {"ele": "102", "gnis:feature_id": "223611", "name": "Flint Hills", "natural": "peak"}}, {"name": "Gulnac Peak", "latitude": 37.0746667, "longitude": -121.3682666, "elevation": 686.0, "source": "osm", "_tags": {"ele": "686", "gnis:feature_id": "224735", "name": "Gulnac Peak", "natural": "peak", "wikidata": "Q49034290"}}, {"name": "Hagerman Peak", "latitude": 37.1124424, "longitude": -121.2385396, "elevation": 540.0, "source": "osm", "_tags": {"ele": "540", "gnis:feature_id": "224777", "name": "Hagerman Peak", "natural": "peak", "wikidata": "Q49034487"}}, {"name": "Hamner Hill", "latitude": 37.21355, "longitude": -121.2902101, "elevation": 717.0, "source": "osm", "_tags": {"ele": "717", "gnis:feature_id": "224861", "name": "Hamner Hill", "natural": "peak"}}, {"name": "Mount Harlan", "latitude": 36.6974604, "longitude": -121.405214, "elevation": 991.0, "source": "osm", "_tags": {"ele": "991", "gnis:feature_id": "224941", "name": "Mount Harlan", "natural": "peak"}}, {"name": "Mount Helen", "latitude": 37.2771614, "longitude": -121.5293857, "elevation": 915.0, "source": "osm", "_tags": {"ANSICODE": "00225124", "COUNTYFP": "085", "STATEFP": "06", "Tiger:MTFCC": "C3022", "ele": "915", "gnis:feature_id": "225124", "name": "Mount Helen", "natural": "peak", "wikidata": "Q49052972"}}, {"name": "Henrietta Peak", "latitude": 36.904951, "longitude": -121.2335376, "elevation": 1095.0, "source": "osm", "_tags": {"ele": "1095", "gnis:feature_id": "225180", "name": "Henrietta Peak", "natural": "peak"}}, {"name": "Jacks Hill", "latitude": 36.9518933, "longitude": -121.246038, "elevation": 682.0, "source": "osm", "_tags": {"ele": "682", "gnis:feature_id": "226067", "name": "Jacks Hill", "natural": "peak"}}, {"name": "Mount Johnson", "latitude": 36.6105179, "longitude": -121.3143751, "elevation": 1048.0, "source": "osm", "_tags": {"ele": "1048", "gnis:feature_id": "226322", "name": "Mount Johnson", "natural": "peak"}}, {"name": "Laveaga Peak", "latitude": 36.8904341, "longitude": -121.1776004, "elevation": 1145.0, "source": "osm", "_tags": {"ele": "1145", "gnis:feature_id": "226961", "name": "Laveaga Peak", "natural": "peak", "wikidata": "Q6502465"}}, {"name": "Lions Peak", "latitude": 37.0566143, "longitude": -121.632167, "elevation": 335.0, "source": "osm", "_tags": {"ANSICODE": "00227177", "COUNTYFP": "085", "STATEFP": "06", "Tiger:MTFCC": "C3022", "ele": "335", "gnis:feature_id": "227177", "name": "Lions Peak", "natural": "peak", "source": "Tiger2009", "wikidata": "Q14683109"}}, {"name": "Lovers Leap", "latitude": 37.0341397, "longitude": -121.3005417, "elevation": 354.0, "source": "osm", "_tags": {"ANSICODE": "00227737", "COUNTYFP": "085", "STATEFP": "06", "Tiger:MTFCC": "C3022", "ele": "354", "gnis:feature_id": "227737", "name": "Lovers Leap", "natural": "peak", "source": "Tiger2009", "wikidata": "Q49047016"}}, {"name": "Mariposa Peak", "latitude": 36.9571705, "longitude": -121.2124254, "elevation": 1001.0, "source": "osm", "_tags": {"ele": "1001", "gnis:feature_id": "228111", "name": "Mariposa Peak", "natural": "peak"}}, {"name": "McPhails Peak", "latitude": 36.656627, "longitude": -121.366322, "elevation": 1016.0, "source": "osm", "_tags": {"ANSICODE": "00228448", "COUNTYFP": "069", "STATEFP": "06", "Tiger:MTFCC": "C3022", "ele": "1016", "gnis:feature_id": "228448", "name": "McPhails Peak", "natural": "peak", "source": "Tiger2009"}}, {"name": "Messic Mountain", "latitude": 36.9499493, "longitude": -121.2977072, "elevation": 541.0, "source": "osm", "_tags": {"ele": "541", "gnis:feature_id": "228539", "name": "Messic Mountain", "natural": "peak"}}, {"name": "Meyers Peak", "latitude": 36.548569, "longitude": -120.9015725, "elevation": 1123.0, "source": "osm", "_tags": {"ele": "1123", "gnis:feature_id": "228561", "name": "Meyers Peak", "natural": "peak"}}, {"name": "Mustang Peak", "latitude": 37.1852183, "longitude": -121.3607677, "elevation": 682.0, "source": "osm", "_tags": {"ele": "682", "gnis:feature_id": "229389", "name": "Mustang Peak", "natural": "peak"}}, {"name": "Nonada Hill", "latitude": 36.6996734, "longitude": -120.7182344, "elevation": 393.0, "source": "osm", "_tags": {"ele": "393", "gnis:feature_id": "229575", "name": "Nonada Hill", "natural": "peak", "wikidata": "Q49057166"}}, {"name": "Mount Olds", "latitude": 36.6424613, "longitude": -121.399102, "elevation": 914.0, "source": "osm", "_tags": {"ANSICODE": "00229995", "COUNTYFP": "053", "STATEFP": "06", "Tiger:MTFCC": "C3022", "ele": "914", "gnis:feature_id": "229995", "name": "Mount Olds", "natural": "peak", "source": "Tiger2009", "wikidata": "Q49053856", "wikipedia": "ceb:Mount Olds (bukid sa Tinipong Bansa)"}}, {"name": "Ortigalita Peak", "latitude": 36.7943938, "longitude": -120.9235204, "elevation": 993.0, "source": "osm", "_tags": {"ele": "993", "gnis:feature_id": "230122", "name": "Ortigalita Peak", "natural": "peak"}}, {"name": "Pacheco Peak", "latitude": 37.0079447, "longitude": -121.2876027, "elevation": 844.0, "source": "osm", "_tags": {"ele": "844", "gnis:feature_id": "230197", "name": "Pacheco Peak", "natural": "peak", "wikidata": "Q49059263", "wikipedia": "ceb:Pacheco Peak"}}, {"name": "Panoche Mountain", "latitude": 36.7255064, "longitude": -120.7646256, "elevation": 641.0, "source": "osm", "_tags": {"ele": "641", "gnis:feature_id": "230285", "name": "Panoche Mountain", "natural": "peak", "wikidata": "Q49059620"}}, {"name": "Pionne Peak", "latitude": 36.5863501, "longitude": -121.1454757, "elevation": 820.0, "source": "osm", "_tags": {"ele": "820", "gnis:feature_id": "230767", "name": "Pionne Peak", "natural": "peak"}}, {"name": "Potrero Peak", "latitude": 36.8566181, "longitude": -121.1501997, "elevation": 1132.0, "source": "osm", "_tags": {"ele": "1132", "gnis:feature_id": "230995", "name": "Potrero Peak", "natural": "peak"}}, {"name": "Reinoso Peak", "latitude": 36.8213413, "longitude": -121.1365875, "elevation": 1049.0, "source": "osm", "_tags": {"ele": "1049", "gnis:feature_id": "231488", "name": "Reinoso Peak", "natural": "peak"}}, {"name": "Mount Reynolds", "latitude": 36.5844076, "longitude": -121.276873, "elevation": 961.0, "source": "osm", "_tags": {"ele": "961", "gnis:feature_id": "231514", "name": "Mount Reynolds", "natural": "peak"}}, {"name": "Saint Marys Peak", "latitude": 36.8880058, "longitude": -121.1482554, "elevation": 745.0, "source": "osm", "_tags": {"ele": "745", "gnis:feature_id": "232221", "name": "Saint Marys Peak", "natural": "peak"}}, {"name": "San Joaquin Peak", "latitude": 36.9046736, "longitude": -121.2618724, "elevation": 878.0, "source": "osm", "_tags": {"ele": "878", "gnis:feature_id": "232412", "name": "San Joaquin Peak", "natural": "peak"}}, {"name": "Santa Ana Mountain", "latitude": 36.8780083, "longitude": -121.2638172, "elevation": 931.0, "source": "osm", "_tags": {"ele": "931", "gnis:feature_id": "232535", "name": "Santa Ana Mountain", "natural": "peak"}}, {"name": "Schneider Hill", "latitude": 36.759958, "longitude": -121.6616132, "elevation": 69.0, "source": "osm", "_tags": {"ele": "69", "gnis:feature_id": "232657", "name": "Schneider Hill", "natural": "peak", "wikidata": "Q49071787"}}, {"name": "Mount Sizer", "latitude": 37.2139686, "longitude": -121.5138814, "elevation": 998.0, "source": "osm", "_tags": {"ele": "998", "gnis:feature_id": "233189", "name": "Mount Sizer", "natural": "peak", "wikidata": "Q6923706"}}, {"name": "Lomerias Muertas", "latitude": 36.9060614, "longitude": -121.5220445, "elevation": 360.0, "source": "osm", "_tags": {"ANSICODE": "00234184", "COUNTYFP": "069", "STATEFP": "06", "Tiger:MTFCC": "C3022", "ele": "360", "gnis:feature_id": "234184", "name": "Lomerias Muertas", "natural": "peak", "source": "Tiger2009"}}, {"name": "Spikes Peak", "latitude": 37.0347134, "longitude": -121.2199802, "elevation": 583.0, "source": "osm", "_tags": {"ele": "583", "gnis:feature_id": "235199", "name": "Spikes Peak", "natural": "peak"}}, {"name": "Sugarloaf", "latitude": 36.7094002, "longitude": -121.118252, "elevation": 863.0, "source": "osm", "_tags": {"ANSICODE": "00235641", "COUNTYFP": "069", "STATEFP": "06", "Tiger:MTFCC": "C3022", "ele": "863", "gnis:feature_id": "235641", "name": "Sugarloaf", "natural": "peak", "source": "Tiger2009"}}, {"name": "Sugarloaf", "latitude": 36.8299486, "longitude": -120.9768562, "elevation": 857.0, "source": "osm", "_tags": {"ele": "857", "gnis:feature_id": "235642", "name": "Sugarloaf", "natural": "peak"}}, {"name": "Sugarloaf Peak", "latitude": 36.7685694, "longitude": -121.5946666, "elevation": 286.0, "source": "osm", "_tags": {"ele": "286", "gnis:feature_id": "235673", "name": "Sugarloaf Peak", "natural": "peak", "wikidata": "Q49079687"}}, {"name": "Sweeney Hill", "latitude": 36.8980038, "longitude": -121.0496393, "elevation": 662.0, "source": "osm", "_tags": {"ele": "662", "gnis:feature_id": "235884", "name": "Sweeney Hill", "natural": "peak"}}, {"name": "Vasquez Peak", "latitude": 37.0813333, "longitude": -121.4007681, "elevation": 674.0, "source": "osm", "_tags": {"ele": "674", "gnis:feature_id": "237034", "name": "Vasquez Peak", "natural": "peak", "wikidata": "Q49086930"}}, {"name": "Walker Peak", "latitude": 36.596624, "longitude": -120.9715758, "elevation": 859.0, "source": "osm", "_tags": {"ele": "859", "gnis:feature_id": "237182", "name": "Walker Peak", "natural": "peak"}}, {"name": "Willow Creek Peak", "latitude": 36.585796, "longitude": -121.2221476, "elevation": 733.0, "source": "osm", "_tags": {"ele": "733", "gnis:feature_id": "237906", "name": "Willow Creek Peak", "natural": "peak"}}, {"name": "Willson Peak", "latitude": 37.0952904, "longitude": -121.435141, "elevation": 807.0, "source": "osm", "_tags": {"ANSICODE": "00237981", "COUNTYFP": "085", "STATEFP": "06", "Tiger:MTFCC": "C3022", "ele": "807", "gnis:feature_id": "237981", "name": "Willson Peak", "natural": "peak", "source": "Tiger2009", "wikidata": "Q49090282"}}, {"name": "Black Mountain", "latitude": 36.3888501, "longitude": -120.8551808, "elevation": 1023.0, "source": "osm", "_tags": {"ele": "1023", "gnis:feature_id": "239428", "name": "Black Mountain", "natural": "peak", "wikidata": "Q4921335"}}, {"name": "Bucks Peak", "latitude": 36.4563475, "longitude": -120.8196233, "elevation": 1237.0, "source": "osm", "_tags": {"ele": "1237", "gnis:feature_id": "239779", "name": "Bucks Peak", "natural": "peak"}}, {"name": "Mount Defiance", "latitude": 36.466982, "longitude": -121.1726088, "elevation": 810.0, "source": "osm", "_tags": {"ele": "810", "gnis:feature_id": "241384", "name": "Mount Defiance", "natural": "peak", "wikidata": "Q21476545"}}, {"name": "Eagle Mountain", "latitude": 36.3244082, "longitude": -120.9507411, "elevation": 756.0, "source": "osm", "_tags": {"ele": "756", "gnis:feature_id": "241710", "name": "Eagle Mountain", "natural": "peak"}}, {"name": "Goat Mountain", "latitude": 36.3521824, "longitude": -120.7354522, "elevation": 1246.0, "source": "osm", "_tags": {"ele": "1246", "gnis:feature_id": "242762", "name": "Goat Mountain", "natural": "peak"}}, {"name": "Hepsedam Peak", "latitude": 36.3144072, "longitude": -120.8240681, "elevation": 1354.0, "source": "osm", "_tags": {"ele": "1354", "gnis:feature_id": "243371", "name": "Hepsedam Peak", "natural": "peak"}}, {"name": "Laguna Mountain", "latitude": 36.339128, "longitude": -120.808789, "elevation": 1361.0, "source": "osm", "_tags": {"ANSICODE": "00244509", "COUNTYFP": "069", "STATEFP": "06", "Tiger:MTFCC": "C3022", "ele": "1361", "gnis:feature_id": "244509", "name": "Laguna Mountain", "natural": "peak", "source": "Tiger2009"}}, {"name": "Lookout Peak", "latitude": 36.4274616, "longitude": -120.9212953, "elevation": 901.0, "source": "osm", "_tags": {"ele": "901", "gnis:feature_id": "245102", "name": "Lookout Peak", "natural": "peak"}}, {"name": "Miller Mountain", "latitude": 36.3191288, "longitude": -121.6455013, "elevation": 1319.0, "source": "osm", "_tags": {"ele": "1319", "gnis:feature_id": "245928", "name": "Miller Mountain", "natural": "peak", "wikidata": "Q49050261"}}, {"name": "North Chalone Peak", "latitude": 36.4476103, "longitude": -121.1956483, "elevation": 1007.0, "source": "osm", "_tags": {"ANSICODE": "00246597", "COUNTYFP": "069", "STATEFP": "06", "Tiger:MTFCC": "C3022", "ele": "1007", "gnis:feature_id": "246597", "name": "North Chalone Peak", "natural": "peak", "source": "Tiger2009", "wikidata": "Q49057284"}}, {"name": "Palo Escrito Peak", "latitude": 36.404786, "longitude": -121.492262, "elevation": 1352.0, "source": "osm", "_tags": {"ele": "1352", "gnis:feature_id": "247168", "name": "Palo Escrito Peak", "natural": "peak", "wikidata": "Q49059577"}}, {"name": "Paloma Mountain", "latitude": 36.3857766, "longitude": -121.4695101, "elevation": 1207.0, "source": "osm", "_tags": {"ele": "1207", "gnis:feature_id": "247189", "name": "Paloma Mountain", "natural": "peak", "wikidata": "Q49059590"}}, {"name": "Panther Peak", "latitude": 36.3005152, "longitude": -120.7893506, "elevation": 1297.0, "source": "osm", "_tags": {"ele": "1297", "gnis:feature_id": "247222", "name": "Panther Peak", "natural": "peak"}}, {"name": "Pine Mountain", "latitude": 36.4544055, "longitude": -120.919073, "elevation": 1160.0, "source": "osm", "_tags": {"ele": "1160", "gnis:feature_id": "247510", "name": "Pine Mountain", "natural": "peak"}}, {"name": "Red Mountain", "latitude": 36.4091277, "longitude": -120.8732372, "elevation": 1163.0, "source": "osm", "_tags": {"ele": "1163", "gnis:feature_id": "248058", "name": "Red Mountain", "natural": "peak"}}, {"name": "Rock Spring Peak", "latitude": 36.4671828, "longitude": -120.9065723, "elevation": 1223.0, "source": "osm", "_tags": {"ele": "1223", "gnis:feature_id": "248287", "name": "Rock Spring Peak", "natural": "peak"}}, {"name": "South Chalone Peak", "latitude": 36.4368485, "longitude": -121.1858497, "elevation": 996.0, "source": "osm", "_tags": {"ANSICODE": "00249690", "COUNTYFP": "053", "STATEFP": "06", "Tiger:MTFCC": "C3022", "ele": "996", "gnis:feature_id": "249690", "name": "South Chalone Peak", "natural": "peak", "source": "Tiger2009", "wikidata": "Q49075765"}}, {"name": "The Fingers", "latitude": 36.4836464, "longitude": -121.207247, "elevation": 638.0, "source": "osm", "_tags": {"ANSICODE": "00250377", "COUNTYFP": "069", "STATEFP": "06", "Tiger:MTFCC": "C3022", "ele": "638", "gnis:feature_id": "250377", "name": "The Fingers", "natural": "peak", "source": "Tiger2009", "wikidata": "Q49082377"}}, {"name": "Tucker Mountain", "latitude": 36.4132924, "longitude": -120.7815659, "elevation": 1248.0, "source": "osm", "_tags": {"ele": "1248", "gnis:feature_id": "250654", "name": "Tucker Mountain", "natural": "peak"}}, {"name": "Twin Peaks", "latitude": 36.3716298, "longitude": -121.4268787, "elevation": 1202.0, "source": "osm", "_tags": {"ele": "1202", "gnis:feature_id": "250747", "name": "Twin Peaks", "natural": "peak", "wikidata": "Q49086150"}}, {"name": "Wild Oat Peak", "latitude": 36.4530161, "longitude": -120.8940717, "elevation": 1208.0, "source": "osm", "_tags": {"ele": "1208", "gnis:feature_id": "251540", "name": "Wild Oat Peak", "natural": "peak"}}, {"name": "Sampson Peak", "latitude": 36.408568, "longitude": -120.704061, "elevation": 1420.0, "source": "osm", "_tags": {"ANSICODE": "00254199", "COUNTYFP": "069", "STATEFP": "06", "Tiger:MTFCC": "C3022", "ele": "1420", "gnis:feature_id": "254199", "name": "Sampson Peak", "natural": "peak", "source": "Tiger2009"}}, {"name": "Antimony Peak", "latitude": 36.9302276, "longitude": -121.2338153, "elevation": 990.0, "source": "osm", "_tags": {"ele": "990", "gnis:feature_id": "254569", "name": "Antimony Peak", "natural": "peak"}}, {"name": "Basalt Hill", "latitude": 37.0188342, "longitude": -121.0863102, "elevation": 519.0, "source": "osm", "_tags": {"ele": "519", "gnis:feature_id": "254588", "name": "Basalt Hill", "natural": "peak"}}, {"name": "Buckeye Hill", "latitude": 36.388573, "longitude": -121.5391066, "elevation": 774.0, "source": "osm", "_tags": {"ele": "774", "gnis:feature_id": "270062", "name": "Buckeye Hill", "natural": "peak", "wikidata": "Q35730001"}}, {"name": "Burned Mountain", "latitude": 36.4510731, "longitude": -121.5918867, "elevation": 863.0, "source": "osm", "_tags": {"ele": "863", "gnis:feature_id": "270087", "name": "Burned Mountain", "natural": "peak", "wikidata": "Q35730567"}}, {"name": "Haystack Hill", "latitude": 36.3846841, "longitude": -121.5627189, "elevation": 638.0, "source": "osm", "_tags": {"ele": "638", "gnis:feature_id": "271524", "name": "Haystack Hill", "natural": "peak", "wikidata": "Q49035575"}}, {"name": "Poison Oak Hill", "latitude": 36.3663507, "longitude": -121.543829, "elevation": 833.0, "source": "osm", "_tags": {"ele": "833", "gnis:feature_id": "273066", "name": "Poison Oak Hill", "natural": "peak", "wikidata": "Q49062952"}}, {"name": "School Hill", "latitude": 36.3805175, "longitude": -121.550496, "elevation": 652.0, "source": "osm", "_tags": {"ele": "652", "gnis:feature_id": "273606", "name": "School Hill", "natural": "peak", "wikidata": "Q49071802"}}, {"name": "Sugarloaf", "latitude": 36.3513781, "longitude": -121.5209021, "elevation": 821.0, "source": "osm", "_tags": {"ele": "821", "gnis:feature_id": "273937", "name": "Sugarloaf", "natural": "peak", "wikidata": "Q49079215"}}, {"name": "Mount Toro", "latitude": 36.5260553, "longitude": -121.6098348, "elevation": 1081.0, "source": "osm", "_tags": {"ele": "1081", "gnis:feature_id": "1654342", "name": "Mount Toro", "natural": "peak", "wikidata": "Q49054920"}}, {"name": "Christmas Hill", "latitude": 36.98911, "longitude": -121.5866538, "elevation": 97.0, "source": "osm", "_tags": {"ele": "97", "gnis:feature_id": "1655895", "name": "Christmas Hill", "natural": "peak", "wikidata": "Q35734623"}}, {"name": "Balconies", "latitude": 36.5016136, "longitude": -121.2046249, "elevation": 678.0, "source": "osm", "_tags": {"ANSICODE": "01657974", "COUNTYFP": "069", "STATEFP": "06", "Tiger:MTFCC": "C3022", "ele": "678", "gnis:feature_id": "1657974", "name": "Balconies", "natural": "peak", "source": "Tiger2009", "wikidata": "Q35724817"}}, {"name": "Bear Mountain", "latitude": 37.2291531, "longitude": -121.4402512, "elevation": 772.0, "source": "osm", "_tags": {"ele": "772", "name": "Bear Mountain", "natural": "peak", "wikidata": "Q35726611"}}, {"name": "Bollinger Mountain", "latitude": 37.253829, "longitude": -121.5452195, "elevation": 1044.0, "source": "osm", "_tags": {"ele": "1044", "gnis:feature_id": "1658100", "name": "Bollinger Mountain", "natural": "peak", "wikidata": "Q35728643"}}, {"name": "Cathedral Peak", "latitude": 36.9607814, "longitude": -121.2040917, "elevation": 1021.0, "source": "osm", "_tags": {"ele": "1021", "gnis:feature_id": "1658238", "name": "Cathedral Peak", "natural": "peak"}}, {"name": "Kickham Peak", "latitude": 37.0475506, "longitude": -121.3849025, "elevation": 707.0, "source": "osm", "_tags": {"ele": "707", "gnis:feature_id": "1658901", "name": "Kickham Peak", "natural": "peak", "wikidata": "Q49041463"}}, {"name": "Lookout Mountain", "latitude": 36.8813384, "longitude": -121.095197, "elevation": 541.0, "source": "osm", "_tags": {"ele": "541", "gnis:feature_id": "1659007", "name": "Lookout Mountain", "natural": "peak"}}, {"name": "Nob Hill", "latitude": 37.1265005, "longitude": -121.6534681, "elevation": 122.0, "source": "osm", "_tags": {"ele": "122", "gnis:feature_id": "1659240", "name": "Nob Hill", "natural": "peak", "wikidata": "Q49057119"}}, {"name": "Pigeon Point", "latitude": 37.0532901, "longitude": -121.4938309, "elevation": 489.0, "source": "osm", "_tags": {"ele": "489", "gnis:feature_id": "1659387", "name": "Pigeon Point", "natural": "peak", "wikidata": "Q49061174"}}, {"name": "Pine Rock", "latitude": 36.5644062, "longitude": -121.1351972, "elevation": 592.0, "source": "osm", "_tags": {"ANSICODE": "01659395", "COUNTYFP": "069", "STATEFP": "06", "Tiger:MTFCC": "C3022", "ele": "592", "gnis:feature_id": "1659395", "name": "Pine Rock", "natural": "peak", "source": "Tiger2009"}}, {"name": "Pine Springs Hill", "latitude": 37.1821622, "longitude": -121.2849315, "elevation": 720.0, "source": "osm", "_tags": {"ele": "720", "gnis:feature_id": "1659396", "name": "Pine Springs Hill", "natural": "peak"}}, {"name": "Red Hill", "latitude": 37.1241088, "longitude": -121.1971498, "elevation": 708.0, "source": "osm", "_tags": {"ele": "708", "gnis:feature_id": "1659481", "name": "Red Hill", "natural": "peak"}}, {"name": "Rock Springs Peak", "latitude": 37.0838332, "longitude": -121.39299, "elevation": 703.0, "source": "osm", "_tags": {"ele": "703", "gnis:feature_id": "1659533", "name": "Rock Springs Peak", "natural": "peak", "wikidata": "Q49068986"}}, {"name": "Three Sisters", "latitude": 36.892452, "longitude": -121.2565945, "elevation": 887.0, "source": "osm", "_tags": {"ANSICODE": "01659997", "COUNTYFP": "069", "STATEFP": "06", "Tiger:MTFCC": "C3022", "ele": "887", "gnis:feature_id": "1659997", "name": "Three Sisters", "natural": "peak", "source": "Tiger2009"}}, {"name": "Twin Peaks", "latitude": 36.9374105, "longitude": -121.1551977, "elevation": 783.0, "source": "osm", "_tags": {"ele": "783", "gnis:feature_id": "1660055", "name": "Twin Peaks", "natural": "peak"}}, {"name": "Ell Peak", "latitude": 36.3649629, "longitude": -121.434379, "elevation": 1297.0, "source": "osm", "_tags": {"ANSICODE": "01660613", "COUNTYFP": "053", "STATEFP": "06", "Tiger:MTFCC": "C3022", "ele": "1297", "gnis:feature_id": "1660613", "name": "Ell Peak", "natural": "peak", "source": "Tiger2009", "wikidata": "Q49027901"}}, {"name": "Hawkins Peak", "latitude": 36.4881373, "longitude": -121.197222, "elevation": 829.0, "source": "osm", "_tags": {"ANSICODE": "01660734", "COUNTYFP": "069", "STATEFP": "06", "Tiger:MTFCC": "C3022", "ele": "829", "gnis:feature_id": "1660734", "name": "Hawkins Peak", "natural": "peak", "source": "Tiger2009", "wikidata": "Q49035350"}}, {"name": "Red Hill", "latitude": 36.3952397, "longitude": -121.5471625, "elevation": 756.0, "source": "osm", "_tags": {"ele": "756", "gnis:feature_id": "1661290", "name": "Red Hill", "natural": "peak", "wikidata": "Q49067275"}}, {"name": "Scout Peak", "latitude": 36.4798032, "longitude": -121.199626, "elevation": 794.0, "source": "osm", "_tags": {"ANSICODE": "01661414", "COUNTYFP": "069", "STATEFP": "06", "Tiger:MTFCC": "C3022", "ele": "794", "ele:ft": "2605", "gnis:feature_id": "1661414", "name": "Scout Peak", "natural": "peak", "source": "Tiger2009", "wikidata": "Q49072025"}}, {"name": "Tully Mountain", "latitude": 36.356907, "longitude": -120.8971273, "elevation": 1088.0, "source": "osm", "_tags": {"ANSICODE": "01661587", "COUNTYFP": "069", "STATEFP": "06", "Tiger:MTFCC": "C3022", "ele": "1088", "gnis:feature_id": "1661587", "name": "Tully Mountain", "natural": "peak", "source": "Tiger2009"}}, {"name": "High Peaks", "latitude": 36.4857658, "longitude": -121.1983445, "elevation": 804.0, "source": "osm", "_tags": {"ANSICODE": "01891157", "COUNTYFP": "069", "STATEFP": "06", "Tiger:MTFCC": "C3022", "ele": "804", "gnis:feature_id": "1891157", "name": "High Peaks", "natural": "peak", "source": "Tiger2009", "wikidata": "Q49036353"}}, {"name": "Monolith", "latitude": 36.4732807, "longitude": -121.1867093, "elevation": 456.0, "source": "osm", "_tags": {"ANSICODE": "02054468", "COUNTYFP": "069", "STATEFP": "06", "Tiger:MTFCC": "C3022", "ele": "456", "gnis:feature_id": "2054468", "name": "Monolith", "natural": "peak", "source": "Tiger2009"}}, {"name": "Burra Burra West Peak", "latitude": 37.1097606, "longitude": -121.3681109, "elevation": 652.0, "source": "osm", "_tags": {"ele": "652", "name": "Burra Burra West Peak", "natural": "peak"}}, {"name": "Zimba", "latitude": 37.2686454, "longitude": -121.3180948, "elevation": 788.0, "source": "osm", "_tags": {"ele": "788", "name": "Zimba", "natural": "peak"}}, {"name": "Pinnacle Rocks", "latitude": 36.4874741, "longitude": -121.2013158, "elevation": null, "source": "osm", "_tags": {"ANSICODE": "00247532", "COUNTYFP": "069", "STATEFP": "06", "Tiger:MTFCC": "C3022", "name": "Pinnacle Rocks", "natural": "peak", "source": "Tiger2009"}}, {"name": "Vasquez Rock", "latitude": 36.326629, "longitude": -120.86907, "elevation": 1187.0, "source": "osm", "_tags": {"ANSICODE": "00250962", "COUNTYFP": "069", "STATEFP": "06", "Tiger:MTFCC": "C3022", "ele": "1187", "gnis:feature_id": "250962", "name": "Vasquez Rock", "natural": "peak", "source": "Tiger2009"}}, {"name": "Split Rock", "latitude": 36.318573, "longitude": -120.767398, "elevation": 955.0, "source": "osm", "_tags": {"ANSICODE": "00249801", "COUNTYFP": "069", "STATEFP": "06", "Tiger:MTFCC": "C3022", "ele": "955", "gnis:feature_id": "249801", "name": "Split Rock", "natural": "peak", "source": "Tiger2009"}}, {"name": "Pinecate Peak", "latitude": 36.8585576, "longitude": -121.6152226, "elevation": 227.0, "source": "osm", "_tags": {"ANSICODE": "00230729", "COUNTYFP": "069", "STATEFP": "06", "Tiger:MTFCC": "C3022", "ele": "227", "gnis:feature_id": "230729", "name": "Pinecate Peak", "natural": "peak", "source": "Tiger2009"}}, {"name": "Larios Peak", "latitude": 37.122443, "longitude": -121.520217, "elevation": 840.0, "source": "osm", "_tags": {"ANSICODE": "00226875", "COUNTYFP": "085", "STATEFP": "06", "Tiger:MTFCC": "C3022", "ele": "840", "gnis:feature_id": "226875", "name": "Larios Peak", "natural": "peak", "source": "Tiger2009", "wikidata": "Q49043515"}}, {"name": "Chimney Rock", "latitude": 37.0902184, "longitude": -121.2871441, "elevation": null, "source": "osm", "_tags": {"ANSICODE": "00221004", "COUNTYFP": "085", "STATEFP": "06", "Tiger:MTFCC": "C3022", "name": "Chimney Rock", "natural": "peak", "source": "Tiger2009"}}, {"name": "Elephant Mountain", "latitude": 36.349684, "longitude": -121.689114, "elevation": 1200.0, "source": "osm", "_tags": {"ANSICODE": "01660611", "COUNTYFP": "053", "STATEFP": "06", "Tiger:MTFCC": "C3022", "ele": "1200", "gnis:feature_id": "1660611", "name": "Elephant Mountain", "natural": "peak", "source": "Tiger2009", "wikidata": "Q49027608"}}, {"name": "Bluerock Mountain", "latitude": 36.6813468, "longitude": -121.486329, "elevation": 782.0, "source": "osm", "_tags": {"ANSICODE": "00219538", "COUNTYFP": "053", "STATEFP": "06", "Tiger:MTFCC": "C3022", "ele": "782", "gnis:feature_id": "219538", "name": "Bluerock Mountain", "natural": "peak", "source": "Tiger2009", "wikidata": "Q35728475"}}, {"name": "Fremont Peak", "latitude": 36.7572144, "longitude": -121.5041114, "elevation": 966.0, "source": "osm", "_tags": {"ANSICODE": "00223878", "COUNTYFP": "053", "STATEFP": "06", "Tiger:MTFCC": "C3022", "ele": "966", "name": "Fremont Peak", "natural": "peak", "source": "Tiger2009", "wikidata": "Q5501612", "wikipedia": "en:Fremont Peak (California)"}}, {"name": "Mount Pajaro", "latitude": 36.9236188, "longitude": -121.6287473, "elevation": 480.0, "source": "osm", "_tags": {"ele": "480", "name": "Mount Pajaro", "natural": "peak", "wikidata": "Q49053928"}}, {"name": "", "latitude": 36.9797287, "longitude": -121.6162752, "elevation": 598.0, "source": "osm", "_tags": {"ele": "598", "natural": "peak"}}, {"name": "", "latitude": 36.4354103, "longitude": -121.1723166, "elevation": 788.0, "source": "osm", "_tags": {"ele": "788", "natural": "peak"}}, {"name": "", "latitude": 36.4404586, "longitude": -121.1682691, "elevation": 691.0, "source": "osm", "_tags": {"ele": "691", "natural": "peak"}}, {"name": "", "latitude": 36.4432776, "longitude": -121.1794881, "elevation": 811.0, "source": "osm", "_tags": {"ele": "811", "natural": "peak"}}, {"name": "", "latitude": 36.4477579, "longitude": -121.1691806, "elevation": 752.0, "source": "osm", "_tags": {"ele": "752", "natural": "peak"}}, {"name": "", "latitude": 36.4489709, "longitude": -121.1619636, "elevation": 558.0, "source": "osm", "_tags": {"ele": "558", "natural": "peak"}}, {"name": "", "latitude": 36.453198, "longitude": -121.1792601, "elevation": 805.0, "source": "osm", "_tags": {"ele": "805", "natural": "peak"}}, {"name": "", "latitude": 36.4551755, "longitude": -121.1879736, "elevation": 709.0, "source": "osm", "_tags": {"ele": "709", "natural": "peak"}}, {"name": "", "latitude": 36.4614387, "longitude": -121.1921746, "elevation": 836.0, "source": "osm", "_tags": {"ele": "836", "natural": "peak"}}, {"name": "", "latitude": 36.4628421, "longitude": -121.1801554, "elevation": 728.0, "source": "osm", "_tags": {"ele": "728", "natural": "peak"}}, {"name": "", "latitude": 36.4628925, "longitude": -121.1615647, "elevation": 429.0, "source": "osm", "_tags": {"ele": "429", "natural": "peak"}}, {"name": "", "latitude": 36.4758658, "longitude": -121.1753835, "elevation": 710.0, "source": "osm", "_tags": {"ele": "710", "natural": "peak"}}, {"name": "", "latitude": 36.4810446, "longitude": -121.222087, "elevation": 630.0, "source": "osm", "_tags": {"ele": "630", "natural": "peak"}}, {"name": "", "latitude": 36.4894186, "longitude": -121.1632003, "elevation": 486.0, "source": "osm", "_tags": {"ele": "486", "natural": "peak"}}, {"name": "", "latitude": 36.4908455, "longitude": -121.2174597, "elevation": 554.0, "source": "osm", "_tags": {"ele": "554", "natural": "peak"}}, {"name": "", "latitude": 36.4953886, "longitude": -121.1623777, "elevation": 554.0, "source": "osm", "_tags": {"ele": "554", "natural": "peak"}}, {"name": "", "latitude": 36.5011728, "longitude": -121.2265663, "elevation": 678.0, "source": "osm", "_tags": {"ele": "678", "natural": "peak"}}, {"name": "", "latitude": 36.5068181, "longitude": -121.2105653, "elevation": 679.0, "source": "osm", "_tags": {"ele": "679", "natural": "peak"}}, {"name": "", "latitude": 36.5117468, "longitude": -121.1709512, "elevation": 658.0, "source": "osm", "_tags": {"ele": "658", "natural": "peak"}}, {"name": "", "latitude": 36.5147349, "longitude": -121.209176, "elevation": 673.0, "source": "osm", "_tags": {"ele": "673", "natural": "peak"}}, {"name": "", "latitude": 36.5150463, "longitude": -121.2285178, "elevation": 700.0, "source": "osm", "_tags": {"ele": "700", "natural": "peak"}}, {"name": "", "latitude": 36.5228546, "longitude": -121.171588, "elevation": 682.0, "source": "osm", "_tags": {"ele": "682", "natural": "peak"}}, {"name": "", "latitude": 36.5311073, "longitude": -121.2181113, "elevation": 615.0, "source": "osm", "_tags": {"ele": "615", "natural": "peak"}}, {"name": "Bear Mountain Peak", "latitude": 37.2173787, "longitude": -121.4403992, "elevation": null, "source": "osm", "_tags": {"name": "Bear Mountain Peak", "natural": "peak"}}, {"name": "", "latitude": 37.0459249, "longitude": -121.6818575, "elevation": 455.0, "source": "osm", "_tags": {"ele": "455", "natural": "peak"}}, {"name": "Pigeon Point", "latitude": 36.3261843, "longitude": -121.5027533, "elevation": null, "source": "osm", "_tags": {"name": "Pigeon Point", "natural": "peak", "source": "USGS"}}, {"name": "Tie Down Peak", "latitude": 37.1349212, "longitude": -121.3716906, "elevation": 451.0, "source": "osm", "_tags": {"ele": "451", "name": "Tie Down Peak", "natural": "peak"}}, {"name": "Atherton Peak", "latitude": 36.9368555, "longitude": -121.6491085, "elevation": 492.0, "source": "osm", "_tags": {"ele": "492", "name": "Atherton Peak", "natural": "peak", "wikidata": "Q35724568"}}, {"name": "", "latitude": 36.6405519, "longitude": -120.7268166, "elevation": 726.6, "source": "osm", "_tags": {"ele": "726.6", "natural": "peak"}}, {"name": "Walsh Peak", "latitude": 37.1423412, "longitude": -121.3892665, "elevation": 621.0, "source": "osm", "_tags": {"ele": "621", "name": "Walsh Peak", "natural": "peak", "source": "Henry W Coe state park map"}}, {"name": "", "latitude": 36.402416, "longitude": -120.6980228, "elevation": 1420.0, "source": "osm", "_tags": {"ele": "1420", "natural": "peak"}}, {"name": "", "latitude": 36.4298854, "longitude": -120.693736, "elevation": 918.0, "source": "osm", "_tags": {"ele": "918", "natural": "peak"}}, {"name": "Larious Peak", "latitude": 36.3894339, "longitude": -120.7312561, "elevation": 1170.0, "source": "osm", "_tags": {"ele": "1170", "name": "Larious Peak", "natural": "peak"}}, {"name": "", "latitude": 36.3992964, "longitude": -120.7608837, "elevation": 1081.0, "source": "osm", "_tags": {"ele": "1081", "natural": "peak"}}, {"name": "", "latitude": 36.4030097, "longitude": -120.7550687, "elevation": 1051.0, "source": "osm", "_tags": {"ele": "1051", "natural": "peak"}}, {"name": "", "latitude": 36.4089677, "longitude": -120.721584, "elevation": 1167.0, "source": "osm", "_tags": {"ele": "1167", "natural": "peak"}}, {"name": "", "latitude": 36.4340215, "longitude": -120.7106539, "elevation": 976.0, "source": "osm", "_tags": {"ele": "976", "natural": "peak"}}, {"name": "", "latitude": 36.5547529, "longitude": -120.8335168, "elevation": 658.0, "source": "osm", "_tags": {"ele": "658", "natural": "peak"}}, {"name": "", "latitude": 36.5586334, "longitude": -120.8197887, "elevation": 646.0, "source": "osm", "_tags": {"ele": "646", "natural": "peak"}}, {"name": "Teaching Rock", "latitude": 36.4747649, "longitude": -121.1869309, "elevation": null, "source": "osm", "_tags": {"climbing": "crag", "name": "Teaching Rock", "natural": "peak", "sport": "climbing", "tourism": "viewpoint"}}, {"name": "", "latitude": 36.9230073, "longitude": -121.6539613, "elevation": 302.0, "source": "osm", "_tags": {"ele": "302", "natural": "peak"}}, {"name": "Mount Chamberlain", "latitude": 36.930939, "longitude": -121.6441428, "elevation": 501.0, "source": "osm", "_tags": {"ele": "501", "name": "Mount Chamberlain", "natural": "peak"}}, {"name": "", "latitude": 36.9787, "longitude": -121.6809841, "elevation": 513.0, "source": "osm", "_tags": {"ele": "513", "natural": "peak"}}, {"name": "", "latitude": 36.9854326, "longitude": -121.6676362, "elevation": 477.0, "source": "osm", "_tags": {"ele": "477", "natural": "peak"}}, {"name": "", "latitude": 36.9842612, "longitude": -121.6366442, "elevation": 560.0, "source": "osm", "_tags": {"ele": "560", "natural": "peak"}}, {"name": "", "latitude": 37.1924671, "longitude": -121.5482854, "elevation": 917.0, "source": "osm", "_tags": {"ele": "917", "natural": "peak"}}, {"name": "Middle Ridge", "latitude": 37.2075593, "longitude": -121.5434917, "elevation": 884.0, "source": "osm", "_tags": {"ele": "884", "name": "Middle Ridge", "natural": "peak"}}, {"name": "Middle Ridge", "latitude": 37.2011082, "longitude": -121.5317925, "elevation": 823.0, "source": "osm", "_tags": {"ele": "823", "name": "Middle Ridge", "natural": "peak"}}, {"name": "", "latitude": 37.1955159, "longitude": -121.5262285, "elevation": 762.0, "source": "osm", "_tags": {"ele": "762", "natural": "peak"}}, {"name": "", "latitude": 37.1847169, "longitude": -121.5338342, "elevation": 783.0, "source": "osm", "_tags": {"ele": "783", "natural": "peak"}}, {"name": "", "latitude": 37.2233189, "longitude": -121.5268974, "elevation": 937.0, "source": "osm", "_tags": {"ele": "937", "natural": "peak"}}, {"name": "", "latitude": 37.2319363, "longitude": -121.5391552, "elevation": 963.0, "source": "osm", "_tags": {"ele": "963", "natural": "peak"}}, {"name": "", "latitude": 37.2370891, "longitude": -121.5478453, "elevation": 961.0, "source": "osm", "_tags": {"ele": "961", "natural": "peak"}}, {"name": "", "latitude": 37.1750653, "longitude": -121.5136464, "elevation": 707.0, "source": "osm", "_tags": {"ele": "707", "natural": "peak"}}, {"name": "", "latitude": 37.169909, "longitude": -121.4889292, "elevation": 600.0, "source": "osm", "_tags": {"ele": "600", "natural": "peak"}}, {"name": "", "latitude": 37.155841, "longitude": -121.4809924, "elevation": 598.0, "source": "osm", "_tags": {"ele": "598", "natural": "peak"}}, {"name": "", "latitude": 37.149821, "longitude": -121.476649, "elevation": 634.0, "source": "osm", "_tags": {"ele": "634", "natural": "peak"}}, {"name": "", "latitude": 37.1537919, "longitude": -121.5044997, "elevation": 720.0, "source": "osm", "_tags": {"ele": "720", "natural": "peak"}}, {"name": "", "latitude": 37.1477992, "longitude": -121.502043, "elevation": null, "source": "osm", "_tags": {"natural": "peak"}}, {"name": "", "latitude": 37.1587986, "longitude": -121.5059012, "elevation": 699.0, "source": "osm", "_tags": {"ele": "699", "natural": "peak"}}, {"name": "", "latitude": 37.1578682, "longitude": -121.5252584, "elevation": 809.0, "source": "osm", "_tags": {"ele": "809", "natural": "peak"}}, {"name": "", "latitude": 37.1734847, "longitude": -121.5428583, "elevation": 789.0, "source": "osm", "_tags": {"ele": "789", "natural": "peak"}}, {"name": "", "latitude": 37.1783464, "longitude": -121.5489845, "elevation": 763.0, "source": "osm", "_tags": {"ele": "763", "natural": "peak"}}, {"name": "", "latitude": 37.1846366, "longitude": -121.554671, "elevation": null, "source": "osm", "_tags": {"natural": "peak"}}, {"name": "", "latitude": 37.153708, "longitude": -121.4514702, "elevation": 757.0, "source": "osm", "_tags": {"ele": "757", "natural": "peak"}}, {"name": "", "latitude": 37.1674696, "longitude": -121.4583804, "elevation": 779.0, "source": "osm", "_tags": {"ele": "779", "natural": "peak"}}, {"name": "Willow Ridge", "latitude": 37.1734415, "longitude": -121.4560615, "elevation": 797.0, "source": "osm", "_tags": {"ele": "797", "name": "Willow Ridge", "natural": "peak"}}, {"name": "", "latitude": 37.2136638, "longitude": -121.4521844, "elevation": 658.0, "source": "osm", "_tags": {"ele": "658", "natural": "peak"}}, {"name": "", "latitude": 37.2056167, "longitude": -121.4795556, "elevation": 700.0, "source": "osm", "_tags": {"ele": "700", "natural": "peak"}}, {"name": "", "latitude": 37.2124543, "longitude": -121.492849, "elevation": 822.0, "source": "osm", "_tags": {"ele": "822", "natural": "peak"}}, {"name": "", "latitude": 37.21952, "longitude": -121.4649996, "elevation": null, "source": "osm", "_tags": {"natural": "peak"}}, {"name": "", "latitude": 37.2174287, "longitude": -121.4436233, "elevation": null, "source": "osm", "_tags": {"natural": "peak"}}, {"name": "", "latitude": 37.2315563, "longitude": -121.4365912, "elevation": 794.0, "source": "osm", "_tags": {"ele": "794", "natural": "peak"}}, {"name": "", "latitude": 37.2349802, "longitude": -121.4445567, "elevation": null, "source": "osm", "_tags": {"natural": "peak"}}, {"name": "", "latitude": 37.2413506, "longitude": -121.4024758, "elevation": 555.0, "source": "osm", "_tags": {"ele": "555", "natural": "peak"}}, {"name": "Grass", "latitude": 37.2523874, "longitude": -121.403759, "elevation": 679.0, "source": "osm", "_tags": {"ele": "679", "name": "Grass", "natural": "peak"}}, {"name": "", "latitude": 37.2557728, "longitude": -121.4180356, "elevation": 539.0, "source": "osm", "_tags": {"ele": "539", "natural": "peak"}}, {"name": "", "latitude": 37.2585679, "longitude": -121.4284803, "elevation": 528.0, "source": "osm", "_tags": {"ele": "528", "natural": "peak"}}, {"name": "", "latitude": 37.2799589, "longitude": -121.4545729, "elevation": null, "source": "osm", "_tags": {"natural": "peak"}}, {"name": "", "latitude": 37.2755434, "longitude": -121.4543901, "elevation": null, "source": "osm", "_tags": {"natural": "peak"}}, {"name": "", "latitude": 37.2697298, "longitude": -121.4531853, "elevation": null, "source": "osm", "_tags": {"natural": "peak"}}, {"name": "", "latitude": 37.2640655, "longitude": -121.4530719, "elevation": null, "source": "osm", "_tags": {"natural": "peak"}}, {"name": "", "latitude": 37.2629032, "longitude": -121.4488893, "elevation": 682.0, "source": "osm", "_tags": {"ele": "682", "natural": "peak"}}, {"name": "", "latitude": 37.2612219, "longitude": -121.4434732, "elevation": 659.0, "source": "osm", "_tags": {"ele": "659", "natural": "peak"}}, {"name": "", "latitude": 37.2562306, "longitude": -121.4536337, "elevation": null, "source": "osm", "_tags": {"natural": "peak"}}, {"name": "", "latitude": 37.2432799, "longitude": -121.4503355, "elevation": null, "source": "osm", "_tags": {"natural": "peak"}}, {"name": "", "latitude": 37.2326425, "longitude": -121.451296, "elevation": 711.0, "source": "osm", "_tags": {"ele": "711", "natural": "peak"}}, {"name": "", "latitude": 37.2397253, "longitude": -121.3890138, "elevation": 707.0, "source": "osm", "_tags": {"ele": "707", "natural": "peak"}}, {"name": "", "latitude": 37.2385872, "longitude": -121.3726621, "elevation": 590.0, "source": "osm", "_tags": {"ele": "590", "natural": "peak"}}, {"name": "", "latitude": 37.2561059, "longitude": -121.3898299, "elevation": 785.0, "source": "osm", "_tags": {"ele": "785", "natural": "peak"}}, {"name": "Robison Mountain", "latitude": 37.2580583, "longitude": -121.3828845, "elevation": 810.0, "source": "osm", "_tags": {"ele": "810", "name": "Robison Mountain", "natural": "peak"}}, {"name": "Snodgrass Peak", "latitude": 37.2626487, "longitude": -121.386992, "elevation": 770.0, "source": "osm", "_tags": {"ele": "770", "name": "Snodgrass Peak", "natural": "peak"}}, {"name": "", "latitude": 37.2616098, "longitude": -121.3716103, "elevation": 774.0, "source": "osm", "_tags": {"ele": "774", "natural": "peak"}}, {"name": "", "latitude": 37.2528945, "longitude": -121.3696376, "elevation": 717.0, "source": "osm", "_tags": {"ele": "717", "natural": "peak"}}, {"name": "", "latitude": 37.2568561, "longitude": -121.3739465, "elevation": 757.0, "source": "osm", "_tags": {"ele": "757", "natural": "peak"}}, {"name": "", "latitude": 37.274158, "longitude": -121.3287986, "elevation": 734.0, "source": "osm", "_tags": {"ele": "734", "natural": "peak"}}, {"name": "", "latitude": 37.2653063, "longitude": -121.3336056, "elevation": 489.0, "source": "osm", "_tags": {"ele": "489", "natural": "peak"}}, {"name": "", "latitude": 37.2558738, "longitude": -121.3309003, "elevation": null, "source": "osm", "_tags": {"natural": "peak"}}, {"name": "Rooster Comb", "latitude": 37.2430661, "longitude": -121.3565445, "elevation": 560.0, "source": "osm", "_tags": {"ele": "560", "name": "Rooster Comb", "natural": "peak", "wikidata": "Q7366528"}}, {"name": "", "latitude": 37.2279153, "longitude": -121.3558972, "elevation": 457.0, "source": "osm", "_tags": {"ele": "457", "natural": "peak"}}, {"name": "", "latitude": 37.2224373, "longitude": -121.3768135, "elevation": null, "source": "osm", "_tags": {"natural": "peak"}}, {"name": "", "latitude": 37.2232178, "longitude": -121.4065697, "elevation": 613.0, "source": "osm", "_tags": {"ele": "613", "natural": "peak"}}, {"name": "", "latitude": 37.2205229, "longitude": -121.404073, "elevation": null, "source": "osm", "_tags": {"natural": "peak"}}, {"name": "", "latitude": 37.2186084, "longitude": -121.392459, "elevation": null, "source": "osm", "_tags": {"natural": "peak"}}, {"name": "", "latitude": 37.2105824, "longitude": -121.3467769, "elevation": 571.0, "source": "osm", "_tags": {"ele": "571", "natural": "peak"}}, {"name": "", "latitude": 37.2137066, "longitude": -121.337813, "elevation": 583.0, "source": "osm", "_tags": {"ele": "583", "natural": "peak"}}, {"name": "", "latitude": 37.2171778, "longitude": -121.3355388, "elevation": 572.0, "source": "osm", "_tags": {"ele": "572", "natural": "peak"}}, {"name": "", "latitude": 37.2152913, "longitude": -121.3256273, "elevation": 453.0, "source": "osm", "_tags": {"ele": "453", "natural": "peak"}}, {"name": "", "latitude": 37.2075335, "longitude": -121.3352735, "elevation": 542.0, "source": "osm", "_tags": {"ele": "542", "natural": "peak"}}, {"name": "", "latitude": 37.220181, "longitude": -121.3335679, "elevation": 576.0, "source": "osm", "_tags": {"ele": "576", "natural": "peak"}}, {"name": "", "latitude": 37.2240141, "longitude": -121.3348566, "elevation": 545.0, "source": "osm", "_tags": {"ele": "545", "natural": "peak"}}, {"name": "", "latitude": 37.2243008, "longitude": -121.3189754, "elevation": 500.0, "source": "osm", "_tags": {"ele": "500", "natural": "peak"}}, {"name": "", "latitude": 37.2283148, "longitude": -121.3234669, "elevation": 542.0, "source": "osm", "_tags": {"ele": "542", "natural": "peak"}}, {"name": "", "latitude": 37.2378566, "longitude": -121.3210695, "elevation": 585.0, "source": "osm", "_tags": {"ele": "585", "natural": "peak"}}, {"name": "", "latitude": 37.243715, "longitude": -121.3206633, "elevation": 643.0, "source": "osm", "_tags": {"ele": "643", "natural": "peak"}}, {"name": "", "latitude": 37.2520652, "longitude": -121.3166437, "elevation": 614.0, "source": "osm", "_tags": {"ele": "614", "natural": "peak"}}, {"name": "", "latitude": 37.248613, "longitude": -121.3287554, "elevation": 508.0, "source": "osm", "_tags": {"ele": "508", "natural": "peak"}}, {"name": "", "latitude": 37.2503531, "longitude": -121.3440758, "elevation": null, "source": "osm", "_tags": {"natural": "peak"}}, {"name": "", "latitude": 37.199099, "longitude": -121.3494047, "elevation": null, "source": "osm", "_tags": {"natural": "peak"}}, {"name": "", "latitude": 37.1965599, "longitude": -121.3512262, "elevation": null, "source": "osm", "_tags": {"natural": "peak"}}, {"name": "", "latitude": 37.199132, "longitude": -121.3417668, "elevation": 537.0, "source": "osm", "_tags": {"ele": "537", "natural": "peak"}}, {"name": "", "latitude": 37.19285, "longitude": -121.3567528, "elevation": 581.0, "source": "osm", "_tags": {"ele": "581", "natural": "peak"}}, {"name": "", "latitude": 37.1918458, "longitude": -121.3684091, "elevation": 547.0, "source": "osm", "_tags": {"ele": "547", "natural": "peak"}}, {"name": "", "latitude": 37.1820222, "longitude": -121.3657743, "elevation": 663.0, "source": "osm", "_tags": {"ele": "663", "natural": "peak"}}, {"name": "", "latitude": 37.1768654, "longitude": -121.3718098, "elevation": 606.0, "source": "osm", "_tags": {"ele": "606", "natural": "peak"}}, {"name": "", "latitude": 37.1774987, "longitude": -121.3544742, "elevation": 578.0, "source": "osm", "_tags": {"ele": "578", "natural": "peak"}}, {"name": "", "latitude": 37.1763121, "longitude": -121.3453506, "elevation": null, "source": "osm", "_tags": {"natural": "peak"}}, {"name": "", "latitude": 37.1796537, "longitude": -121.3471373, "elevation": null, "source": "osm", "_tags": {"natural": "peak"}}, {"name": "", "latitude": 37.1683221, "longitude": -121.3432578, "elevation": 569.0, "source": "osm", "_tags": {"ele": "569", "natural": "peak"}}, {"name": "", "latitude": 37.1654813, "longitude": -121.3329899, "elevation": 612.0, "source": "osm", "_tags": {"ele": "612", "natural": "peak"}}, {"name": "", "latitude": 37.1722413, "longitude": -121.3356106, "elevation": 632.0, "source": "osm", "_tags": {"ele": "632", "natural": "peak"}}, {"name": "", "latitude": 37.1686899, "longitude": -121.3205923, "elevation": 598.0, "source": "osm", "_tags": {"ele": "598", "natural": "peak"}}, {"name": "", "latitude": 37.1684742, "longitude": -121.3076752, "elevation": 618.0, "source": "osm", "_tags": {"ele": "618", "natural": "peak"}}, {"name": "", "latitude": 37.1717201, "longitude": -121.3126408, "elevation": 625.0, "source": "osm", "_tags": {"ele": "625", "natural": "peak"}}, {"name": "", "latitude": 37.1678397, "longitude": -121.3005045, "elevation": null, "source": "osm", "_tags": {"natural": "peak"}}, {"name": "", "latitude": 37.1588118, "longitude": -121.2988266, "elevation": null, "source": "osm", "_tags": {"natural": "peak"}}, {"name": "", "latitude": 37.1609031, "longitude": -121.3056254, "elevation": null, "source": "osm", "_tags": {"natural": "peak"}}, {"name": "", "latitude": 37.1559441, "longitude": -121.3514878, "elevation": 521.0, "source": "osm", "_tags": {"ele": "521", "natural": "peak"}}, {"name": "", "latitude": 37.1592712, "longitude": -121.3512095, "elevation": null, "source": "osm", "_tags": {"natural": "peak"}}, {"name": "", "latitude": 37.1496538, "longitude": -121.3555433, "elevation": 457.0, "source": "osm", "_tags": {"ele": "457", "natural": "peak"}}, {"name": "", "latitude": 37.1588118, "longitude": -121.3616066, "elevation": 527.0, "source": "osm", "_tags": {"ele": "527", "natural": "peak"}}, {"name": "", "latitude": 37.1486396, "longitude": -121.3476113, "elevation": 490.0, "source": "osm", "_tags": {"ele": "490", "natural": "peak"}}, {"name": "", "latitude": 37.1382443, "longitude": -121.3472733, "elevation": 458.0, "source": "osm", "_tags": {"ele": "458", "natural": "peak"}}, {"name": "", "latitude": 37.1420318, "longitude": -121.3353257, "elevation": 557.0, "source": "osm", "_tags": {"ele": "557", "natural": "peak"}}, {"name": "", "latitude": 37.1306528, "longitude": -121.3370154, "elevation": 518.0, "source": "osm", "_tags": {"ele": "518", "natural": "peak"}}, {"name": "", "latitude": 37.1297019, "longitude": -121.3441125, "elevation": null, "source": "osm", "_tags": {"natural": "peak"}}, {"name": "", "latitude": 37.1277682, "longitude": -121.350633, "elevation": 397.0, "source": "osm", "_tags": {"ele": "397", "natural": "peak"}}, {"name": "", "latitude": 37.1347873, "longitude": -121.3586032, "elevation": 512.0, "source": "osm", "_tags": {"ele": "512", "natural": "peak"}}, {"name": "", "latitude": 37.144543, "longitude": -121.3713319, "elevation": 517.0, "source": "osm", "_tags": {"ele": "517", "natural": "peak"}}, {"name": "", "latitude": 37.1500011, "longitude": -121.3659315, "elevation": 497.0, "source": "osm", "_tags": {"ele": "497", "natural": "peak"}}, {"name": "", "latitude": 37.1688898, "longitude": -121.3711901, "elevation": null, "source": "osm", "_tags": {"natural": "peak"}}, {"name": "", "latitude": 37.1695941, "longitude": -121.3812717, "elevation": 598.0, "source": "osm", "_tags": {"ele": "598", "natural": "peak"}}, {"name": "", "latitude": 37.1685354, "longitude": -121.3847611, "elevation": 586.0, "source": "osm", "_tags": {"ele": "586", "natural": "peak"}}, {"name": "", "latitude": 37.1650449, "longitude": -121.3839281, "elevation": 574.0, "source": "osm", "_tags": {"ele": "574", "natural": "peak"}}, {"name": "", "latitude": 37.1729219, "longitude": -121.387061, "elevation": 504.0, "source": "osm", "_tags": {"ele": "504", "natural": "peak"}}, {"name": "", "latitude": 37.1634496, "longitude": -121.3915894, "elevation": 490.0, "source": "osm", "_tags": {"ele": "490", "natural": "peak"}}, {"name": "", "latitude": 37.1610046, "longitude": -121.3878972, "elevation": null, "source": "osm", "_tags": {"natural": "peak"}}, {"name": "", "latitude": 37.1500489, "longitude": -121.3949475, "elevation": 613.0, "source": "osm", "_tags": {"ele": "613", "natural": "peak"}}, {"name": "", "latitude": 37.152041, "longitude": -121.4007108, "elevation": null, "source": "osm", "_tags": {"natural": "peak"}}, {"name": "", "latitude": 37.1565908, "longitude": -121.4028699, "elevation": null, "source": "osm", "_tags": {"natural": "peak"}}, {"name": "", "latitude": 37.1586924, "longitude": -121.4071576, "elevation": null, "source": "osm", "_tags": {"natural": "peak"}}, {"name": "", "latitude": 37.1531545, "longitude": -121.3850914, "elevation": 557.0, "source": "osm", "_tags": {"ele": "557", "natural": "peak"}}, {"name": "", "latitude": 37.1181182, "longitude": -121.3824008, "elevation": null, "source": "osm", "_tags": {"natural": "peak"}}, {"name": "", "latitude": 37.1093774, "longitude": -121.3581988, "elevation": 645.0, "source": "osm", "_tags": {"ele": "645", "natural": "peak"}}, {"name": "", "latitude": 37.0867184, "longitude": -121.3769193, "elevation": 628.0, "source": "osm", "_tags": {"ele": "628", "natural": "peak"}}, {"name": "", "latitude": 37.0807732, "longitude": -121.3787439, "elevation": 614.0, "source": "osm", "_tags": {"ele": "614", "natural": "peak"}}, {"name": "", "latitude": 37.0925028, "longitude": -121.3421645, "elevation": 485.0, "source": "osm", "_tags": {"ele": "485", "natural": "peak"}}, {"name": "", "latitude": 37.0978628, "longitude": -121.3884173, "elevation": 518.0, "source": "osm", "_tags": {"ele": "518", "natural": "peak"}}, {"name": "", "latitude": 37.1049305, "longitude": -121.3977307, "elevation": null, "source": "osm", "_tags": {"natural": "peak"}}, {"name": "", "latitude": 37.1083622, "longitude": -121.4042737, "elevation": null, "source": "osm", "_tags": {"natural": "peak"}}, {"name": "", "latitude": 37.1108067, "longitude": -121.4037825, "elevation": null, "source": "osm", "_tags": {"natural": "peak"}}, {"name": "", "latitude": 37.1052862, "longitude": -121.4028189, "elevation": null, "source": "osm", "_tags": {"natural": "peak"}}, {"name": "", "latitude": 37.0979131, "longitude": -121.4143676, "elevation": null, "source": "osm", "_tags": {"natural": "peak"}}, {"name": "", "latitude": 37.093861, "longitude": -121.4138754, "elevation": null, "source": "osm", "_tags": {"natural": "peak"}}, {"name": "", "latitude": 37.107604, "longitude": -121.421309, "elevation": null, "source": "osm", "_tags": {"natural": "peak"}}, {"name": "", "latitude": 37.0886329, "longitude": -121.4115971, "elevation": 647.0, "source": "osm", "_tags": {"ele": "647", "natural": "peak"}}, {"name": "", "latitude": 37.089529, "longitude": -121.427783, "elevation": null, "source": "osm", "_tags": {"natural": "peak"}}, {"name": "", "latitude": 37.0911448, "longitude": -121.4285727, "elevation": null, "source": "osm", "_tags": {"natural": "peak"}}, {"name": "", "latitude": 37.0886732, "longitude": -121.4260578, "elevation": null, "source": "osm", "_tags": {"natural": "peak"}}, {"name": "", "latitude": 37.078784, "longitude": -121.429487, "elevation": 675.0, "source": "osm", "_tags": {"ele": "675", "natural": "peak"}}, {"name": "", "latitude": 37.0657136, "longitude": -121.418414, "elevation": null, "source": "osm", "_tags": {"natural": "peak"}}, {"name": "", "latitude": 37.0632104, "longitude": -121.4161396, "elevation": 673.0, "source": "osm", "_tags": {"ele": "673", "natural": "peak"}}, {"name": "", "latitude": 37.0628188, "longitude": -121.4014508, "elevation": 528.0, "source": "osm", "_tags": {"ele": "528", "natural": "peak"}}, {"name": "", "latitude": 37.0531383, "longitude": -121.404053, "elevation": 639.0, "source": "osm", "_tags": {"ele": "639", "natural": "peak"}}, {"name": "", "latitude": 37.0501703, "longitude": -121.4104803, "elevation": 593.0, "source": "osm", "_tags": {"ele": "593", "natural": "peak"}}, {"name": "", "latitude": 37.0490022, "longitude": -121.4215526, "elevation": 457.0, "source": "osm", "_tags": {"ele": "457", "natural": "peak"}}, {"name": "", "latitude": 37.0538199, "longitude": -121.4468974, "elevation": 564.0, "source": "osm", "_tags": {"ele": "564", "natural": "peak"}}, {"name": "", "latitude": 37.0882656, "longitude": -121.4543545, "elevation": null, "source": "osm", "_tags": {"natural": "peak"}}, {"name": "", "latitude": 37.0942687, "longitude": -121.4511852, "elevation": 753.0, "source": "osm", "_tags": {"ele": "753", "natural": "peak"}}, {"name": "", "latitude": 37.0956378, "longitude": -121.4484439, "elevation": null, "source": "osm", "_tags": {"natural": "peak"}}, {"name": "", "latitude": 37.0926295, "longitude": -121.4817314, "elevation": null, "source": "osm", "_tags": {"natural": "peak"}}, {"name": "Palassou Ridge", "latitude": 37.1004571, "longitude": -121.4872, "elevation": null, "source": "osm", "_tags": {"name": "Palassou Ridge", "natural": "peak"}}, {"name": "", "latitude": 37.1150173, "longitude": -121.4620764, "elevation": 700.0, "source": "osm", "_tags": {"ele": "700", "natural": "peak"}}, {"name": "", "latitude": 37.1206676, "longitude": -121.4554415, "elevation": 816.0, "source": "osm", "_tags": {"ele": "816", "natural": "peak"}}, {"name": "", "latitude": 37.1262344, "longitude": -121.4495861, "elevation": 753.0, "source": "osm", "_tags": {"ele": "753", "natural": "peak"}}, {"name": "", "latitude": 37.1330093, "longitude": -121.4574138, "elevation": 810.0, "source": "osm", "_tags": {"ele": "810", "natural": "peak"}}, {"name": "", "latitude": 37.1254191, "longitude": -121.4743738, "elevation": null, "source": "osm", "_tags": {"natural": "peak"}}, {"name": "", "latitude": 37.1165008, "longitude": -121.4977406, "elevation": 803.0, "source": "osm", "_tags": {"ele": "803", "natural": "peak"}}, {"name": "", "latitude": 37.1130801, "longitude": -121.5074412, "elevation": 820.0, "source": "osm", "_tags": {"ele": "820", "natural": "peak"}}, {"name": "Palassou Ridge", "latitude": 37.1283087, "longitude": -121.5096128, "elevation": 778.0, "source": "osm", "_tags": {"ele": "778", "name": "Palassou Ridge", "natural": "peak"}}, {"name": "", "latitude": 37.1387147, "longitude": -121.5094337, "elevation": 776.0, "source": "osm", "_tags": {"ele": "776", "natural": "peak"}}, {"name": "Palassou Ridge", "latitude": 37.1418024, "longitude": -121.5205583, "elevation": 804.0, "source": "osm", "_tags": {"ele": "804", "name": "Palassou Ridge", "natural": "peak"}}, {"name": "", "latitude": 37.1445895, "longitude": -121.5276105, "elevation": null, "source": "osm", "_tags": {"natural": "peak"}}, {"name": "", "latitude": 37.1462122, "longitude": -121.5286536, "elevation": null, "source": "osm", "_tags": {"natural": "peak"}}, {"name": "", "latitude": 37.154741, "longitude": -121.527661, "elevation": null, "source": "osm", "_tags": {"natural": "peak"}}, {"name": "", "latitude": 37.1540437, "longitude": -121.518172, "elevation": null, "source": "osm", "_tags": {"natural": "peak"}}, {"name": "", "latitude": 37.1370425, "longitude": -121.4655187, "elevation": 697.0, "source": "osm", "_tags": {"ele": "697", "natural": "peak"}}, {"name": "", "latitude": 37.1385934, "longitude": -121.4632714, "elevation": 723.0, "source": "osm", "_tags": {"ele": "723", "natural": "peak"}}, {"name": "", "latitude": 37.1439811, "longitude": -121.4405835, "elevation": null, "source": "osm", "_tags": {"natural": "peak"}}, {"name": "", "latitude": 37.1455676, "longitude": -121.4416602, "elevation": null, "source": "osm", "_tags": {"natural": "peak"}}, {"name": "", "latitude": 37.140743, "longitude": -121.4369945, "elevation": null, "source": "osm", "_tags": {"natural": "peak"}}, {"name": "", "latitude": 37.1374788, "longitude": -121.4304363, "elevation": null, "source": "osm", "_tags": {"natural": "peak"}}, {"name": "", "latitude": 37.1363474, "longitude": -121.4362767, "elevation": 741.0, "source": "osm", "_tags": {"ele": "741", "natural": "peak"}}, {"name": "", "latitude": 37.1365861, "longitude": -121.4198591, "elevation": 742.0, "source": "osm", "_tags": {"ele": "742", "natural": "peak"}}, {"name": "", "latitude": 37.1337457, "longitude": -121.4166418, "elevation": null, "source": "osm", "_tags": {"natural": "peak"}}, {"name": "", "latitude": 37.1299193, "longitude": -121.4252395, "elevation": 727.0, "source": "osm", "_tags": {"ele": "727", "natural": "peak"}}, {"name": "", "latitude": 37.1275308, "longitude": -121.421522, "elevation": 779.0, "source": "osm", "_tags": {"ele": "779", "natural": "peak"}}, {"name": "", "latitude": 37.1245788, "longitude": -121.4173201, "elevation": null, "source": "osm", "_tags": {"natural": "peak"}}, {"name": "", "latitude": 37.1149347, "longitude": -121.4260304, "elevation": 665.0, "source": "osm", "_tags": {"ele": "665", "natural": "peak"}}, {"name": "", "latitude": 37.115245, "longitude": -121.4386333, "elevation": null, "source": "osm", "_tags": {"natural": "peak"}}, {"name": "Hartman Peak", "latitude": 37.199614, "longitude": -121.4044481, "elevation": 674.0, "source": "osm", "_tags": {"ele": "674", "name": "Hartman Peak", "natural": "peak"}}, {"name": "", "latitude": 37.208152, "longitude": -121.4014871, "elevation": null, "source": "osm", "_tags": {"natural": "peak"}}, {"name": "", "latitude": 37.2025492, "longitude": -121.3856998, "elevation": 434.0, "source": "osm", "_tags": {"ele": "434", "natural": "peak"}}, {"name": "", "latitude": 37.2140026, "longitude": -121.4189763, "elevation": null, "source": "osm", "_tags": {"natural": "peak"}}, {"name": "", "latitude": 37.2171188, "longitude": -121.4228093, "elevation": null, "source": "osm", "_tags": {"natural": "peak"}}, {"name": "", "latitude": 37.2275863, "longitude": -121.4304237, "elevation": null, "source": "osm", "_tags": {"natural": "peak"}}, {"name": "", "latitude": 37.2134509, "longitude": -121.4318633, "elevation": 791.0, "source": "osm", "_tags": {"ele": "791", "natural": "peak"}}, {"name": "", "latitude": 37.2137655, "longitude": -121.4249094, "elevation": 756.0, "source": "osm", "_tags": {"ele": "756", "natural": "peak"}}, {"name": "", "latitude": 37.195723, "longitude": -121.4251336, "elevation": null, "source": "osm", "_tags": {"natural": "peak"}}, {"name": "", "latitude": 37.1918171, "longitude": -121.4274954, "elevation": null, "source": "osm", "_tags": {"natural": "peak"}}, {"name": "", "latitude": 37.1894737, "longitude": -121.4230457, "elevation": 721.0, "source": "osm", "_tags": {"ele": "721", "natural": "peak"}}, {"name": "", "latitude": 37.1802464, "longitude": -121.4128994, "elevation": null, "source": "osm", "_tags": {"natural": "peak"}}, {"name": "", "latitude": 37.1732823, "longitude": -121.4120193, "elevation": 675.0, "source": "osm", "_tags": {"ele": "675", "natural": "peak"}}, {"name": "", "latitude": 37.1745071, "longitude": -121.4221876, "elevation": null, "source": "osm", "_tags": {"natural": "peak"}}, {"name": "", "latitude": 37.1691684, "longitude": -121.4320911, "elevation": 743.0, "source": "osm", "_tags": {"ele": "743", "natural": "peak"}}, {"name": "", "latitude": 37.1732243, "longitude": -121.4380917, "elevation": null, "source": "osm", "_tags": {"natural": "peak"}}, {"name": "", "latitude": 37.1719598, "longitude": -121.4485466, "elevation": null, "source": "osm", "_tags": {"natural": "peak"}}, {"name": "", "latitude": 37.1808541, "longitude": -121.4373705, "elevation": 732.0, "source": "osm", "_tags": {"ele": "732", "natural": "peak"}}, {"name": "", "latitude": 37.1839259, "longitude": -121.4278745, "elevation": 742.0, "source": "osm", "_tags": {"ele": "742", "natural": "peak"}}, {"name": "", "latitude": 37.1941544, "longitude": -121.449084, "elevation": null, "source": "osm", "_tags": {"natural": "peak"}}, {"name": "Peak 1940", "latitude": 37.200299, "longitude": -121.4638873, "elevation": 591.0, "source": "osm", "_tags": {"ele": "591", "name": "Peak 1940", "natural": "peak"}}, {"name": "", "latitude": 37.1741332, "longitude": -121.371712, "elevation": null, "source": "osm", "_tags": {"natural": "peak"}}, {"name": "", "latitude": 36.9320316, "longitude": -121.6114388, "elevation": 281.0, "source": "osm", "_tags": {"ele": "281", "natural": "peak"}}, {"name": "", "latitude": 36.9891681, "longitude": -121.6780043, "elevation": 488.0, "source": "osm", "_tags": {"ele": "488", "natural": "peak"}}, {"name": "", "latitude": 36.9849945, "longitude": -121.6498625, "elevation": 489.0, "source": "osm", "_tags": {"ele": "489", "natural": "peak"}}, {"name": "", "latitude": 36.9759825, "longitude": -121.6294482, "elevation": 531.0, "source": "osm", "_tags": {"ele": "531", "natural": "peak"}}, {"name": "", "latitude": 36.9685467, "longitude": -121.6534674, "elevation": 416.0, "source": "osm", "_tags": {"ele": "416", "natural": "peak"}}, {"name": "", "latitude": 36.9638727, "longitude": -121.6654113, "elevation": 481.0, "source": "osm", "_tags": {"ele": "481", "natural": "peak"}}, {"name": "", "latitude": 36.9499775, "longitude": -121.6542453, "elevation": 438.0, "source": "osm", "_tags": {"ele": "438", "natural": "peak"}}, {"name": "", "latitude": 36.942715, "longitude": -121.6177887, "elevation": 310.0, "source": "osm", "_tags": {"ele": "310", "natural": "peak"}}, {"name": "", "latitude": 36.9233676, "longitude": -121.5870559, "elevation": 235.0, "source": "osm", "_tags": {"ele": "235", "natural": "peak"}}, {"name": "", "latitude": 36.9249817, "longitude": -121.6692416, "elevation": 122.0, "source": "osm", "_tags": {"ele": "122", "natural": "peak"}}, {"name": "", "latitude": 36.9456347, "longitude": -121.5869906, "elevation": 308.0, "source": "osm", "_tags": {"ele": "308", "natural": "peak"}}, {"name": "", "latitude": 36.9411834, "longitude": -121.5969799, "elevation": 273.0, "source": "osm", "_tags": {"ele": "273", "natural": "peak"}}, {"name": "", "latitude": 36.954905, "longitude": -121.5761758, "elevation": 235.0, "source": "osm", "_tags": {"ele": "235", "natural": "peak"}}, {"name": "", "latitude": 36.9577848, "longitude": -121.5715519, "elevation": 265.0, "source": "osm", "_tags": {"ele": "265", "natural": "peak"}}, {"name": "Nesbit Ridge", "latitude": 37.1362179, "longitude": -121.5322209, "elevation": 850.7, "source": "osm", "_tags": {"ele": "850.7", "name": "Nesbit Ridge", "natural": "peak"}}, {"name": "", "latitude": 37.1890146, "longitude": -121.4921701, "elevation": 766.0, "source": "osm", "_tags": {"ele": "766", "natural": "peak"}}, {"name": "Divide Ridge", "latitude": 37.2311826, "longitude": -121.5024269, "elevation": null, "source": "osm", "_tags": {"name": "Divide Ridge", "natural": "peak"}}, {"name": "Hat Rock", "latitude": 37.2135885, "longitude": -121.4955718, "elevation": 817.0, "source": "osm", "_tags": {"ele": "817", "name": "Hat Rock", "natural": "peak"}}, {"name": "Eagle Pines", "latitude": 37.1800018, "longitude": -121.4619197, "elevation": 713.0, "source": "osm", "_tags": {"ele": "713", "name": "Eagle Pines", "natural": "peak"}}, {"name": "", "latitude": 36.953371, "longitude": -121.610051, "elevation": 235.0, "source": "osm", "_tags": {"ele": "235", "natural": "peak"}}, {"name": "", "latitude": 36.876943, "longitude": -121.5050662, "elevation": 147.0, "source": "osm", "_tags": {"ele": "147", "natural": "peak"}}, {"name": "", "latitude": 36.8816116, "longitude": -121.43888, "elevation": 126.0, "source": "osm", "_tags": {"ele": "126", "natural": "peak"}}, {"name": "", "latitude": 36.8962593, "longitude": -121.5203548, "elevation": 332.0, "source": "osm", "_tags": {"ele": "332", "natural": "peak"}}, {"name": "", "latitude": 36.8836135, "longitude": -121.490501, "elevation": 215.0, "source": "osm", "_tags": {"ele": "215", "natural": "peak"}}, {"name": "", "latitude": 36.8686693, "longitude": -121.4405537, "elevation": 121.0, "source": "osm", "_tags": {"ele": "121", "natural": "peak"}}, {"name": "", "latitude": 36.8647552, "longitude": -121.4491797, "elevation": 131.0, "source": "osm", "_tags": {"ele": "131", "natural": "peak"}}, {"name": "", "latitude": 36.8676393, "longitude": -121.4799071, "elevation": 124.0, "source": "osm", "_tags": {"ele": "124", "natural": "peak"}}, {"name": "", "latitude": 36.8766341, "longitude": -121.4839411, "elevation": 204.0, "source": "osm", "_tags": {"ele": "204", "natural": "peak"}}, {"name": "", "latitude": 36.8680856, "longitude": -121.4952708, "elevation": 126.0, "source": "osm", "_tags": {"ele": "126", "natural": "peak"}}, {"name": "", "latitude": 36.8915658, "longitude": -121.4969874, "elevation": 215.0, "source": "osm", "_tags": {"ele": "215", "natural": "peak"}}, {"name": "", "latitude": 36.9045224, "longitude": -121.5138096, "elevation": 335.0, "source": "osm", "_tags": {"ele": "335", "natural": "peak"}}, {"name": "", "latitude": 36.8971516, "longitude": -121.5333581, "elevation": 278.0, "source": "osm", "_tags": {"ele": "278", "natural": "peak"}}, {"name": "", "latitude": 36.8974691, "longitude": -121.5386475, "elevation": 344.0, "source": "osm", "_tags": {"ele": "344", "natural": "peak"}}, {"name": "", "latitude": 36.8967971, "longitude": -121.4995761, "elevation": 244.0, "source": "osm", "_tags": {"ele": "244", "natural": "peak"}}, {"name": "", "latitude": 36.8722226, "longitude": -121.4533425, "elevation": 151.0, "source": "osm", "_tags": {"ele": "151", "natural": "peak"}}, {"name": "", "latitude": 36.9330848, "longitude": -121.6301751, "elevation": 385.0, "source": "osm", "_tags": {"ele": "385", "natural": "peak"}}, {"name": "", "latitude": 36.9244279, "longitude": -121.6190788, "elevation": 392.0, "source": "osm", "_tags": {"ele": "392", "natural": "peak"}}, {"name": "", "latitude": 36.9188816, "longitude": -121.6126013, "elevation": 320.0, "source": "osm", "_tags": {"ele": "320", "natural": "peak"}}, {"name": "", "latitude": 36.9169602, "longitude": -121.6119361, "elevation": 319.0, "source": "osm", "_tags": {"ele": "319", "natural": "peak"}}, {"name": "Dominic Peak", "latitude": 36.3341622, "longitude": -120.692233, "elevation": 1389.0, "source": "osm", "_tags": {"ele": "1389", "name": "Dominic Peak", "natural": "peak"}}, {"name": "", "latitude": 37.0153524, "longitude": -121.6795224, "elevation": 333.0, "source": "osm", "_tags": {"ele": "333", "natural": "peak"}}, {"name": "", "latitude": 37.0250964, "longitude": -121.6844684, "elevation": 324.0, "source": "osm", "_tags": {"ele": "324", "natural": "peak"}}, {"name": "Ollason Peak", "latitude": 36.5678453, "longitude": -121.6683901, "elevation": 549.0, "source": "osm", "_tags": {"ele": "549", "name": "Ollason Peak", "natural": "peak"}}, {"name": "Chews Ridge", "latitude": 36.3111587, "longitude": -121.568266, "elevation": 1549.0, "source": "osm", "_tags": {"ele": "1549", "name": "Chews Ridge", "natural": "peak", "wikidata": "Q49684500"}}, {"name": "", "latitude": 36.2963895, "longitude": -121.598097, "elevation": 1451.0, "source": "osm", "_tags": {"ele": "1451", "natural": "peak"}}, {"name": "Lion Rock", "latitude": 36.2883698, "longitude": -121.6898001, "elevation": 1334.0, "source": "osm", "_tags": {"ele": "1334", "name": "Lion Rock", "natural": "peak"}}, {"name": "", "latitude": 36.8496716, "longitude": -121.6008105, "elevation": 287.0, "source": "osm", "_tags": {"ele": "287", "natural": "peak"}}, {"name": "", "latitude": 36.8439707, "longitude": -121.6226973, "elevation": 165.0, "source": "osm", "_tags": {"ele": "165", "natural": "peak"}}, {"name": "", "latitude": 36.8385957, "longitude": -121.5879144, "elevation": 330.0, "source": "osm", "_tags": {"ele": "330", "natural": "peak"}}, {"name": "", "latitude": 36.834268, "longitude": -121.5780654, "elevation": 302.0, "source": "osm", "_tags": {"ele": "302", "natural": "peak"}}, {"name": "", "latitude": 36.8357535, "longitude": -121.6102894, "elevation": 210.0, "source": "osm", "_tags": {"ele": "210", "natural": "peak"}}, {"name": "", "latitude": 36.831314, "longitude": -121.6112443, "elevation": 290.0, "source": "osm", "_tags": {"ele": "290", "natural": "peak"}}, {"name": "", "latitude": 36.8406402, "longitude": -121.5864929, "elevation": 275.0, "source": "osm", "_tags": {"ele": "275", "natural": "peak"}}, {"name": "Twin Peaks", "latitude": 37.0793871, "longitude": -121.685552, "elevation": 445.0, "source": "osm", "_tags": {"ele": "445", "name": "Twin Peaks", "natural": "peak", "website": "https://parks.sccgov.org/"}}, {"name": "", "latitude": 36.4824841, "longitude": -121.1982517, "elevation": 778.0, "source": "osm", "_tags": {"ele": "778", "natural": "peak"}}, {"name": "", "latitude": 37.0799883, "longitude": -121.6826559, "elevation": 390.0, "source": "osm", "_tags": {"ele": "390", "natural": "peak"}}, {"name": "", "latitude": 37.0929838, "longitude": -121.6907943, "elevation": 366.0, "source": "osm", "_tags": {"ele": "366", "natural": "peak"}}, {"name": "", "latitude": 37.0961898, "longitude": -121.6836838, "elevation": 370.0, "source": "osm", "_tags": {"ele": "370", "natural": "peak"}}, {"name": "", "latitude": 37.0995154, "longitude": -121.6875811, "elevation": 366.0, "source": "osm", "_tags": {"ele": "366", "natural": "peak"}}, {"name": "", "latitude": 36.6372602, "longitude": -120.6958437, "elevation": 442.0, "source": "osm", "_tags": {"ele": "442", "natural": "peak"}}, {"name": "", "latitude": 37.0689781, "longitude": -121.6766739, "elevation": 312.0, "source": "osm", "_tags": {"ele": "312", "natural": "peak"}}, {"name": "", "latitude": 37.0895337, "longitude": -121.6825989, "elevation": 246.0, "source": "osm", "_tags": {"ele": "246", "natural": "peak"}}, {"name": "", "latitude": 37.0773671, "longitude": -121.6753221, "elevation": 242.0, "source": "osm", "_tags": {"ele": "242", "natural": "peak"}}, {"name": "", "latitude": 37.0960592, "longitude": -121.6904497, "elevation": 366.0, "source": "osm", "_tags": {"ele": "366", "natural": "peak"}}, {"name": "", "latitude": 37.0768107, "longitude": -121.6895163, "elevation": 383.0, "source": "osm", "_tags": {"ele": "383", "natural": "peak"}}]