[{"name": "Davis Mesa", "latitude": 36.97919, "longitude": -103.9560785, "elevation": 2296.0, "source": "osm", "_tags": {"ele": "2296", "gnis:feature_id": "196375", "name": "Davis Mesa", "natural": "peak"}}, {"name": "Bartlett Mesa", "latitude": 36.9912744, "longitude": -104.4337589, "elevation": 2709.0, "source": "osm", "_tags": {"ele": "2709", "gnis:feature_id": "203746", "name": "Bartlett Mesa", "natural": "peak", "wikidata": "Q49010926"}}, {"name": "Brown Mesa", "latitude": 36.9944675, "longitude": -103.9138542, "elevation": 2170.0, "source": "osm", "_tags": {"ele": "2170", "gnis:feature_id": "203881", "name": "Brown Mesa", "natural": "peak"}}, {"name": "Alps Mesa", "latitude": 36.9255791, "longitude": -103.891076, "elevation": 2204.0, "source": "osm", "_tags": {"ele": "2204", "gnis:feature_id": "885709", "name": "Alps Mesa", "natural": "peak", "wikidata": "Q49008661"}}, {"name": "Baby Capulin", "latitude": 36.8153022, "longitude": -103.9360791, "elevation": 2094.0, "source": "osm", "_tags": {"ele": "2094", "gnis:feature_id": "885968", "name": "Baby Capulin", "natural": "peak", "wikidata": "Q49009431"}}, {"name": "Barela Mountain", "latitude": 36.5383603, "longitude": -103.9966385, "elevation": 2174.0, "source": "osm", "_tags": {"ele": "2174", "gnis:feature_id": "886063", "name": "Barela Mountain", "natural": "peak", "wikidata": "Q49010758"}}, {"name": "Black Mesa", "latitude": 36.8144705, "longitude": -104.3694292, "elevation": 2061.0, "source": "osm", "_tags": {"ele": "2061", "gnis:feature_id": "886424", "name": "Black Mesa", "natural": "peak", "wikidata": "Q49013561"}}, {"name": "Brown Mesa", "latitude": 36.9922453, "longitude": -103.9210768, "elevation": 2176.0, "source": "osm", "_tags": {"ele": "2176", "gnis:feature_id": "886767", "name": "Brown Mesa", "natural": "peak"}}, {"name": "Buckhorn Mesa", "latitude": 36.8114144, "longitude": -104.2177577, "elevation": 2322.0, "source": "osm", "_tags": {"ele": "2322", "gnis:feature_id": "886840", "name": "Buckhorn Mesa", "natural": "peak", "wikidata": "Q49016283"}}, {"name": "Carr Mountain", "latitude": 36.8194685, "longitude": -103.8102394, "elevation": 2104.0, "source": "osm", "_tags": {"ele": "2104", "gnis:feature_id": "887216", "name": "Carr Mountain", "natural": "peak", "wikidata": "Q49018220"}}, {"name": "Chavez Mesa", "latitude": 36.9105795, "longitude": -103.9974699, "elevation": 2277.0, "source": "osm", "_tags": {"ele": "2277", "gnis:feature_id": "887469", "name": "Chavez Mesa", "natural": "peak", "wikidata": "Q49019887"}}, {"name": "Chavez Mountain", "latitude": 36.4922488, "longitude": -103.7038485, "elevation": 1926.0, "source": "osm", "_tags": {"ele": "1926", "gnis:feature_id": "887470", "name": "Chavez Mountain", "natural": "peak", "wikidata": "Q49019891"}}, {"name": "Clifton Hills", "latitude": 36.8308595, "longitude": -104.4885994, "elevation": 2048.0, "source": "osm", "_tags": {"ele": "2048", "gnis:feature_id": "887689", "name": "Clifton Hills", "natural": "peak", "wikidata": "Q49021017"}}, {"name": "Cow Mountain", "latitude": 36.6041924, "longitude": -103.7646832, "elevation": 2043.0, "source": "osm", "_tags": {"ele": "2043", "gnis:feature_id": "887973", "name": "Cow Mountain", "natural": "peak", "wikidata": "Q49022465"}}, {"name": "Davis Mesa", "latitude": 36.97919, "longitude": -103.9555229, "elevation": 2295.0, "source": "osm", "_tags": {"ele": "2295", "gnis:feature_id": "888214", "name": "Davis Mesa", "natural": "peak"}}, {"name": "Devoys Peak", "latitude": 36.9528009, "longitude": -103.7871822, "elevation": 2053.0, "source": "osm", "_tags": {"ele": "2053", "gnis:feature_id": "888356", "name": "Devoys Peak", "natural": "peak", "wikidata": "Q49024625"}}, {"name": "Dry Mesa", "latitude": 36.7961366, "longitude": -104.1785896, "elevation": 2429.0, "source": "osm", "_tags": {"ele": "2429", "gnis:feature_id": "888539", "name": "Dry Mesa", "natural": "peak", "wikidata": "Q49025939"}}, {"name": "Eagle Tail Mesa", "latitude": 36.6816949, "longitude": -104.4147086, "elevation": 2362.0, "source": "osm", "_tags": {"ele": "2362", "gnis:feature_id": "888620", "name": "Eagle Tail Mesa", "natural": "peak", "wikidata": "Q49026773"}}, {"name": "Eagle Tail Mountain", "latitude": 36.6816949, "longitude": -104.4148349, "elevation": 2362.0, "source": "osm", "_tags": {"ele": "2362", "gnis:feature_id": "888621", "name": "Eagle Tail Mountain", "natural": "peak", "wikidata": "Q49026775"}}, {"name": "Emery Peak", "latitude": 36.8794682, "longitude": -103.8549635, "elevation": 2229.0, "source": "osm", "_tags": {"ele": "2229", "gnis:feature_id": "888867", "name": "Emery Peak", "natural": "peak", "wikidata": "Q49028026"}}, {"name": "Flatiron Mesa", "latitude": 36.8272474, "longitude": -104.1819228, "elevation": 2350.0, "source": "osm", "_tags": {"ele": "2350", "gnis:feature_id": "889088", "name": "Flatiron Mesa", "natural": "peak", "wikidata": "Q49029586"}}, {"name": "Fudge Hill", "latitude": 36.5191946, "longitude": -104.2552604, "elevation": 2202.0, "source": "osm", "_tags": {"ele": "2202", "gnis:feature_id": "889257", "name": "Fudge Hill", "natural": "peak", "wikidata": "Q49030741"}}, {"name": "Goat Hill", "latitude": 36.9041915, "longitude": -104.4449867, "elevation": 2148.0, "source": "osm", "_tags": {"ele": "2148", "gnis:feature_id": "889452", "name": "Goat Hill", "natural": "peak", "wikidata": "Q49031745"}}, {"name": "Green Mountain", "latitude": 36.7366933, "longitude": -104.2660931, "elevation": 2375.0, "source": "osm", "_tags": {"ele": "2375", "gnis:feature_id": "889585", "name": "Green Mountain", "natural": "peak", "wikidata": "Q49033596"}}, {"name": "Green Mountain", "latitude": 36.8144709, "longitude": -104.4933218, "elevation": 2112.0, "source": "osm", "_tags": {"ele": "2112", "gnis:feature_id": "889586", "name": "Green Mountain", "natural": "peak", "wikidata": "Q49033597"}}, {"name": "Haycock Buttes", "latitude": 36.7864148, "longitude": -104.233314, "elevation": 2033.0, "source": "osm", "_tags": {"ele": "2033", "gnis:feature_id": "889844", "name": "Haycock Buttes", "natural": "peak", "wikidata": "Q49035419"}}, {"name": "Hogback Butte", "latitude": 36.4350283, "longitude": -104.1544227, "elevation": 2108.0, "source": "osm", "_tags": {"ele": "2108", "gnis:feature_id": "890052", "name": "Hogback Butte", "natural": "peak", "wikidata": "Q49036714"}}, {"name": "Hogeye Mesa", "latitude": 36.5480829, "longitude": -104.1469226, "elevation": 2416.0, "source": "osm", "_tags": {"ele": "2416", "gnis:feature_id": "890055", "name": "Hogeye Mesa", "natural": "peak", "wikidata": "Q49036762"}}, {"name": "Hunter Mesa", "latitude": 36.8503031, "longitude": -104.2799819, "elevation": 2460.0, "source": "osm", "_tags": {"ele": "2460", "gnis:feature_id": "890266", "name": "Hunter Mesa", "natural": "peak", "wikidata": "Q49038035"}}, {"name": "Johnson Mesa", "latitude": 36.9119689, "longitude": -104.3288721, "elevation": 2636.0, "source": "osm", "_tags": {"ele": "2636", "gnis:feature_id": "890505", "name": "Johnson Mesa", "natural": "peak"}}, {"name": "Kelleher Mesa", "latitude": 36.943357, "longitude": -104.03386, "elevation": 2291.0, "source": "osm", "_tags": {"ele": "2291", "gnis:feature_id": "890644", "name": "Kelleher Mesa", "natural": "peak", "wikidata": "Q49041054"}}, {"name": "Kiowa Mesa", "latitude": 36.6430821, "longitude": -104.1133098, "elevation": 2287.0, "source": "osm", "_tags": {"ele": "2287", "gnis:feature_id": "890720", "name": "Kiowa Mesa", "natural": "peak", "wikidata": "Q49041846"}}, {"name": "Klondike Mesa", "latitude": 36.9175237, "longitude": -103.9416339, "elevation": 2188.0, "source": "osm", "_tags": {"ele": "2188", "gnis:feature_id": "890735", "name": "Klondike Mesa", "natural": "peak", "wikidata": "Q49042037"}}, {"name": "Las Mesetas", "latitude": 36.457528, "longitude": -104.0716415, "elevation": 1991.0, "source": "osm", "_tags": {"ele": "1991", "gnis:feature_id": "890956", "name": "Las Mesetas", "natural": "peak", "wikidata": "Q49043555"}}, {"name": "Laughlin Peak", "latitude": 36.6253047, "longitude": -104.185535, "elevation": 2682.0, "source": "osm", "_tags": {"ele": "2682", "gnis:feature_id": "890979", "name": "Laughlin Peak", "natural": "peak", "wikidata": "Q49043614"}}, {"name": "Little Grande", "latitude": 36.6614142, "longitude": -103.7752387, "elevation": 2080.0, "source": "osm", "_tags": {"ele": "2080", "gnis:feature_id": "891138", "name": "Little Grande", "natural": "peak", "wikidata": "Q49044929"}}, {"name": "Loco Mesa", "latitude": 36.7536369, "longitude": -104.1552555, "elevation": 2254.0, "source": "osm", "_tags": {"ele": "2254", "gnis:feature_id": "891250", "name": "Loco Mesa", "natural": "peak", "wikidata": "Q49045820"}}, {"name": "Lonesome Mountain", "latitude": 36.5444712, "longitude": -103.9441361, "elevation": 2123.0, "source": "osm", "_tags": {"ele": "2123", "gnis:feature_id": "891285", "name": "Lonesome Mountain", "natural": "peak", "wikidata": "Q49046281"}}, {"name": "Madrid Peak", "latitude": 36.937524, "longitude": -104.1630325, "elevation": 2498.0, "source": "osm", "_tags": {"ele": "2498", "gnis:feature_id": "891535", "name": "Madrid Peak", "natural": "peak", "wikidata": "Q49047376"}}, {"name": "Malpie Mountain", "latitude": 36.6072484, "longitude": -103.9635814, "elevation": 2241.0, "source": "osm", "_tags": {"ele": "2241", "gnis:feature_id": "891567", "name": "Malpie Mountain", "natural": "peak", "wikidata": "Q49047692"}}, {"name": "Melon Mesa", "latitude": 36.7216922, "longitude": -104.0413624, "elevation": 2197.0, "source": "osm", "_tags": {"ele": "2197", "gnis:feature_id": "891835", "name": "Melon Mesa", "natural": "peak", "wikidata": "Q49049179"}}, {"name": "Palo Blanco Mountain", "latitude": 36.5844712, "longitude": -104.0819198, "elevation": 2542.0, "source": "osm", "_tags": {"ele": "2542", "gnis:feature_id": "893045", "name": "Palo Blanco Mountain", "natural": "peak", "wikidata": "Q49059568"}}, {"name": "Pine Buttes", "latitude": 36.583916, "longitude": -104.1683122, "elevation": 2569.0, "source": "osm", "_tags": {"ele": "2569", "gnis:feature_id": "893275", "name": "Pine Buttes", "natural": "peak", "wikidata": "Q49061478"}}, {"name": "Piñon Hills", "latitude": 36.5747503, "longitude": -104.3005391, "elevation": 2147.0, "source": "osm", "_tags": {"ele": "2147", "gnis:feature_id": "893310", "name": "Piñon Hills", "natural": "peak", "wikidata": "Q49062490"}}, {"name": "Potato Mountain", "latitude": 36.8939137, "longitude": -104.3555397, "elevation": 2226.0, "source": "osm", "_tags": {"ele": "2226", "gnis:feature_id": "893435", "name": "Potato Mountain", "natural": "peak", "wikidata": "Q49063804"}}, {"name": "Purvine Hills", "latitude": 36.8166909, "longitude": -103.8544083, "elevation": 2080.0, "source": "osm", "_tags": {"ele": "2080", "gnis:feature_id": "893564", "name": "Purvine Hills", "natural": "peak", "wikidata": "Q49064576"}}, {"name": "Red Mountain", "latitude": 36.6855829, "longitude": -104.3163724, "elevation": 2196.0, "source": "osm", "_tags": {"ele": "2196", "gnis:feature_id": "893776", "name": "Red Mountain", "natural": "peak", "wikidata": "Q49067763"}}, {"name": "Red Mountain", "latitude": 36.9075242, "longitude": -104.149421, "elevation": 2569.0, "source": "osm", "_tags": {"ele": "2569", "gnis:feature_id": "893777", "name": "Red Mountain", "natural": "peak", "wikidata": "Q49067765"}}, {"name": "Red River Peak", "latitude": 36.80586, "longitude": -104.5013776, "elevation": 2288.0, "source": "osm", "_tags": {"ele": "2288", "gnis:feature_id": "893782", "name": "Red River Peak", "natural": "peak", "wikidata": "Q49067915"}}, {"name": "Rincon Peak", "latitude": 36.5122498, "longitude": -104.1249772, "elevation": 2282.0, "source": "osm", "_tags": {"ele": "2282", "gnis:feature_id": "893948", "name": "Rincon Peak", "natural": "peak", "wikidata": "Q49068581"}}, {"name": "River Mesa", "latitude": 36.8878013, "longitude": -103.7566255, "elevation": 2037.0, "source": "osm", "_tags": {"ele": "2037", "gnis:feature_id": "893979", "name": "River Mesa", "natural": "peak", "wikidata": "Q49068653"}}, {"name": "Round Mesa", "latitude": 36.7261375, "longitude": -104.2227582, "elevation": 2205.0, "source": "osm", "_tags": {"ele": "2205", "gnis:feature_id": "894179", "name": "Round Mesa", "natural": "peak", "wikidata": "Q49069697"}}, {"name": "Shoemaker Hill", "latitude": 36.580862, "longitude": -104.3488736, "elevation": 2014.0, "source": "osm", "_tags": {"ele": "2014", "gnis:feature_id": "894804", "name": "Shoemaker Hill", "natural": "peak", "wikidata": "Q49073424"}}, {"name": "Temple Peak", "latitude": 36.5036388, "longitude": -104.1430336, "elevation": 2358.0, "source": "osm", "_tags": {"ele": "2358", "gnis:feature_id": "895580", "name": "Temple Peak", "natural": "peak", "wikidata": "Q49081853"}}, {"name": "Timber Mesa", "latitude": 36.8930786, "longitude": -103.7027342, "elevation": 1886.0, "source": "osm", "_tags": {"ele": "1886", "gnis:feature_id": "895680", "name": "Timber Mesa", "natural": "peak", "wikidata": "Q49083798"}}, {"name": "Tinaja Mountain", "latitude": 36.6497502, "longitude": -104.353318, "elevation": 2364.0, "source": "osm", "_tags": {"ele": "2364", "gnis:feature_id": "895686", "name": "Tinaja Mountain", "natural": "peak", "wikidata": "Q49083926"}}, {"name": "Towndrow Peak", "latitude": 36.9047467, "longitude": -104.2585923, "elevation": 2625.0, "source": "osm", "_tags": {"ele": "2625", "gnis:feature_id": "895780", "name": "Towndrow Peak", "natural": "peak", "wikidata": "Q49084520"}}, {"name": "Troyburg Mesa", "latitude": 36.7347484, "longitude": -104.1910904, "elevation": 2229.0, "source": "osm", "_tags": {"ele": "2229", "gnis:feature_id": "895839", "name": "Troyburg Mesa", "natural": "peak", "wikidata": "Q49084980"}}, {"name": "Trujillo Mesa", "latitude": 36.5514163, "longitude": -104.1641455, "elevation": 2435.0, "source": "osm", "_tags": {"ele": "2435", "gnis:feature_id": "895850", "name": "Trujillo Mesa", "natural": "peak", "wikidata": "Q49084986"}}, {"name": "Turkey Mountain", "latitude": 36.5847497, "longitude": -104.2555379, "elevation": 2401.0, "source": "osm", "_tags": {"ele": "2401", "gnis:feature_id": "895910", "name": "Turkey Mountain", "natural": "peak", "wikidata": "Q49085403"}}, {"name": "Twin Mountain", "latitude": 36.8155799, "longitude": -103.88691, "elevation": 2084.0, "source": "osm", "_tags": {"ele": "2084", "gnis:feature_id": "895951", "name": "Twin Mountain", "natural": "peak", "wikidata": "Q49086085"}}, {"name": "Wilson Mesa", "latitude": 36.8514138, "longitude": -104.1772003, "elevation": 2380.0, "source": "osm", "_tags": {"ele": "2380", "gnis:feature_id": "896683", "name": "Wilson Mesa", "natural": "peak", "wikidata": "Q49090328"}}, {"name": "Little Mesa", "latitude": 36.9611349, "longitude": -104.2627589, "elevation": 2479.0, "source": "osm", "_tags": {"ele": "2479", "gnis:feature_id": "897397", "name": "Little Mesa", "natural": "peak", "wikidata": "Q49045139"}}, {"name": "Robinson Peak", "latitude": 36.8216912, "longitude": -104.0088603, "elevation": 2452.0, "source": "osm", "_tags": {"ele": "2452", "gnis:feature_id": "897457", "name": "Robinson Peak", "natural": "peak", "wikidata": "Q49068809"}}, {"name": "Mesa Larga", "latitude": 36.7394704, "longitude": -104.1672006, "elevation": 2348.0, "source": "osm", "_tags": {"ele": "2348", "gnis:feature_id": "898027", "name": "Mesa Larga", "natural": "peak", "wikidata": "Q49049471"}}, {"name": "Sierra Grande", "latitude": 36.705592, "longitude": -103.8766712, "elevation": 2655.0, "source": "osm", "_tags": {"ele": "2655", "gnis:feature_id": "898129", "name": "Sierra Grande", "natural": "peak", "wikidata": "Q7511378", "wikipedia": "en:Sierra Grande"}}, {"name": "Cerro Ermitano", "latitude": 36.5805839, "longitude": -104.3194284, "elevation": 2198.0, "source": "osm", "_tags": {"ele": "2198", "gnis:feature_id": "898279", "name": "Cerro Ermitano", "natural": "peak", "wikidata": "Q49019455"}}, {"name": "Jose Butte", "latitude": 36.8111359, "longitude": -104.0496955, "elevation": 2471.0, "source": "osm", "_tags": {"ele": "2471", "gnis:feature_id": "898345", "name": "Jose Butte", "natural": "peak", "wikidata": "Q49040234"}}, {"name": "Hoodoo Mountain", "latitude": 36.9144681, "longitude": -103.9299667, "elevation": 2105.0, "source": "osm", "_tags": {"ele": "2105", "gnis:feature_id": "898662", "name": "Hoodoo Mountain", "natural": "peak", "wikidata": "Q49036979"}}, {"name": "Umbrella Mesa", "latitude": 36.897246, "longitude": -103.9474677, "elevation": 2193.0, "source": "osm", "_tags": {"ele": "2193", "gnis:feature_id": "898704", "name": "Umbrella Mesa", "natural": "peak", "wikidata": "Q49086568"}}, {"name": "Buffalo Head", "latitude": 36.8658573, "longitude": -103.9180222, "elevation": 2095.0, "source": "osm", "_tags": {"ele": "2095", "gnis:feature_id": "898737", "name": "Buffalo Head", "natural": "peak", "wikidata": "Q49016416"}}, {"name": "Dale Mountain", "latitude": 36.9280797, "longitude": -104.1894226, "elevation": 2588.0, "source": "osm", "_tags": {"ele": "2588", "gnis:feature_id": "898756", "name": "Dale Mountain", "natural": "peak", "wikidata": "Q49023532"}}, {"name": "Dunchee Hill", "latitude": 36.7761355, "longitude": -103.828574, "elevation": 2057.0, "source": "osm", "_tags": {"ele": "2057", "gnis:feature_id": "898761", "name": "Dunchee Hill", "natural": "peak", "wikidata": "Q49026215"}}, {"name": "Dwyer Mesa", "latitude": 36.7530824, "longitude": -104.3330394, "elevation": 2031.0, "source": "osm", "_tags": {"ele": "2031", "gnis:feature_id": "898764", "name": "Dwyer Mesa", "natural": "peak", "wikidata": "Q49026399"}}, {"name": "Mud Hill", "latitude": 36.8022467, "longitude": -103.9530245, "elevation": 2179.0, "source": "osm", "_tags": {"ele": "2179", "gnis:feature_id": "898826", "name": "Mud Hill", "natural": "peak", "wikidata": "Q49055521"}}, {"name": "Purvine Mesa", "latitude": 36.8161353, "longitude": -103.8563528, "elevation": 2087.0, "source": "osm", "_tags": {"ele": "2087", "gnis:feature_id": "898842", "name": "Purvine Mesa", "natural": "peak", "wikidata": "Q49064579"}}, {"name": "Sombrero Butte", "latitude": 36.3544734, "longitude": -104.1299768, "elevation": 1911.0, "source": "osm", "_tags": {"ele": "1911", "gnis:feature_id": "898853", "name": "Sombrero Butte", "natural": "peak", "wikidata": "Q49075587"}}, {"name": "Black Hill", "latitude": 36.3991954, "longitude": -104.2233141, "elevation": 1995.0, "source": "osm", "_tags": {"ele": "1995", "gnis:feature_id": "899531", "name": "Black Hill", "natural": "peak", "wikidata": "Q49013400"}}, {"name": "Black Hill", "latitude": 36.6180825, "longitude": -104.1730345, "elevation": 2400.0, "source": "osm", "_tags": {"ele": "2400", "gnis:feature_id": "899533", "name": "Black Hill", "natural": "peak", "wikidata": "Q49013401"}}, {"name": "Blosser Mesa", "latitude": 36.7005823, "longitude": -104.241648, "elevation": 2288.0, "source": "osm", "_tags": {"ele": "2288", "gnis:feature_id": "899543", "name": "Blosser Mesa", "natural": "peak", "wikidata": "Q49014290"}}, {"name": "Cedar Canyon Mesa", "latitude": 36.7394707, "longitude": -104.2105355, "elevation": 2110.0, "source": "osm", "_tags": {"ele": "2110", "gnis:feature_id": "899564", "name": "Cedar Canyon Mesa", "natural": "peak", "wikidata": "Q49018897"}}, {"name": "Cerriot Negro", "latitude": 36.6144733, "longitude": -104.4041527, "elevation": 1930.0, "source": "osm", "_tags": {"ele": "1930", "gnis:feature_id": "899569", "name": "Cerriot Negro", "natural": "peak", "wikidata": "Q49019221"}}, {"name": "Cerrito Gato", "latitude": 36.6222506, "longitude": -104.3577626, "elevation": 1960.0, "source": "osm", "_tags": {"ele": "1960", "gnis:feature_id": "899571", "name": "Cerrito Gato", "natural": "peak"}}, {"name": "Cinder Butte", "latitude": 36.7969696, "longitude": -104.1085868, "elevation": 2240.0, "source": "osm", "_tags": {"ele": "2240", "gnis:feature_id": "899584", "name": "Cinder Butte", "natural": "peak", "wikidata": "Q49020685"}}, {"name": "Griego Mesa", "latitude": 36.8411358, "longitude": -104.1021973, "elevation": 2361.0, "source": "osm", "_tags": {"ele": "2361", "gnis:feature_id": "899657", "name": "Griego Mesa", "natural": "peak", "wikidata": "Q49033891"}}, {"name": "Gringo Peak", "latitude": 36.8136362, "longitude": -104.1196982, "elevation": 2225.0, "source": "osm", "_tags": {"ele": "2225", "gnis:feature_id": "899658", "name": "Gringo Peak", "natural": "peak", "wikidata": "Q49033957"}}, {"name": "Horse Mesa", "latitude": 36.9916901, "longitude": -104.3435946, "elevation": 2662.0, "source": "osm", "_tags": {"ele": "2662", "gnis:feature_id": "899676", "name": "Horse Mesa", "natural": "peak", "wikidata": "Q49037273"}}, {"name": "Lone Tree Hill", "latitude": 36.5175277, "longitude": -104.1919246, "elevation": 2154.0, "source": "osm", "_tags": {"ele": "2154", "gnis:feature_id": "899732", "name": "Lone Tree Hill", "natural": "peak"}}, {"name": "Margarito Peak", "latitude": 36.5664179, "longitude": -104.3588738, "elevation": 2010.0, "source": "osm", "_tags": {"ele": "2010", "gnis:feature_id": "899749", "name": "Margarito Peak", "natural": "peak", "wikidata": "Q49047951"}}, {"name": "Nipple Peak", "latitude": 36.7369707, "longitude": -104.2191469, "elevation": 2116.0, "source": "osm", "_tags": {"ele": "2116", "gnis:feature_id": "899814", "name": "Nipple Peak", "natural": "peak", "wikidata": "Q49057058"}}, {"name": "Point of Rocks", "latitude": 36.4250284, "longitude": -104.1522003, "elevation": 2014.0, "source": "osm", "_tags": {"ele": "2014", "gnis:feature_id": "899853", "name": "Point of Rocks", "natural": "peak", "wikidata": "Q49062904"}}, {"name": "Point of Rocks Mesa", "latitude": 36.4347505, "longitude": -104.1544227, "elevation": 2113.0, "source": "osm", "_tags": {"ele": "2113", "gnis:feature_id": "899854", "name": "Point of Rocks Mesa", "natural": "peak", "wikidata": "Q49062918"}}, {"name": "Raspberry Mountain", "latitude": 36.5783606, "longitude": -104.2138696, "elevation": 2462.0, "source": "osm", "_tags": {"ele": "2462", "gnis:feature_id": "899865", "name": "Raspberry Mountain", "natural": "peak", "wikidata": "Q49066627"}}, {"name": "The Crater", "latitude": 36.5672495, "longitude": -104.1780349, "elevation": 2448.0, "source": "osm", "_tags": {"ele": "2448", "gnis:feature_id": "899950", "name": "The Crater", "natural": "peak", "wikidata": "Q49082316"}}, {"name": "Tinaja Mesa", "latitude": 36.6803053, "longitude": -104.3272062, "elevation": 2129.0, "source": "osm", "_tags": {"ele": "2129", "gnis:feature_id": "899954", "name": "Tinaja Mesa", "natural": "peak", "wikidata": "Q49083924"}}, {"name": "Tres Hermanos Peak", "latitude": 36.5550291, "longitude": -104.3588739, "elevation": 2062.0, "source": "osm", "_tags": {"ele": "2062", "gnis:feature_id": "899961", "name": "Tres Hermanos Peak", "natural": "peak", "wikidata": "Q49084749"}}, {"name": "Juan Torres Mesa", "latitude": 36.8141924, "longitude": -104.2599815, "elevation": 2256.0, "source": "osm", "_tags": {"ele": "2256", "gnis:feature_id": "902278", "name": "Juan Torres Mesa", "natural": "peak", "wikidata": "Q49040266"}}, {"name": "Negro Mesa", "latitude": 36.987523, "longitude": -103.8469069, "elevation": 2096.0, "source": "osm", "_tags": {"ele": "2096", "gnis:feature_id": "902314", "name": "Negro Mesa", "natural": "peak", "wikidata": "Q49056645"}}, {"name": "Twin Buttes", "latitude": 36.8511355, "longitude": -104.044417, "elevation": 2178.0, "source": "osm", "_tags": {"ele": "2178", "gnis:feature_id": "902374", "name": "Twin Buttes", "natural": "peak", "wikidata": "Q49085909"}}, {"name": "Meloche Mesa", "latitude": 36.8219699, "longitude": -104.2494256, "elevation": 2252.0, "source": "osm", "_tags": {"ele": "2252", "gnis:feature_id": "924767", "name": "Meloche Mesa", "natural": "peak", "wikidata": "Q49049175"}}, {"name": "Twin Mountain", "latitude": 36.8378018, "longitude": -103.841352, "elevation": 2006.0, "source": "osm", "_tags": {"ele": "2006", "gnis:feature_id": "924794", "name": "Twin Mountain", "natural": "peak", "wikidata": "Q49086086"}}, {"name": "Horse Shoe Mesa", "latitude": 36.9658571, "longitude": -104.2655367, "elevation": 2479.0, "source": "osm", "_tags": {"ele": "2479", "gnis:feature_id": "928309", "name": "Horse Shoe Mesa", "natural": "peak"}}, {"name": "Barela Mesa", "latitude": 36.9997455, "longitude": -104.3138714, "elevation": 2611.0, "source": "osm", "_tags": {"ele": "2611", "gnis:feature_id": "1744573", "name": "Barela Mesa", "natural": "peak"}}, {"name": "Simpsons Rest", "latitude": 37.1814074, "longitude": -104.5133186, "elevation": 1965.0, "source": "osm", "_tags": {"ele": "1965", "gnis:feature_id": "194682", "name": "Simpsons Rest", "natural": "peak"}}, {"name": "Pio Hill", "latitude": 37.1744631, "longitude": -104.4735955, "elevation": 1861.0, "source": "osm", "_tags": {"ele": "1861", "gnis:feature_id": "194736", "name": "Pio Hill", "natural": "peak"}}, {"name": "Frijole Hill", "latitude": 37.1544635, "longitude": -104.3880378, "elevation": 1896.0, "source": "osm", "_tags": {"ele": "1896", "gnis:feature_id": "194746", "name": "Frijole Hill", "natural": "peak"}}, {"name": "Mooney Hills", "latitude": 37.2377945, "longitude": -104.2905338, "elevation": 1746.0, "source": "osm", "_tags": {"ele": "1746", "gnis:feature_id": "194755", "name": "Mooney Hills", "natural": "peak"}}, {"name": "Fishers Peak", "latitude": 37.0983539, "longitude": -104.4627631, "elevation": 2920.0, "source": "osm", "_tags": {"ele": "2920", "gnis:feature_id": "194858", "name": "Fishers Peak", "natural": "peak", "wikidata": "Q14951222", "wikipedia": "en:Fishers Peak"}}, {"name": "Baldy", "latitude": 37.0430776, "longitude": -104.4827646, "elevation": 2452.0, "source": "osm", "_tags": {"ele": "2452", "gnis:feature_id": "194867", "name": "Baldy", "natural": "peak"}}, {"name": "Fishers Peak Mesa", "latitude": 37.0816877, "longitude": -104.4497075, "elevation": 2887.0, "source": "osm", "_tags": {"ele": "2887", "gnis:feature_id": "194868", "name": "Fishers Peak Mesa", "natural": "peak"}}, {"name": "Loma Mujer", "latitude": 37.0927985, "longitude": -104.3702605, "elevation": 2085.0, "source": "osm", "_tags": {"ele": "2085", "gnis:feature_id": "194880", "name": "Loma Mujer", "natural": "peak"}}, {"name": "Burro Mesa", "latitude": 37.047691, "longitude": -104.3446882, "elevation": 2666.0, "source": "osm", "_tags": {"ele": "2666", "gnis:feature_id": "194894", "name": "Burro Mesa", "natural": "peak"}}, {"name": "Mesita Negra", "latitude": 37.0739101, "longitude": -104.3330375, "elevation": 2133.0, "source": "osm", "_tags": {"ele": "2133", "gnis:feature_id": "194897", "name": "Mesita Negra", "natural": "peak"}}, {"name": "McBride Butte", "latitude": 37.0458554, "longitude": -104.209978, "elevation": 1936.0, "source": "osm", "_tags": {"ele": "1936", "gnis:feature_id": "194942", "name": "McBride Butte", "natural": "peak"}}, {"name": "Nola Butte", "latitude": 37.0869656, "longitude": -104.1171956, "elevation": 1800.0, "source": "osm", "_tags": {"ele": "1800", "gnis:feature_id": "194956", "name": "Nola Butte", "natural": "peak"}}, {"name": "Plaza Butte", "latitude": 37.0211339, "longitude": -104.0652495, "elevation": 1838.0, "source": "osm", "_tags": {"ele": "1838", "gnis:feature_id": "194964", "name": "Plaza Butte", "natural": "peak"}}, {"name": "Bobblers Knob", "latitude": 36.9989121, "longitude": -104.4016518, "elevation": 2661.0, "source": "osm", "_tags": {"ele": "2661", "gnis:feature_id": "194976", "name": "Bobblers Knob", "natural": "peak"}}, {"name": "Miners Peak", "latitude": 37.1733533, "longitude": -103.6999538, "elevation": 1738.0, "source": "osm", "_tags": {"ele": "1738", "gnis:feature_id": "196228", "name": "Miners Peak", "natural": "peak"}}, {"name": "Watervale Butte", "latitude": 37.0205784, "longitude": -103.9621894, "elevation": 1908.0, "source": "osm", "_tags": {"ele": "1908", "gnis:feature_id": "196269", "name": "Watervale Butte", "natural": "peak"}}, {"name": "Saddle Rock", "latitude": 37.0019675, "longitude": -103.9366329, "elevation": 2204.0, "source": "osm", "_tags": {"ele": "2204", "gnis:feature_id": "196272", "name": "Saddle Rock", "natural": "peak"}}, {"name": "Little Fishers Peak Mesa", "latitude": 37.0397444, "longitude": -104.392762, "elevation": 2747.0, "source": "osm", "_tags": {"ele": "2747", "gnis:feature_id": "203740", "name": "Little Fishers Peak Mesa", "natural": "peak"}}, {"name": "Little Horse Mesa", "latitude": 36.9830561, "longitude": -104.3924957, "elevation": null, "source": "osm", "_tags": {"name": "Little Horse Mesa", "natural": "peak", "wikidata": "Q49692585"}}, {"name": "Eagle Rock", "latitude": 36.6651232, "longitude": -104.49353, "elevation": null, "source": "osm", "_tags": {"name": "Eagle Rock", "natural": "peak"}}, {"name": "Osita Point", "latitude": 37.1053044, "longitude": -104.4822252, "elevation": 2475.0, "source": "osm", "_tags": {"ele": "2475", "name": "Osita Point", "natural": "peak"}}, {"name": "Capulin Mountain", "latitude": 36.7834037, "longitude": -103.967683, "elevation": 2481.0, "source": "osm", "_tags": {"ele": "2481", "name": "Capulin Mountain", "natural": "peak"}}]