[{"name": "Dos Lomas", "latitude": 36.8439018, "longitude": -106.5875351, "elevation": 2436.0, "source": "osm", "_tags": {"ele": "2436", "gnis:feature_id": "888470", "name": "Dos Lomas", "natural": "peak", "wikidata": "Q49025554"}}, {"name": "El Cerro", "latitude": 36.8297354, "longitude": -106.648092, "elevation": 2429.0, "source": "osm", "_tags": {"ele": "2429", "gnis:feature_id": "888801", "name": "El Cerro", "natural": "peak", "wikidata": "Q49027406"}}, {"name": "Grouse Mesa", "latitude": 36.8314021, "longitude": -106.4075307, "elevation": 3477.0, "source": "osm", "_tags": {"ele": "3477", "gnis:feature_id": "889641", "name": "Grouse Mesa", "natural": "peak", "wikidata": "Q49034123"}}, {"name": "Rabbit Peak", "latitude": 36.8997346, "longitude": -106.6014241, "elevation": 2622.0, "source": "osm", "_tags": {"ele": "2622", "gnis:feature_id": "893599", "name": "Rabbit Peak", "natural": "peak", "wikidata": "Q49066287"}}, {"name": "Sugar Loaf Mountain", "latitude": 36.8630681, "longitude": -106.4914221, "elevation": 3204.0, "source": "osm", "_tags": {"ele": "3204", "gnis:feature_id": "895413", "name": "Sugar Loaf Mountain", "natural": "peak", "wikidata": "Q49079115"}}, {"name": "Cerrito Negro", "latitude": 36.7533526, "longitude": -105.8555667, "elevation": 2500.0, "source": "osm", "_tags": {"ele": "2500", "gnis:feature_id": "897867", "name": "Cerrito Negro", "natural": "peak", "wikidata": "Q49019260"}}, {"name": "Cerro de la Olla", "latitude": 36.7561312, "longitude": -105.798898, "elevation": 2888.0, "source": "osm", "_tags": {"ele": "2888", "gnis:feature_id": "898281", "name": "Cerro de la Olla", "name:en": "Pot Mountain", "name:es": "Cerro de la Olla", "natural": "peak", "wikidata": "Q49019395"}}, {"name": "Peñasco Amarillo", "latitude": 36.7033479, "longitude": -106.4155861, "elevation": 3233.0, "source": "osm", "_tags": {"ele": "3233", "gnis:feature_id": "899843", "name": "Peñasco Amarillo", "natural": "peak", "wikidata": "Q49060925"}}, {"name": "Banco Lona", "latitude": 36.4939055, "longitude": -106.2869709, "elevation": 2923.0, "source": "osm", "_tags": {"ele": "2923", "gnis:feature_id": "903531", "name": "Banco Lona", "natural": "peak", "wikidata": "Q49010603"}}, {"name": "Big Rock", "latitude": 36.5575177, "longitude": -106.061964, "elevation": 2708.0, "source": "osm", "_tags": {"ele": "2708", "gnis:feature_id": "903808", "name": "Big Rock", "natural": "peak", "wikidata": "Q49012725"}}, {"name": "Bighorn Peak", "latitude": 36.9855682, "longitude": -106.1800257, "elevation": 2880.0, "source": "osm", "_tags": {"ele": "2880", "gnis:feature_id": "903821", "name": "Bighorn Peak", "natural": "peak", "wikidata": "Q49012846"}}, {"name": "Broke Off Mountain", "latitude": 36.8041816, "longitude": -106.1789124, "elevation": 3156.0, "source": "osm", "_tags": {"ele": "3156", "gnis:feature_id": "904088", "name": "Broke Off Mountain", "natural": "peak", "wikidata": "Q49015498"}}, {"name": "Brushy Mountain", "latitude": 36.7180765, "longitude": -105.7486191, "elevation": 2460.0, "source": "osm", "_tags": {"ele": "2460", "gnis:feature_id": "904120", "name": "Brushy Mountain", "natural": "peak", "wikidata": "Q49015882"}}, {"name": "Burned Mountain", "latitude": 36.6777935, "longitude": -106.2122464, "elevation": 3101.0, "source": "osm", "_tags": {"ele": "3101", "gnis:feature_id": "904209", "name": "Burned Mountain", "natural": "peak", "wikidata": "Q49016886"}}, {"name": "Cerrito Dormilon", "latitude": 36.5277976, "longitude": -105.8697376, "elevation": 2353.0, "source": "osm", "_tags": {"ele": "2353", "gnis:feature_id": "904917", "name": "Cerrito Dormilon", "natural": "peak", "wikidata": "Q49019250"}}, {"name": "Cerro de los Taoses", "latitude": 36.5158537, "longitude": -105.8066811, "elevation": 2435.0, "source": "osm", "_tags": {"ele": "2435", "gnis:feature_id": "904932", "name": "Cerro de los Taoses", "natural": "peak", "wikidata": "Q49019406"}}, {"name": "Cerro Chiflo", "latitude": 36.7486332, "longitude": -105.7091734, "elevation": 2716.0, "source": "osm", "_tags": {"ele": "2716", "gnis:feature_id": "904959", "name": "Cerro Chiflo", "natural": "peak", "wikidata": "Q49019331"}}, {"name": "Cerro Colorado", "latitude": 36.3286313, "longitude": -106.0727998, "elevation": 2373.0, "source": "osm", "_tags": {"ele": "2373", "gnis:feature_id": "904967", "name": "Cerro Colorado", "natural": "peak", "wikidata": "Q49019350"}}, {"name": "Cerro del Aire", "latitude": 36.7194629, "longitude": -105.9166804, "elevation": 2730.0, "source": "osm", "_tags": {"ele": "2730", "gnis:feature_id": "904969", "name": "Cerro del Aire", "natural": "peak", "wikidata": "Q49019418"}}, {"name": "Cerro Mojino", "latitude": 36.4064095, "longitude": -105.926129, "elevation": 2418.0, "source": "osm", "_tags": {"ele": "2418", "gnis:feature_id": "904977", "name": "Cerro Mojino", "natural": "peak", "wikidata": "Q49019491"}}, {"name": "Cerro Montoso", "latitude": 36.6736318, "longitude": -105.7675096, "elevation": 2633.0, "source": "osm", "_tags": {"ele": "2633", "gnis:feature_id": "904979", "name": "Cerro Montoso", "natural": "peak", "wikidata": "Q49019502"}}, {"name": "Chino Peak", "latitude": 36.9327917, "longitude": -106.1141896, "elevation": 2745.0, "source": "osm", "_tags": {"ele": "2745", "gnis:feature_id": "905115", "name": "Chino Peak", "natural": "peak"}}, {"name": "Jawbone Mountain", "latitude": 36.7430707, "longitude": -106.2397474, "elevation": 3232.0, "source": "osm", "_tags": {"ele": "3232", "gnis:feature_id": "907331", "name": "Jawbone Mountain", "natural": "peak", "wikidata": "Q49039614"}}, {"name": "Kiowa Mountain", "latitude": 36.5972394, "longitude": -106.1002984, "elevation": 2967.0, "source": "osm", "_tags": {"ele": "2967", "gnis:feature_id": "907563", "name": "Kiowa Mountain", "natural": "peak", "wikidata": "Q49041848"}}, {"name": "La Mesita", "latitude": 36.4791834, "longitude": -106.4686435, "elevation": 2453.0, "source": "osm", "_tags": {"ele": "2453", "gnis:feature_id": "907699", "name": "La Mesita", "natural": "peak", "wikidata": "Q49043051"}}, {"name": "La Segita Peaks", "latitude": 36.8177949, "longitude": -105.9530715, "elevation": 2642.0, "source": "osm", "_tags": {"ele": "2642", "gnis:feature_id": "907715", "name": "La Segita Peaks", "natural": "peak", "wikidata": "Q49043085"}}, {"name": "Lamy Peak", "latitude": 36.7608495, "longitude": -106.0955756, "elevation": 2846.0, "source": "osm", "_tags": {"ele": "2846", "gnis:feature_id": "907839", "name": "Lamy Peak", "natural": "peak", "wikidata": "Q49043390"}}, {"name": "Los Cerritos De La Cruz", "latitude": 36.8144602, "longitude": -106.0675198, "elevation": 2824.0, "source": "osm", "_tags": {"ele": "2824", "gnis:feature_id": "908203", "name": "Los Cerritos De La Cruz", "natural": "peak", "wikidata": "Q49046847"}}, {"name": "Mogote Peak", "latitude": 36.4947388, "longitude": -106.3116939, "elevation": 3048.0, "source": "osm", "_tags": {"ele": "3048", "gnis:feature_id": "908360", "name": "Mogote Peak", "natural": "peak", "wikidata": "Q49050856"}}, {"name": "Mogotito", "latitude": 36.4633501, "longitude": -106.3205832, "elevation": 2965.0, "source": "osm", "_tags": {"ele": "2965", "gnis:feature_id": "908364", "name": "Mogotito", "natural": "peak", "wikidata": "Q49050857"}}, {"name": "Mesa de la Jarita", "latitude": 36.4950179, "longitude": -106.0841872, "elevation": 2641.0, "source": "osm", "_tags": {"ele": "2641", "gnis:feature_id": "908604", "name": "Mesa de la Jarita", "natural": "peak", "wikidata": "Q49049383"}}, {"name": "Mesa de los Viejos", "latitude": 36.3961268, "longitude": -106.6703142, "elevation": 2456.0, "source": "osm", "_tags": {"ele": "2456", "gnis:feature_id": "908607", "name": "Mesa de los Viejos", "natural": "peak", "wikidata": "Q49049404"}}, {"name": "Mesa del Medio", "latitude": 36.4166838, "longitude": -106.3958637, "elevation": 2490.0, "source": "osm", "_tags": {"ele": "2490", "gnis:feature_id": "908609", "name": "Mesa del Medio", "natural": "peak", "wikidata": "Q49049422"}}, {"name": "Mesa del Yeso", "latitude": 36.3627951, "longitude": -106.4041976, "elevation": 2525.0, "source": "osm", "_tags": {"ele": "2525", "gnis:feature_id": "908611", "name": "Mesa del Yeso", "natural": "peak", "wikidata": "Q49049434"}}, {"name": "Mesa Juan Domingo", "latitude": 36.4016838, "longitude": -106.4439209, "elevation": 2403.0, "source": "osm", "_tags": {"ele": "2403", "gnis:feature_id": "908617", "name": "Mesa Juan Domingo", "natural": "peak", "wikidata": "Q49049466"}}, {"name": "Mesa Montosa", "latitude": 36.3683505, "longitude": -106.4750332, "elevation": 2454.0, "source": "osm", "_tags": {"ele": "2454", "gnis:feature_id": "908622", "name": "Mesa Montosa", "natural": "peak", "wikidata": "Q49049494"}}, {"name": "Mesa Vibora", "latitude": 36.315577, "longitude": -105.9922426, "elevation": 2037.0, "source": "osm", "_tags": {"ele": "2037", "gnis:feature_id": "908646", "name": "Mesa Vibora", "natural": "peak", "wikidata": "Q49049566"}}, {"name": "No Agua Peaks", "latitude": 36.74974, "longitude": -105.9591816, "elevation": 2771.0, "source": "osm", "_tags": {"ele": "2771", "gnis:feature_id": "909095", "name": "No Agua Peaks", "natural": "peak", "wikidata": "Q49057078"}}, {"name": "Olguin Mesa", "latitude": 36.8339027, "longitude": -106.2630823, "elevation": 3183.0, "source": "osm", "_tags": {"ele": "3183", "gnis:feature_id": "909351", "name": "Olguin Mesa", "natural": "peak", "wikidata": "Q49058564"}}, {"name": "Petaca Mesa", "latitude": 36.5158518, "longitude": -105.9947401, "elevation": 2464.0, "source": "osm", "_tags": {"ele": "2464", "gnis:feature_id": "909585", "name": "Petaca Mesa", "natural": "peak", "wikidata": "Q49060784"}}, {"name": "Petaca Peak", "latitude": 36.5158519, "longitude": -105.9864066, "elevation": 2588.0, "source": "osm", "_tags": {"ele": "2588", "gnis:feature_id": "909586", "name": "Petaca Peak", "natural": "peak", "wikidata": "Q49060787"}}, {"name": "Pinabetal Mesa", "latitude": 36.9402919, "longitude": -106.0872444, "elevation": 2602.0, "source": "osm", "_tags": {"ele": "2602", "gnis:feature_id": "909643", "name": "Pinabetal Mesa", "natural": "peak", "wikidata": "Q49061424"}}, {"name": "Pinabetoso Peaks", "latitude": 36.8894609, "longitude": -105.9402946, "elevation": 2533.0, "source": "osm", "_tags": {"ele": "2533", "gnis:feature_id": "909646", "name": "Pinabetoso Peaks", "natural": "peak", "wikidata": "Q49061428"}}, {"name": "Quartzite Peak", "latitude": 36.6286274, "longitude": -106.1772453, "elevation": 2994.0, "source": "osm", "_tags": {"ele": "2994", "gnis:feature_id": "909921", "name": "Quartzite Peak", "natural": "peak", "wikidata": "Q49066135"}}, {"name": "Red Hill", "latitude": 36.5719604, "longitude": -106.3750292, "elevation": 3097.0, "source": "osm", "_tags": {"ele": "3097", "gnis:feature_id": "910060", "name": "Red Hill", "natural": "peak", "wikidata": "Q49067389"}}, {"name": "Tusas Mountain", "latitude": 36.6505721, "longitude": -106.1452997, "elevation": 3090.0, "source": "osm", "_tags": {"ele": "3090", "gnis:feature_id": "911921", "name": "Tusas Mountain", "natural": "peak", "wikidata": "Q49085703"}}, {"name": "Valle Grande Peak", "latitude": 36.4333511, "longitude": -106.1716901, "elevation": 2624.0, "source": "osm", "_tags": {"ele": "2624", "gnis:feature_id": "912040", "name": "Valle Grande Peak", "natural": "peak", "wikidata": "Q49086812"}}, {"name": "Cerro Saragate", "latitude": 36.6416821, "longitude": -106.3561398, "elevation": 3230.0, "source": "osm", "_tags": {"ele": "3230", "gnis:feature_id": "912556", "name": "Cerro Saragate", "natural": "peak", "wikidata": "Q49019595"}}, {"name": "Red Mesa", "latitude": 36.5639071, "longitude": -106.0002954, "elevation": 2603.0, "source": "osm", "_tags": {"ele": "2603", "gnis:feature_id": "913089", "name": "Red Mesa", "natural": "peak", "wikidata": "Q49067563"}}, {"name": "Brazos Peak", "latitude": 36.8086247, "longitude": -106.3822522, "elevation": 3440.0, "source": "osm", "_tags": {"ele": "3440", "gnis:feature_id": "923570", "name": "Brazos Peak", "natural": "peak", "wikidata": "Q49015308"}}, {"name": "Canjilon Mountain", "latitude": 36.5683493, "longitude": -106.3516952, "elevation": 3326.0, "source": "osm", "_tags": {"ele": "3326", "gnis:feature_id": "928701", "name": "Canjilon Mountain", "natural": "peak", "wikidata": "Q5032496"}}, {"name": "Cerro Negro", "latitude": 36.3069646, "longitude": -106.0922449, "elevation": 2136.0, "source": "osm", "_tags": {"ele": "2136", "gnis:feature_id": "928707", "name": "Cerro Negro", "natural": "peak", "wikidata": "Q49019516"}}, {"name": "San Antonio Mountain", "latitude": 36.8597379, "longitude": -106.0189076, "elevation": 3326.0, "source": "osm", "_tags": {"ele": "3326", "gnis:feature_id": "928799", "name": "San Antonio Mountain", "natural": "peak", "wikidata": "Q15274746", "wikipedia": "en:San Antonio Mountain (New Mexico)"}}, {"name": "Tres Orejas", "latitude": 36.4175214, "longitude": -105.8097377, "elevation": 2422.0, "source": "osm", "_tags": {"ele": "2422", "gnis:feature_id": "928828", "name": "Tres Orejas", "natural": "peak", "wikidata": "Q49084755"}}, {"name": "Banco Julian", "latitude": 36.8789025, "longitude": -106.2178035, "elevation": 3174.0, "source": "osm", "_tags": {"ele": "3174", "gnis:feature_id": "933065", "name": "Banco Julian", "natural": "peak", "wikidata": "Q49010601"}}, {"name": "Red Hill", "latitude": 36.7741834, "longitude": -106.0177953, "elevation": 2678.0, "source": "osm", "_tags": {"ele": "2678", "gnis:feature_id": "933089", "name": "Red Hill", "natural": "peak", "wikidata": "Q49067392"}}, {"name": "Toltec Mesa", "latitude": 36.971123, "longitude": -106.3269741, "elevation": 3197.0, "source": "osm", "_tags": {"ele": "3197", "gnis:feature_id": "1766219", "name": "Toltec Mesa", "natural": "peak", "wikidata": "Q49084191"}}, {"name": "Black Mountain", "latitude": 37.1750075, "longitude": -106.418922, "elevation": 3417.0, "source": "osm", "_tags": {"ele": "3417", "gnis:feature_id": "190809", "name": "Black Mountain", "natural": "peak"}}, {"name": "Flat Top", "latitude": 37.1602869, "longitude": -106.1814171, "elevation": 2791.0, "source": "osm", "_tags": {"ele": "2791", "gnis:feature_id": "190835", "name": "Flat Top", "natural": "peak"}}, {"name": "Neff Mountain", "latitude": 37.0297326, "longitude": -106.4389215, "elevation": 3318.0, "source": "osm", "_tags": {"ele": "3318", "gnis:feature_id": "190849", "name": "Neff Mountain", "natural": "peak"}}, {"name": "Jarosa Peak", "latitude": 37.0700095, "longitude": -106.4608667, "elevation": 3587.0, "source": "osm", "_tags": {"ele": "3587", "gnis:feature_id": "190855", "name": "Jarosa Peak", "natural": "peak"}}, {"name": "Osier Mountain", "latitude": 37.0214, "longitude": -106.3197522, "elevation": 3272.0, "source": "osm", "_tags": {"ele": "3272", "gnis:feature_id": "190882", "name": "Osier Mountain", "natural": "peak"}}, {"name": "McIntyre Peak", "latitude": 37.11862, "longitude": -106.3516983, "elevation": 3208.0, "source": "osm", "_tags": {"ele": "3208", "gnis:feature_id": "190891", "name": "McIntyre Peak", "natural": "peak"}}, {"name": "Los Mogotes", "latitude": 37.0775109, "longitude": -106.172249, "elevation": 2991.0, "source": "osm", "_tags": {"ele": "2991", "gnis:feature_id": "190904", "name": "Los Mogotes", "natural": "peak"}}, {"name": "Chama Peak", "latitude": 37.0402884, "longitude": -106.6289238, "elevation": 3662.0, "source": "osm", "_tags": {"ele": "3662", "gnis:feature_id": "191050", "name": "Chama Peak", "natural": "peak"}}, {"name": "Banded Peak", "latitude": 37.1044538, "longitude": -106.6269793, "elevation": 3892.0, "source": "osm", "_tags": {"ele": "3892", "gnis:feature_id": "191068", "name": "Banded Peak", "natural": "peak"}}, {"name": "Sierro del Ojito", "latitude": 37.2841765, "longitude": -105.790297, "elevation": 2475.0, "source": "osm", "_tags": {"ele": "2475", "gnis:feature_id": "192920", "name": "Sierro del Ojito", "natural": "peak"}}, {"name": "Saddleback Mountain", "latitude": 37.265843, "longitude": -105.8414093, "elevation": 2425.0, "source": "osm", "_tags": {"ele": "2425", "gnis:feature_id": "192922", "name": "Saddleback Mountain", "natural": "peak"}}, {"name": "Flat Top", "latitude": 37.2125115, "longitude": -105.8080746, "elevation": 2807.0, "source": "osm", "_tags": {"ele": "2807", "gnis:feature_id": "193007", "name": "Flat Top", "natural": "peak"}}, {"name": "Brownie Hills", "latitude": 37.2158456, "longitude": -105.7130725, "elevation": 2421.0, "source": "osm", "_tags": {"ele": "2421", "gnis:feature_id": "193013", "name": "Brownie Hills", "natural": "peak"}}, {"name": "Sugar Loaf", "latitude": 37.194735, "longitude": -105.7414061, "elevation": 2399.0, "source": "osm", "_tags": {"ele": "2399", "gnis:feature_id": "193017", "name": "Sugar Loaf", "natural": "peak"}}, {"name": "Kiowa Hill", "latitude": 37.0883485, "longitude": -105.8039061, "elevation": 2389.0, "source": "osm", "_tags": {"ele": "2389", "gnis:feature_id": "193100", "name": "Kiowa Hill", "natural": "peak"}}, {"name": "Alamaditas Mesa", "latitude": 37.1380644, "longitude": -106.2880863, "elevation": 2985.0, "source": "osm", "_tags": {"ele": "2985", "gnis:feature_id": "203491", "name": "Alamaditas Mesa", "natural": "peak"}}, {"name": "Pinorealosa Mountain", "latitude": 37.0602878, "longitude": -106.3766982, "elevation": 3343.0, "source": "osm", "_tags": {"ele": "3343", "gnis:feature_id": "203499", "name": "Pinorealosa Mountain", "natural": "peak"}}, {"name": "Fairy Hills", "latitude": 37.2100122, "longitude": -105.7475175, "elevation": 2380.0, "source": "osm", "_tags": {"ele": "2380", "gnis:feature_id": "203654", "name": "Fairy Hills", "natural": "peak"}}, {"name": "South Pinon Hills", "latitude": 37.0555711, "longitude": -105.8422399, "elevation": 2473.0, "source": "osm", "_tags": {"ele": "2473", "gnis:feature_id": "203665", "name": "South Pinon Hills", "natural": "peak"}}, {"name": "", "latitude": 37.1385956, "longitude": -106.5973377, "elevation": 3713.0, "source": "osm", "_tags": {"ele": "3713", "natural": "peak", "source": "USGS Topo map"}}, {"name": "", "latitude": 37.1467203, "longitude": -106.5906644, "elevation": 3760.0, "source": "osm", "_tags": {"ele": "3760", "natural": "peak", "source": "USGS Topo map"}}, {"name": "", "latitude": 37.1747481, "longitude": -106.5939903, "elevation": 3771.0, "source": "osm", "_tags": {"ele": "3771", "natural": "peak", "source": "USGS Topo map"}}, {"name": "", "latitude": 37.1867666, "longitude": -106.5904498, "elevation": 3732.0, "source": "osm", "_tags": {"ele": "3732", "natural": "peak", "source": "USGS Topo map"}}, {"name": "", "latitude": 37.221448, "longitude": -106.6053307, "elevation": 3597.0, "source": "osm", "_tags": {"ele": "3597", "natural": "peak", "source": "USGS Topo map"}}, {"name": "Island Rock", "latitude": 37.1113395, "longitude": -105.8651681, "elevation": 2443.0, "source": "osm", "_tags": {"ele": "2443", "gnis:feature_id": "2771903", "name": "Island Rock", "natural": "peak"}}, {"name": "Kitchen Mesa", "latitude": 36.3350047, "longitude": -106.4634835, "elevation": null, "source": "osm", "_tags": {"name": "Kitchen Mesa", "natural": "peak"}}, {"name": "Osier Mesa", "latitude": 36.9813804, "longitude": -106.3967198, "elevation": null, "source": "osm", "_tags": {"gnis:feature_id": "2678510", "name": "Osier Mesa", "natural": "peak"}}, {"name": "", "latitude": 37.1535349, "longitude": -105.9155582, "elevation": 2468.0, "source": "osm", "_tags": {"ele": "2468", "ele:ft": "8098", "natural": "peak"}}]