[{"name": "Kincaid Mounds", "latitude": 37.0817236, "longitude": -88.4928213, "elevation": 109.0, "source": "osm", "_tags": {"ele": "109", "gnis:feature_id": "411478", "name": "Kincaid Mounds", "natural": "peak"}}, {"name": "The Mound", "latitude": 36.390331, "longitude": -87.8153013, "elevation": 215.0, "source": "osm", "_tags": {"ele": "215", "gnis:feature_id": "1272413", "name": "The Mound", "natural": "peak", "wikidata": "Q31681037"}}, {"name": "Vinegar Hill", "latitude": 36.4692179, "longitude": -87.7875215, "elevation": 166.0, "source": "osm", "_tags": {"ele": "166", "gnis:feature_id": "1273467", "name": "Vinegar Hill", "natural": "peak", "wikidata": "Q31690593"}}, {"name": "Bomar Hill", "latitude": 36.3567212, "longitude": -87.9589191, "elevation": 182.0, "source": "osm", "_tags": {"ele": "182", "gnis:feature_id": "1277921", "name": "Bomar Hill", "natural": "peak", "wikidata": "Q31663394"}}, {"name": "Hickman Creek Hill", "latitude": 36.479219, "longitude": -87.9272492, "elevation": 189.0, "source": "osm", "_tags": {"ele": "189", "gnis:feature_id": "1287558", "name": "Hickman Creek Hill", "natural": "peak", "wikidata": "Q31673636"}}, {"name": "Mulberry Hill", "latitude": 36.4436644, "longitude": -87.982252, "elevation": 184.0, "source": "osm", "_tags": {"ele": "184", "gnis:feature_id": "1295062", "name": "Mulberry Hill", "natural": "peak", "wikidata": "Q31681087"}}, {"name": "Nero Hill", "latitude": 36.409776, "longitude": -87.9750301, "elevation": 191.0, "source": "osm", "_tags": {"ele": "191", "gnis:feature_id": "1295395", "name": "Nero Hill", "natural": "peak", "wikidata": "Q31681430"}}, {"name": "Pulley Hill", "latitude": 36.4247749, "longitude": -87.8461355, "elevation": 197.0, "source": "osm", "_tags": {"ele": "197", "gnis:feature_id": "1298663", "name": "Pulley Hill", "natural": "peak", "wikidata": "Q31684722"}}, {"name": "Redbank Hill", "latitude": 36.3492211, "longitude": -87.8972498, "elevation": 196.0, "source": "osm", "_tags": {"ele": "196", "gnis:feature_id": "1299088", "name": "Redbank Hill", "natural": "peak", "wikidata": "Q31685388"}}, {"name": "Round Top", "latitude": 36.6006076, "longitude": -87.9694712, "elevation": 188.0, "source": "osm", "_tags": {"ele": "188", "gnis:feature_id": "1308955", "name": "Round Top", "natural": "peak", "wikidata": "Q31686566"}}, {"name": "Owens Hill", "latitude": 36.4331107, "longitude": -88.1619808, "elevation": 169.0, "source": "osm", "_tags": {"ele": "169", "gnis:feature_id": "1310791", "name": "Owens Hill", "natural": "peak", "wikidata": "Q31681926"}}, {"name": "Robinson Hill", "latitude": 36.5344951, "longitude": -87.8261334, "elevation": 180.0, "source": "osm", "_tags": {"ele": "180", "gnis:feature_id": "1647101", "name": "Robinson Hill", "natural": "peak", "wikidata": "Q31685894"}}, {"name": "Asher Hill", "latitude": 37.2167168, "longitude": -87.9533499, "elevation": 190.0, "source": "osm", "_tags": {"ele": "190", "gnis:feature_id": "486087", "name": "Asher Hill", "natural": "peak"}}, {"name": "Bald Knob", "latitude": 36.8247746, "longitude": -88.0297474, "elevation": 167.0, "source": "osm", "_tags": {"ele": "167", "gnis:feature_id": "486263", "name": "Bald Knob", "natural": "peak"}}, {"name": "Bald Knob", "latitude": 37.0725481, "longitude": -87.7886229, "elevation": 233.0, "source": "osm", "_tags": {"ele": "233", "gnis:feature_id": "486265", "name": "Bald Knob", "natural": "peak"}}, {"name": "Bald Knob", "latitude": 37.1603328, "longitude": -88.3428129, "elevation": 175.0, "source": "osm", "_tags": {"ele": "175", "gnis:feature_id": "486268", "name": "Bald Knob", "natural": "peak"}}, {"name": "Bald Knob", "latitude": 37.216159, "longitude": -87.8308455, "elevation": 182.0, "source": "osm", "_tags": {"ele": "182", "gnis:feature_id": "486269", "name": "Bald Knob", "natural": "peak"}}, {"name": "Barricks Hill", "latitude": 37.1300549, "longitude": -88.2758651, "elevation": 132.0, "source": "osm", "_tags": {"ele": "132", "gnis:feature_id": "486442", "name": "Barricks Hill", "natural": "peak"}}, {"name": "Bright Hill", "latitude": 37.155328, "longitude": -87.9347388, "elevation": 201.0, "source": "osm", "_tags": {"ele": "201", "gnis:feature_id": "487911", "name": "Bright Hill", "natural": "peak"}}, {"name": "Brown Hill", "latitude": 37.1933832, "longitude": -87.9355718, "elevation": 185.0, "source": "osm", "_tags": {"ele": "185", "gnis:feature_id": "488003", "name": "Brown Hill", "natural": "peak"}}, {"name": "Buffalo Hill", "latitude": 37.1836609, "longitude": -87.9269604, "elevation": 155.0, "source": "osm", "_tags": {"ele": "155", "gnis:feature_id": "488325", "name": "Buffalo Hill", "natural": "peak"}}, {"name": "Buffalo Knob", "latitude": 36.9208808, "longitude": -87.6958445, "elevation": 217.0, "source": "osm", "_tags": {"ele": "217", "gnis:feature_id": "488330", "name": "Buffalo Knob", "natural": "peak"}}, {"name": "Buzzard Rock", "latitude": 37.0375539, "longitude": -88.1405818, "elevation": 133.0, "source": "osm", "_tags": {"ele": "133", "gnis:feature_id": "488540", "name": "Buzzard Rock", "natural": "peak"}}, {"name": "Buzzard Roost", "latitude": 36.6589429, "longitude": -88.1591992, "elevation": 138.0, "source": "osm", "_tags": {"ele": "138", "gnis:feature_id": "488547", "name": "Buzzard Roost", "natural": "peak"}}, {"name": "Carner Hill", "latitude": 37.1581052, "longitude": -87.9055711, "elevation": 211.0, "source": "osm", "_tags": {"ele": "211", "gnis:feature_id": "488948", "name": "Carner Hill", "natural": "peak"}}, {"name": "Carter Hill", "latitude": 37.1531036, "longitude": -87.8169566, "elevation": 172.0, "source": "osm", "_tags": {"ele": "172", "gnis:feature_id": "489008", "name": "Carter Hill", "natural": "peak"}}, {"name": "Cedar Hill", "latitude": 37.1872716, "longitude": -87.9016817, "elevation": 166.0, "source": "osm", "_tags": {"ele": "166", "gnis:feature_id": "489215", "name": "Cedar Hill", "natural": "peak"}}, {"name": "Cemetery Hill", "latitude": 37.1292224, "longitude": -88.400316, "elevation": 129.0, "source": "osm", "_tags": {"ele": "129", "gnis:feature_id": "489257", "name": "Cemetery Hill", "natural": "peak"}}, {"name": "Chestnut Hill", "latitude": 36.8003329, "longitude": -88.2805903, "elevation": 129.0, "source": "osm", "_tags": {"ele": "129", "gnis:feature_id": "489448", "name": "Chestnut Hill", "natural": "peak"}}, {"name": "Cliff Hill", "latitude": 37.2422718, "longitude": -87.9330712, "elevation": 168.0, "source": "osm", "_tags": {"ele": "168", "gnis:feature_id": "489668", "name": "Cliff Hill", "natural": "peak"}}, {"name": "Coats Hill", "latitude": 37.2128241, "longitude": -87.7447313, "elevation": 166.0, "source": "osm", "_tags": {"ele": "166", "gnis:feature_id": "489745", "name": "Coats Hill", "natural": "peak"}}, {"name": "Coolers Knob", "latitude": 37.2853261, "longitude": -87.8872369, "elevation": 207.0, "source": "osm", "_tags": {"ele": "207", "gnis:feature_id": "490022", "name": "Coolers Knob", "natural": "peak"}}, {"name": "Cottonpatch Hill", "latitude": 37.1950479, "longitude": -87.8247343, "elevation": 204.0, "source": "osm", "_tags": {"ele": "204", "gnis:feature_id": "490150", "name": "Cottonpatch Hill", "natural": "peak"}}, {"name": "Crayne Knob", "latitude": 37.2623825, "longitude": -88.0783962, "elevation": 240.0, "source": "osm", "_tags": {"ele": "240", "gnis:feature_id": "490313", "name": "Crayne Knob", "natural": "peak"}}, {"name": "Creekmur Hill", "latitude": 37.2433799, "longitude": -87.7716765, "elevation": 159.0, "source": "osm", "_tags": {"ele": "159", "gnis:feature_id": "490320", "name": "Creekmur Hill", "natural": "peak"}}, {"name": "Danner Hill", "latitude": 36.7856114, "longitude": -88.4028176, "elevation": 158.0, "source": "osm", "_tags": {"ele": "158", "gnis:feature_id": "490582", "name": "Danner Hill", "natural": "peak"}}, {"name": "Dunlap Hill", "latitude": 37.1753326, "longitude": -88.3289232, "elevation": 146.0, "source": "osm", "_tags": {"ele": "146", "gnis:feature_id": "491317", "name": "Dunlap Hill", "natural": "peak"}}, {"name": "Dunning Hill", "latitude": 37.041159, "longitude": -87.7644556, "elevation": 209.0, "source": "osm", "_tags": {"ele": "209", "gnis:feature_id": "491336", "name": "Dunning Hill", "natural": "peak"}}, {"name": "Dyer Hill", "latitude": 37.2239435, "longitude": -88.3789254, "elevation": 183.0, "source": "osm", "_tags": {"ele": "183", "gnis:feature_id": "491388", "name": "Dyer Hill", "natural": "peak"}}, {"name": "Eberle Knobs", "latitude": 37.2750534, "longitude": -88.2311407, "elevation": 204.0, "source": "osm", "_tags": {"ele": "204", "gnis:feature_id": "491543", "name": "Eberle Knobs", "natural": "peak"}}, {"name": "Farmer Knob", "latitude": 37.1617171, "longitude": -87.9530728, "elevation": 193.0, "source": "osm", "_tags": {"ele": "193", "gnis:feature_id": "491987", "name": "Farmer Knob", "natural": "peak"}}, {"name": "Felker Hill", "latitude": 37.265328, "longitude": -87.9775175, "elevation": 212.0, "source": "osm", "_tags": {"ele": "212", "gnis:feature_id": "492021", "name": "Felker Hill", "natural": "peak"}}, {"name": "Flat Knob", "latitude": 37.1131024, "longitude": -87.7222313, "elevation": 223.0, "source": "osm", "_tags": {"ele": "223", "gnis:feature_id": "492196", "name": "Flat Knob", "natural": "peak"}}, {"name": "Frozen Knob", "latitude": 37.1664439, "longitude": -88.3567024, "elevation": 166.0, "source": "osm", "_tags": {"ele": "166", "gnis:feature_id": "492585", "name": "Frozen Knob", "natural": "peak"}}, {"name": "Gordon Hill", "latitude": 36.7583857, "longitude": -88.0322486, "elevation": 185.0, "source": "osm", "_tags": {"ele": "185", "gnis:feature_id": "493029", "name": "Gordon Hill", "natural": "peak"}}, {"name": "Gravel Hill", "latitude": 37.1578328, "longitude": -88.3444796, "elevation": 180.0, "source": "osm", "_tags": {"ele": "180", "gnis:feature_id": "493178", "name": "Gravel Hill", "natural": "peak"}}, {"name": "Green Berry Hill", "latitude": 37.2772695, "longitude": -87.8272345, "elevation": 160.0, "source": "osm", "_tags": {"ele": "160", "gnis:feature_id": "493252", "name": "Green Berry Hill", "natural": "peak"}}, {"name": "Green Hill", "latitude": 37.2167158, "longitude": -87.8989035, "elevation": 169.0, "source": "osm", "_tags": {"ele": "169", "gnis:feature_id": "493272", "name": "Green Hill", "natural": "peak"}}, {"name": "Hallaway Hill", "latitude": 37.0403293, "longitude": -87.9733526, "elevation": 144.0, "source": "osm", "_tags": {"ele": "144", "gnis:feature_id": "493596", "name": "Hallaway Hill", "natural": "peak"}}, {"name": "Hampton Hill", "latitude": 37.1567218, "longitude": -88.358647, "elevation": 138.0, "source": "osm", "_tags": {"ele": "138", "gnis:feature_id": "493658", "name": "Hampton Hill", "natural": "peak"}}, {"name": "Harris Hill", "latitude": 37.1631104, "longitude": -88.3147558, "elevation": 138.0, "source": "osm", "_tags": {"ele": "138", "gnis:feature_id": "493809", "name": "Harris Hill", "natural": "peak"}}, {"name": "Haw Hill", "latitude": 37.1806104, "longitude": -88.3322566, "elevation": 154.0, "source": "osm", "_tags": {"ele": "154", "gnis:feature_id": "493876", "name": "Haw Hill", "natural": "peak"}}, {"name": "Holeman Hill", "latitude": 37.2133817, "longitude": -87.8586243, "elevation": 159.0, "source": "osm", "_tags": {"ele": "159", "gnis:feature_id": "494386", "name": "Holeman Hill", "natural": "peak"}}, {"name": "Hopewell Hill", "latitude": 37.043385, "longitude": -87.9841864, "elevation": 137.0, "source": "osm", "_tags": {"ele": "137", "gnis:feature_id": "494539", "name": "Hopewell Hill", "natural": "peak"}}, {"name": "Iron Hill", "latitude": 37.0386653, "longitude": -88.1630827, "elevation": 159.0, "source": "osm", "_tags": {"ele": "159", "gnis:feature_id": "495006", "name": "Iron Hill", "natural": "peak"}}, {"name": "Jackson Hill", "latitude": 37.2111588, "longitude": -87.8216786, "elevation": 204.0, "source": "osm", "_tags": {"ele": "204", "gnis:feature_id": "495124", "name": "Jackson Hill", "natural": "peak"}}, {"name": "Jackson Knob", "latitude": 37.2517184, "longitude": -88.0766883, "elevation": 248.0, "source": "osm", "_tags": {"ele": "248", "gnis:feature_id": "495128", "name": "Jackson Knob", "natural": "peak"}}, {"name": "Jameison Hill", "latitude": 37.2264435, "longitude": -88.3997596, "elevation": 184.0, "source": "osm", "_tags": {"ele": "184", "gnis:feature_id": "495155", "name": "Jameison Hill", "natural": "peak"}}, {"name": "Japanese Hill", "latitude": 37.1800551, "longitude": -88.3905929, "elevation": 155.0, "source": "osm", "_tags": {"ele": "155", "gnis:feature_id": "495170", "name": "Japanese Hill", "natural": "peak"}}, {"name": "Jewel Hill", "latitude": 37.1358884, "longitude": -88.3244787, "elevation": 130.0, "source": "osm", "_tags": {"ele": "130", "gnis:feature_id": "495258", "name": "Jewel Hill", "natural": "peak"}}, {"name": "Kibbler Hill", "latitude": 37.1775547, "longitude": -88.3125334, "elevation": 135.0, "source": "osm", "_tags": {"ele": "135", "gnis:feature_id": "495715", "name": "Kibbler Hill", "natural": "peak"}}, {"name": "Kirk Knobs", "latitude": 37.2853308, "longitude": -88.2103066, "elevation": 205.0, "source": "osm", "_tags": {"ele": "205", "gnis:feature_id": "495796", "name": "Kirk Knobs", "natural": "peak"}}, {"name": "Leech Hill", "latitude": 37.2428272, "longitude": -87.9250153, "elevation": 164.0, "source": "osm", "_tags": {"ele": "164", "gnis:feature_id": "496175", "name": "Leech Hill", "natural": "peak"}}, {"name": "Leeper Hill", "latitude": 37.1511659, "longitude": -88.2814209, "elevation": 126.0, "source": "osm", "_tags": {"ele": "126", "gnis:feature_id": "496178", "name": "Leeper Hill", "natural": "peak"}}, {"name": "Lewis Hill", "latitude": 37.2069993, "longitude": -88.4114271, "elevation": 176.0, "source": "osm", "_tags": {"ele": "176", "gnis:feature_id": "496332", "name": "Lewis Hill", "natural": "peak"}}, {"name": "McChesney Hill", "latitude": 37.2253275, "longitude": -87.936127, "elevation": 167.0, "source": "osm", "_tags": {"ele": "167", "gnis:feature_id": "497780", "name": "McChesney Hill", "natural": "peak"}}, {"name": "Mockingbird Hill", "latitude": 37.1378278, "longitude": -87.9227941, "elevation": 188.0, "source": "osm", "_tags": {"ele": "188", "gnis:feature_id": "498466", "name": "Mockingbird Hill", "natural": "peak"}}, {"name": "Montgomery Hill", "latitude": 37.2131055, "longitude": -87.9380717, "elevation": 188.0, "source": "osm", "_tags": {"ele": "188", "gnis:feature_id": "498513", "name": "Montgomery Hill", "natural": "peak"}}, {"name": "Moore Hill", "latitude": 37.2364399, "longitude": -88.0061294, "elevation": 211.0, "source": "osm", "_tags": {"ele": "211", "gnis:feature_id": "498555", "name": "Moore Hill", "natural": "peak"}}, {"name": "Morse Hill", "latitude": 37.1994933, "longitude": -87.8819586, "elevation": 175.0, "source": "osm", "_tags": {"ele": "175", "gnis:feature_id": "498638", "name": "Morse Hill", "natural": "peak"}}, {"name": "Nelson Hill", "latitude": 37.1928289, "longitude": -87.9986296, "elevation": 232.0, "source": "osm", "_tags": {"ele": "232", "gnis:feature_id": "499257", "name": "Nelson Hill", "natural": "peak"}}, {"name": "Nimmo Hill", "latitude": 36.7778328, "longitude": -88.2803127, "elevation": 136.0, "source": "osm", "_tags": {"ele": "136", "gnis:feature_id": "499484", "name": "Nimmo Hill", "natural": "peak"}}, {"name": "Orange Hill", "latitude": 37.1528244, "longitude": -87.7225087, "elevation": 191.0, "source": "osm", "_tags": {"ele": "191", "gnis:feature_id": "499969", "name": "Orange Hill", "natural": "peak"}}, {"name": "Peach Orchard Hill", "latitude": 37.1897718, "longitude": -87.9152933, "elevation": 191.0, "source": "osm", "_tags": {"ele": "191", "gnis:feature_id": "500319", "name": "Peach Orchard Hill", "natural": "peak"}}, {"name": "Pine Knob", "latitude": 37.1206021, "longitude": -87.696397, "elevation": 174.0, "source": "osm", "_tags": {"ele": "174", "gnis:feature_id": "500699", "name": "Pine Knob", "natural": "peak"}}, {"name": "Poe Hill", "latitude": 37.2678243, "longitude": -87.7816772, "elevation": 141.0, "source": "osm", "_tags": {"ele": "141", "gnis:feature_id": "500987", "name": "Poe Hill", "natural": "peak"}}, {"name": "Potato Hill", "latitude": 36.8242234, "longitude": -88.4886545, "elevation": 144.0, "source": "osm", "_tags": {"ele": "144", "gnis:feature_id": "501178", "name": "Potato Hill", "natural": "peak"}}, {"name": "Randle Hill", "latitude": 37.2242214, "longitude": -88.4236497, "elevation": 180.0, "source": "osm", "_tags": {"ele": "180", "gnis:feature_id": "501566", "name": "Randle Hill", "natural": "peak"}}, {"name": "Rattlesnake Hill", "latitude": 37.2469929, "longitude": -87.8780692, "elevation": 189.0, "source": "osm", "_tags": {"ele": "189", "gnis:feature_id": "501596", "name": "Rattlesnake Hill", "natural": "peak"}}, {"name": "Riley Hill", "latitude": 37.2417174, "longitude": -87.9927955, "elevation": 188.0, "source": "osm", "_tags": {"ele": "188", "gnis:feature_id": "501958", "name": "Riley Hill", "natural": "peak"}}, {"name": "Shaw Hill", "latitude": 37.1772773, "longitude": -88.3922596, "elevation": 152.0, "source": "osm", "_tags": {"ele": "152", "gnis:feature_id": "503278", "name": "Shaw Hill", "natural": "peak"}}, {"name": "Sheridan Hill", "latitude": 37.1683832, "longitude": -87.9230716, "elevation": 192.0, "source": "osm", "_tags": {"ele": "192", "gnis:feature_id": "503355", "name": "Sheridan Hill", "natural": "peak"}}, {"name": "Sigler Hill", "latitude": 37.2294933, "longitude": -87.8939032, "elevation": 143.0, "source": "osm", "_tags": {"ele": "143", "gnis:feature_id": "503489", "name": "Sigler Hill", "natural": "peak"}}, {"name": "Sinkhole Hill", "latitude": 36.8211668, "longitude": -88.3497596, "elevation": 153.0, "source": "osm", "_tags": {"ele": "153", "gnis:feature_id": "503556", "name": "Sinkhole Hill", "natural": "peak"}}, {"name": "Stillhouse Hill", "latitude": 36.7867224, "longitude": -88.3855947, "elevation": 156.0, "source": "osm", "_tags": {"ele": "156", "gnis:feature_id": "504413", "name": "Stillhouse Hill", "natural": "peak"}}, {"name": "Surrett Hill", "latitude": 36.9353353, "longitude": -88.512267, "elevation": 119.0, "source": "osm", "_tags": {"ele": "119", "gnis:feature_id": "504812", "name": "Surrett Hill", "natural": "peak"}}, {"name": "The Knob", "latitude": 37.1858841, "longitude": -87.9794623, "elevation": 205.0, "source": "osm", "_tags": {"ele": "205", "gnis:feature_id": "505124", "name": "The Knob", "natural": "peak"}}, {"name": "The Knob", "latitude": 37.1858845, "longitude": -88.0019631, "elevation": 216.0, "source": "osm", "_tags": {"ele": "216", "gnis:feature_id": "505125", "name": "The Knob", "natural": "peak"}}, {"name": "Trayler Riley Hill", "latitude": 37.230327, "longitude": -87.9105705, "elevation": 168.0, "source": "osm", "_tags": {"ele": "168", "gnis:feature_id": "505481", "name": "Trayler Riley Hill", "natural": "peak"}}, {"name": "Trice Hill", "latitude": 37.1233881, "longitude": -88.2539196, "elevation": 141.0, "source": "osm", "_tags": {"ele": "141", "gnis:feature_id": "505494", "name": "Trice Hill", "natural": "peak"}}, {"name": "Vick Hill", "latitude": 37.1819992, "longitude": -88.3467018, "elevation": 145.0, "source": "osm", "_tags": {"ele": "145", "gnis:feature_id": "506036", "name": "Vick Hill", "natural": "peak"}}, {"name": "Waller Hill", "latitude": 36.853112, "longitude": -88.4255962, "elevation": 143.0, "source": "osm", "_tags": {"ele": "143", "gnis:feature_id": "506151", "name": "Waller Hill", "natural": "peak"}}, {"name": "Walnut Hill", "latitude": 37.2869924, "longitude": -87.8702919, "elevation": 200.0, "source": "osm", "_tags": {"ele": "200", "gnis:feature_id": "506182", "name": "Walnut Hill", "natural": "peak"}}, {"name": "Walnut Tree Hill", "latitude": 37.2475468, "longitude": -87.7852881, "elevation": 142.0, "source": "osm", "_tags": {"ele": "142", "gnis:feature_id": "506191", "name": "Walnut Tree Hill", "natural": "peak"}}, {"name": "Cochran Hill", "latitude": 37.2794959, "longitude": -88.0864117, "elevation": 223.0, "source": "osm", "_tags": {"ele": "223", "gnis:feature_id": "507349", "name": "Cochran Hill", "natural": "peak"}}, {"name": "Devil's Pulpit", "latitude": 36.5595123, "longitude": -88.1714129, "elevation": 150.0, "source": "osm", "_tags": {"ele": "150", "name": "Devil's Pulpit", "natural": "peak", "source": "http://www.explorekentuckylake.com/explorations/devilspulpit.htm", "website": "https://www.explorekentuckylake.com/explorations/devilspulpit.htm"}}, {"name": "Twin Knobs", "latitude": 37.2648397, "longitude": -88.0729779, "elevation": null, "source": "osm", "_tags": {"gnis:feature_id": "505714", "name": "Twin Knobs", "natural": "peak"}}]