[{"name": "Burner Hill", "latitude": 37.2856055, "longitude": -89.2811936, "elevation": 171.0, "source": "osm", "_tags": {"ele": "171", "gnis:feature_id": "405235", "name": "Burner Hill", "natural": "peak"}}, {"name": "Round Knob", "latitude": 37.2231097, "longitude": -88.7281094, "elevation": 148.0, "source": "osm", "_tags": {"ele": "148", "gnis:feature_id": "416987", "name": "Round Knob", "natural": "peak"}}, {"name": "Rattlesnake Hill", "latitude": 37.2842166, "longitude": -89.239803, "elevation": 134.0, "source": "osm", "_tags": {"ele": "134", "gnis:feature_id": "416409", "name": "Rattlesnake Hill", "natural": "peak"}}, {"name": "Santa Fe Hills", "latitude": 37.1800503, "longitude": -89.4203625, "elevation": 177.0, "source": "osm", "_tags": {"ele": "177", "gnis:feature_id": "418012", "name": "Santa Fe Hills", "natural": "peak"}}, {"name": "Gilson Hills", "latitude": 37.1889391, "longitude": -89.3478603, "elevation": 143.0, "source": "osm", "_tags": {"ele": "143", "gnis:feature_id": "424920", "name": "Gilson Hills", "natural": "peak"}}, {"name": "Dogtooth Bend Mounds", "latitude": 37.0639392, "longitude": -89.3348004, "elevation": 102.0, "source": "osm", "_tags": {"ele": "102", "gnis:feature_id": "1808561", "name": "Dogtooth Bend Mounds", "natural": "peak"}}, {"name": "Fishgap Hill", "latitude": 36.4842299, "longitude": -89.2870146, "elevation": 154.0, "source": "osm", "_tags": {"ele": "154", "gnis:feature_id": "1284329", "name": "Fishgap Hill", "natural": "peak", "wikidata": "Q31670355"}}, {"name": "Logan Hill", "latitude": 36.4411748, "longitude": -89.1400669, "elevation": 154.0, "source": "osm", "_tags": {"ele": "154", "gnis:feature_id": "1291823", "name": "Logan Hill", "natural": "peak", "wikidata": "Q31678717"}}, {"name": "Mathis Hill", "latitude": 36.4583969, "longitude": -89.190068, "elevation": 119.0, "source": "osm", "_tags": {"ele": "119", "gnis:feature_id": "1292936", "name": "Mathis Hill", "natural": "peak", "wikidata": "Q31679729"}}, {"name": "Red Hill", "latitude": 36.30784, "longitude": -88.7161677, "elevation": 153.0, "source": "osm", "_tags": {"ele": "153", "gnis:feature_id": "1299055", "name": "Red Hill", "natural": "peak", "wikidata": "Q31685265"}}, {"name": "Bell Hill", "latitude": 37.1594955, "longitude": -89.6556444, "elevation": 144.0, "source": "osm", "_tags": {"ele": "144", "gnis:feature_id": "713911", "name": "Bell Hill", "natural": "peak"}}, {"name": "Cox Hill", "latitude": 37.1669956, "longitude": -89.6534224, "elevation": 167.0, "source": "osm", "_tags": {"ele": "167", "gnis:feature_id": "716431", "name": "Cox Hill", "natural": "peak"}}, {"name": "Jackson Hill", "latitude": 37.154217, "longitude": -89.4734187, "elevation": 181.0, "source": "osm", "_tags": {"ele": "181", "gnis:feature_id": "720215", "name": "Jackson Hill", "natural": "peak"}}, {"name": "Lost Hill", "latitude": 37.2119958, "longitude": -89.6203682, "elevation": 139.0, "source": "osm", "_tags": {"ele": "139", "gnis:feature_id": "721593", "name": "Lost Hill", "natural": "peak"}}, {"name": "Indian Mound", "latitude": 36.5720045, "longitude": -89.5884118, "elevation": 96.0, "source": "osm", "_tags": {"ele": "96", "gnis:feature_id": "730303", "name": "Indian Mound", "natural": "peak"}}, {"name": "Lone Rock", "latitude": 37.1298756, "longitude": -89.6746071, "elevation": 141.0, "source": "osm", "_tags": {"ele": "141", "gnis:feature_id": "731606", "name": "Lone Rock", "natural": "peak"}}, {"name": "Mount Tabor", "latitude": 37.279218, "longitude": -89.59037, "elevation": 142.0, "source": "osm", "_tags": {"ele": "142", "gnis:feature_id": "755332", "name": "Mount Tabor", "natural": "peak"}}, {"name": "Indian Mound", "latitude": 36.5758941, "longitude": -89.3197936, "elevation": 92.0, "source": "osm", "_tags": {"ele": "92", "gnis:feature_id": "494978", "name": "Indian Mound", "natural": "peak"}}, {"name": "Wilson Hill", "latitude": 36.5250622, "longitude": -89.2414581, "elevation": 143.0, "source": "osm", "_tags": {"ele": "143", "gnis:feature_id": "506909", "name": "Wilson Hill", "natural": "peak"}}, {"name": "Twin Mounds", "latitude": 37.0675516, "longitude": -89.1442387, "elevation": 99.0, "source": "osm", "_tags": {"ele": "99", "gnis:feature_id": "516081", "name": "Twin Mounds", "natural": "peak"}}]