[{"name": "Topaz Mountain", "latitude": 39.2849894, "longitude": -105.5816711, "elevation": 3584.0, "source": "osm", "_tags": {"ele": "3584", "gnis:feature_id": "183496", "name": "Topaz Mountain", "natural": "peak"}}, {"name": "Buffalo Peak", "latitude": 39.2755456, "longitude": -105.3680534, "elevation": 3526.0, "source": "osm", "_tags": {"ele": "3526", "gnis:feature_id": "183523", "name": "Buffalo Peak", "natural": "peak", "wikidata": "Q14684342"}}, {"name": "Campbell Mountain", "latitude": 39.2833236, "longitude": -105.1302674, "elevation": 2707.0, "source": "osm", "_tags": {"ele": "2707", "gnis:feature_id": "183539", "name": "Campbell Mountain", "natural": "peak"}}, {"name": "Skull Rock", "latitude": 39.2616569, "longitude": -105.2316605, "elevation": 2172.0, "source": "osm", "_tags": {"ele": "2172", "gnis:feature_id": "183545", "name": "Skull Rock", "natural": "peak"}}, {"name": "Devils Head", "latitude": 39.2602683, "longitude": -105.1010998, "elevation": 2936.0, "source": "osm", "_tags": {"ele": "2936", "gnis:feature_id": "183572", "name": "Devils Head", "natural": "peak", "wikidata": "Q5267408"}}, {"name": "Eagle Rock", "latitude": 39.2241562, "longitude": -105.6638963, "elevation": 2939.0, "source": "osm", "_tags": {"ele": "2939", "gnis:feature_id": "183638", "name": "Eagle Rock", "natural": "peak"}}, {"name": "Baker Mountain", "latitude": 39.2191561, "longitude": -105.6866748, "elevation": 2899.0, "source": "osm", "_tags": {"ele": "2899", "gnis:feature_id": "183646", "name": "Baker Mountain", "natural": "peak"}}, {"name": "Farnum Peak", "latitude": 39.1669349, "longitude": -105.560003, "elevation": 3466.0, "source": "osm", "_tags": {"ele": "3466", "gnis:feature_id": "183656", "name": "Farnum Peak", "natural": "peak"}}, {"name": "Sugarloaf Mountain", "latitude": 39.2286008, "longitude": -105.5894493, "elevation": 3023.0, "source": "osm", "_tags": {"ele": "3023", "gnis:feature_id": "183660", "name": "Sugarloaf Mountain", "natural": "peak"}}, {"name": "Bison Mountain", "latitude": 39.2380457, "longitude": -105.4980573, "elevation": 3777.0, "source": "osm", "_tags": {"ele": "3777", "gnis:feature_id": "183667", "name": "Bison Mountain", "natural": "peak", "wikidata": "Q4918375"}}, {"name": "Bradley Peak", "latitude": 39.1708239, "longitude": -105.4944454, "elevation": 2852.0, "source": "osm", "_tags": {"ele": "2852", "gnis:feature_id": "183671", "name": "Bradley Peak", "natural": "peak"}}, {"name": "South Tarryall Peak", "latitude": 39.1549908, "longitude": -105.4411104, "elevation": 3417.0, "source": "osm", "_tags": {"ele": "3417", "gnis:feature_id": "183674", "name": "South Tarryall Peak", "natural": "peak"}}, {"name": "McCurdy Mountain", "latitude": 39.2194347, "longitude": -105.468334, "elevation": 3702.0, "source": "osm", "_tags": {"ele": "3702", "gnis:feature_id": "183686", "name": "McCurdy Mountain", "natural": "peak", "wikidata": "Q6800799"}}, {"name": "Sheeprock", "latitude": 39.1652686, "longitude": -105.3305516, "elevation": 2653.0, "source": "osm", "_tags": {"ele": "2653", "gnis:feature_id": "183690", "name": "Sheeprock", "natural": "peak"}}, {"name": "Cheesman Mountain", "latitude": 39.234157, "longitude": -105.2705507, "elevation": 2391.0, "source": "osm", "_tags": {"ele": "2391", "gnis:feature_id": "183705", "name": "Cheesman Mountain", "natural": "peak"}}, {"name": "Thunder Butte", "latitude": 39.1716576, "longitude": -105.1974917, "elevation": 2991.0, "source": "osm", "_tags": {"ele": "2991", "gnis:feature_id": "183727", "name": "Thunder Butte", "natural": "peak"}}, {"name": "Sheep Nose", "latitude": 39.1411022, "longitude": -105.194158, "elevation": 2692.0, "source": "osm", "_tags": {"ele": "2692", "gnis:feature_id": "183730", "name": "Sheep Nose", "natural": "peak"}}, {"name": "Bell Rock", "latitude": 39.1572132, "longitude": -105.1744353, "elevation": 2472.0, "source": "osm", "_tags": {"ele": "2472", "gnis:feature_id": "183731", "name": "Bell Rock", "natural": "peak"}}, {"name": "Turtle Mountain", "latitude": 39.2133241, "longitude": -105.120267, "elevation": 2710.0, "source": "osm", "_tags": {"ele": "2710", "gnis:feature_id": "183741", "name": "Turtle Mountain", "natural": "peak"}}, {"name": "Dakan Mountain", "latitude": 39.2374908, "longitude": -105.0663762, "elevation": 2797.0, "source": "osm", "_tags": {"ele": "2797", "gnis:feature_id": "183742", "name": "Dakan Mountain", "natural": "peak"}}, {"name": "Chimney Peak", "latitude": 39.1324914, "longitude": -105.0038734, "elevation": 2763.0, "source": "osm", "_tags": {"ele": "2763", "gnis:feature_id": "183746", "name": "Chimney Peak", "natural": "peak"}}, {"name": "Sulphur Mountain", "latitude": 39.0330476, "longitude": -105.6416707, "elevation": 2844.0, "source": "osm", "_tags": {"ele": "2844", "gnis:feature_id": "183792", "name": "Sulphur Mountain", "natural": "peak"}}, {"name": "Badger Mountain", "latitude": 39.0488805, "longitude": -105.512778, "elevation": 3434.0, "source": "osm", "_tags": {"ele": "3434", "gnis:feature_id": "183805", "name": "Badger Mountain", "natural": "peak", "wikidata": "Q4840850"}}, {"name": "Pulver Mountain", "latitude": 39.011103, "longitude": -105.5172222, "elevation": 3206.0, "source": "osm", "_tags": {"ele": "3206", "gnis:feature_id": "183808", "name": "Pulver Mountain", "natural": "peak"}}, {"name": "Martlnad Peak", "latitude": 39.1008244, "longitude": -105.5741694, "elevation": 3438.0, "source": "osm", "_tags": {"ele": "3438", "gnis:feature_id": "183813", "name": "Martlnad Peak", "natural": "peak"}}, {"name": "Schoolmarm Mountain", "latitude": 39.1152688, "longitude": -105.5941703, "elevation": 3442.0, "source": "osm", "_tags": {"ele": "3442", "gnis:feature_id": "183816", "name": "Schoolmarm Mountain", "natural": "peak"}}, {"name": "Rishaberger Mountain", "latitude": 39.1049911, "longitude": -105.6122263, "elevation": 3121.0, "source": "osm", "_tags": {"ele": "3121", "gnis:feature_id": "183817", "name": "Rishaberger Mountain", "natural": "peak"}}, {"name": "Round Mountain", "latitude": 39.0411027, "longitude": -105.4477759, "elevation": 2752.0, "source": "osm", "_tags": {"ele": "2752", "gnis:feature_id": "183821", "name": "Round Mountain", "natural": "peak"}}, {"name": "Tappan Mountain", "latitude": 39.0733247, "longitude": -105.3911079, "elevation": 2724.0, "source": "osm", "_tags": {"ele": "2724", "gnis:feature_id": "183823", "name": "Tappan Mountain", "natural": "peak"}}, {"name": "Pilot Peak", "latitude": 39.11638, "longitude": -105.3936085, "elevation": 3229.0, "source": "osm", "_tags": {"ele": "3229", "gnis:feature_id": "183828", "name": "Pilot Peak", "natural": "peak"}}, {"name": "Cedar Mountain", "latitude": 39.1159346, "longitude": -105.2734249, "elevation": 2724.0, "source": "osm", "_tags": {"ele": "2724", "gnis:feature_id": "183839", "name": "Cedar Mountain", "natural": "peak"}}, {"name": "Hackett Mountain", "latitude": 39.0844357, "longitude": -105.2869382, "elevation": 2873.0, "source": "osm", "_tags": {"ele": "2873", "gnis:feature_id": "183840", "name": "Hackett Mountain", "natural": "peak"}}, {"name": "Signal Butte", "latitude": 39.0584819, "longitude": -105.2227869, "elevation": 2869.0, "source": "osm", "_tags": {"ele": "2869", "gnis:feature_id": "183860", "name": "Signal Butte", "natural": "peak"}}, {"name": "Turkey Rock", "latitude": 39.1138801, "longitude": -105.2394371, "elevation": 2627.0, "source": "osm", "_tags": {"ele": "2627", "gnis:feature_id": "183864", "name": "Turkey Rock", "natural": "peak"}}, {"name": "Soldier Mountain", "latitude": 39.0599917, "longitude": -105.0505415, "elevation": 2798.0, "source": "osm", "_tags": {"ele": "2798", "gnis:feature_id": "183879", "name": "Soldier Mountain", "natural": "peak"}}, {"name": "Mount Deception", "latitude": 39.0986026, "longitude": -105.0594308, "elevation": 2849.0, "source": "osm", "_tags": {"ele": "2849", "gnis:feature_id": "183884", "name": "Mount Deception", "natural": "peak"}}, {"name": "Hunters Hill", "latitude": 38.9461042, "longitude": -104.7877543, "elevation": 2006.0, "source": "osm", "_tags": {"ele": "2006", "gnis:feature_id": "188795", "name": "Hunters Hill", "natural": "peak"}}, {"name": "Spinney Mountain", "latitude": 38.991587, "longitude": -105.6174775, "elevation": 2892.0, "source": "osm", "_tags": {"ele": "2892", "gnis:feature_id": "191107", "name": "Spinney Mountain", "natural": "peak"}}, {"name": "Blue Mountain", "latitude": 38.9299917, "longitude": -105.3536043, "elevation": 2807.0, "source": "osm", "_tags": {"ele": "2807", "gnis:feature_id": "191143", "name": "Blue Mountain", "natural": "peak"}}, {"name": "Crystal Peak", "latitude": 38.9958252, "longitude": -105.289159, "elevation": 2937.0, "source": "osm", "_tags": {"ele": "2937", "gnis:feature_id": "191148", "name": "Crystal Peak", "natural": "peak"}}, {"name": "Tracy Hill", "latitude": 38.8999905, "longitude": -105.1588744, "elevation": 2870.0, "source": "osm", "_tags": {"ele": "2870", "gnis:feature_id": "191163", "name": "Tracy Hill", "natural": "peak"}}, {"name": "Twin Rocks", "latitude": 38.9324913, "longitude": -105.2474896, "elevation": 2737.0, "source": "osm", "_tags": {"ele": "2737", "gnis:feature_id": "191178", "name": "Twin Rocks", "natural": "peak"}}, {"name": "Bald Mountain", "latitude": 38.9833249, "longitude": -105.0177617, "elevation": 2881.0, "source": "osm", "_tags": {"ele": "2881", "gnis:feature_id": "191209", "name": "Bald Mountain", "natural": "peak"}}, {"name": "Mount Pisgah", "latitude": 38.7558227, "longitude": -105.2177612, "elevation": 3168.0, "source": "osm", "_tags": {"ele": "3168", "gnis:feature_id": "191211", "name": "Mount Pisgah", "natural": "peak"}}, {"name": "Red Mountain", "latitude": 38.7733226, "longitude": -105.1983164, "elevation": 2933.0, "source": "osm", "_tags": {"ele": "2933", "gnis:feature_id": "191212", "name": "Red Mountain", "natural": "peak"}}, {"name": "Mineral Hill", "latitude": 38.7644332, "longitude": -105.1755373, "elevation": 3119.0, "source": "osm", "_tags": {"ele": "3119", "gnis:feature_id": "191213", "name": "Mineral Hill", "natural": "peak"}}, {"name": "Copper Mountain", "latitude": 38.7797113, "longitude": -105.1835938, "elevation": 3116.0, "source": "osm", "_tags": {"ele": "3116", "gnis:feature_id": "191214", "name": "Copper Mountain", "natural": "peak"}}, {"name": "Rhyolite Mountain", "latitude": 38.7824889, "longitude": -105.1666486, "elevation": 3278.0, "source": "osm", "_tags": {"ele": "3278", "gnis:feature_id": "191215", "name": "Rhyolite Mountain", "natural": "peak"}}, {"name": "Carbonate Hill", "latitude": 38.7627664, "longitude": -105.1644256, "elevation": 3150.0, "source": "osm", "_tags": {"ele": "3150", "gnis:feature_id": "191220", "name": "Carbonate Hill", "natural": "peak"}}, {"name": "Sentinel Point", "latitude": 38.8405447, "longitude": -105.1047036, "elevation": 3814.0, "source": "osm", "_tags": {"ele": "3814", "gnis:feature_id": "191230", "name": "Sentinel Point", "natural": "peak"}}, {"name": "Sachett Mountain", "latitude": 38.820821, "longitude": -105.023866, "elevation": 3837.0, "source": "osm", "_tags": {"ele": "3837", "gnis:feature_id": "191234", "name": "Sachett Mountain", "natural": "peak"}}, {"name": "Sheep Mountain", "latitude": 38.7930431, "longitude": -105.0546996, "elevation": 3780.0, "source": "osm", "_tags": {"ele": "3780", "gnis:feature_id": "191238", "name": "Sheep Mountain", "natural": "peak"}}, {"name": "Cow Mountain", "latitude": 38.7580428, "longitude": -105.0846995, "elevation": 3392.0, "source": "osm", "_tags": {"ele": "3392", "gnis:feature_id": "191241", "name": "Cow Mountain", "natural": "peak"}}, {"name": "Mitre Peak", "latitude": 38.6511033, "longitude": -105.1980401, "elevation": 2599.0, "source": "osm", "_tags": {"ele": "2599", "gnis:feature_id": "191257", "name": "Mitre Peak", "natural": "peak"}}, {"name": "Little Pisgah Peak", "latitude": 38.6755469, "longitude": -105.1808167, "elevation": 2980.0, "source": "osm", "_tags": {"ele": "2980", "gnis:feature_id": "191262", "name": "Little Pisgah Peak", "natural": "peak"}}, {"name": "Straub Mountain", "latitude": 38.6933236, "longitude": -105.1474814, "elevation": 3060.0, "source": "osm", "_tags": {"ele": "3060", "gnis:feature_id": "191264", "name": "Straub Mountain", "natural": "peak"}}, {"name": "Grouse Mountain", "latitude": 38.6955462, "longitude": -105.1799828, "elevation": 3009.0, "source": "osm", "_tags": {"ele": "3009", "gnis:feature_id": "191266", "name": "Grouse Mountain", "natural": "peak"}}, {"name": "Evening Star Mountain", "latitude": 38.7147912, "longitude": -105.1472191, "elevation": 3153.0, "source": "osm", "_tags": {"ele": "3153", "gnis:feature_id": "191268", "name": "Evening Star Mountain", "natural": "peak", "note": "Name changed 09/09/2022.", "old_name": "Squaw Mountain", "wikidata": "Q49077277"}}, {"name": "Beacon Hill", "latitude": 38.7172118, "longitude": -105.1677595, "elevation": 2949.0, "source": "osm", "_tags": {"ele": "2949", "gnis:feature_id": "191279", "name": "Beacon Hill", "natural": "peak"}}, {"name": "Guyot Hill", "latitude": 38.7249893, "longitude": -105.1638702, "elevation": 2996.0, "source": "osm", "_tags": {"ele": "2996", "gnis:feature_id": "191280", "name": "Guyot Hill", "natural": "peak"}}, {"name": "Ironclad Hill", "latitude": 38.7424884, "longitude": -105.1441467, "elevation": 3217.0, "source": "osm", "_tags": {"ele": "3217", "gnis:feature_id": "191288", "name": "Ironclad Hill", "natural": "peak"}}, {"name": "Globe Hill", "latitude": 38.7472105, "longitude": -105.1524802, "elevation": 3180.0, "source": "osm", "_tags": {"ele": "3180", "gnis:feature_id": "191290", "name": "Globe Hill", "natural": "peak"}}, {"name": "Rosebud Hill", "latitude": 38.7211007, "longitude": -105.1744264, "elevation": 2849.0, "source": "osm", "_tags": {"ele": "2849", "gnis:feature_id": "191294", "name": "Rosebud Hill", "natural": "peak"}}, {"name": "Signal Hill", "latitude": 38.7324893, "longitude": -105.182482, "elevation": 2954.0, "source": "osm", "_tags": {"ele": "2954", "gnis:feature_id": "191300", "name": "Signal Hill", "natural": "peak"}}, {"name": "Lookout Point", "latitude": 38.7327675, "longitude": -105.2074831, "elevation": 2882.0, "source": "osm", "_tags": {"ele": "2882", "gnis:feature_id": "191302", "name": "Lookout Point", "natural": "peak"}}, {"name": "Big Bull Mountain", "latitude": 38.714989, "longitude": -105.1122016, "elevation": 3303.0, "source": "osm", "_tags": {"ele": "3303", "gnis:feature_id": "191307", "name": "Big Bull Mountain", "natural": "peak"}}, {"name": "Brind Mountain", "latitude": 38.6938788, "longitude": -105.1169246, "elevation": 3196.0, "source": "osm", "_tags": {"ele": "3196", "gnis:feature_id": "191317", "name": "Brind Mountain", "natural": "peak"}}, {"name": "Crown Point", "latitude": 38.6461023, "longitude": -105.0055329, "elevation": 3023.0, "source": "osm", "_tags": {"ele": "3023", "gnis:feature_id": "191322", "name": "Crown Point", "natural": "peak"}}, {"name": "Cooper Mountain", "latitude": 38.5872165, "longitude": -105.1572069, "elevation": 2785.0, "source": "osm", "_tags": {"ele": "2785", "gnis:feature_id": "191331", "name": "Cooper Mountain", "natural": "peak"}}, {"name": "Sugar Loaf", "latitude": 38.5861055, "longitude": -105.0269249, "elevation": 2269.0, "source": "osm", "_tags": {"ele": "2269", "gnis:feature_id": "191342", "name": "Sugar Loaf", "natural": "peak"}}, {"name": "Thirtynine Mile Mountain", "latitude": 38.8322151, "longitude": -105.5549977, "elevation": 3517.0, "source": "osm", "_tags": {"ele": "3517", "gnis:feature_id": "191385", "name": "Thirtynine Mile Mountain", "natural": "peak", "wikidata": "Q14685122"}}, {"name": "Dicks Peak", "latitude": 38.7949937, "longitude": -105.6408329, "elevation": 3253.0, "source": "osm", "_tags": {"ele": "3253", "gnis:feature_id": "191389", "name": "Dicks Peak", "natural": "peak"}}, {"name": "Saddle Mountain", "latitude": 38.8319367, "longitude": -105.4669393, "elevation": 3291.0, "source": "osm", "_tags": {"ele": "3291", "gnis:feature_id": "191399", "name": "Saddle Mountain", "natural": "peak"}}, {"name": "Castle Mountain", "latitude": 38.8052698, "longitude": -105.4299929, "elevation": 3055.0, "source": "osm", "_tags": {"ele": "3055", "gnis:feature_id": "191400", "name": "Castle Mountain", "natural": "peak"}}, {"name": "Witcher Mountain", "latitude": 38.7608253, "longitude": -105.4313809, "elevation": 3048.0, "source": "osm", "_tags": {"ele": "3048", "gnis:feature_id": "191402", "name": "Witcher Mountain", "natural": "peak"}}, {"name": "McIntyre Mountain", "latitude": 38.7855473, "longitude": -105.4033249, "elevation": 2898.0, "source": "osm", "_tags": {"ele": "2898", "gnis:feature_id": "191404", "name": "McIntyre Mountain", "natural": "peak"}}, {"name": "Beasley Hills", "latitude": 38.834713, "longitude": -105.2824882, "elevation": 2777.0, "source": "osm", "_tags": {"ele": "2777", "gnis:feature_id": "191411", "name": "Beasley Hills", "natural": "peak"}}, {"name": "Loco Mountain", "latitude": 38.5733291, "longitude": -105.6433334, "elevation": 3415.0, "source": "osm", "_tags": {"ele": "3415", "gnis:feature_id": "191509", "name": "Loco Mountain", "natural": "peak"}}, {"name": "Burris Mountain", "latitude": 38.5780513, "longitude": -105.6277773, "elevation": 3262.0, "source": "osm", "_tags": {"ele": "3262", "gnis:feature_id": "191510", "name": "Burris Mountain", "natural": "peak"}}, {"name": "Green Mountain", "latitude": 38.5347185, "longitude": -105.661112, "elevation": 3002.0, "source": "osm", "_tags": {"ele": "3002", "gnis:feature_id": "191511", "name": "Green Mountain", "natural": "peak"}}, {"name": "Soapy Hill", "latitude": 38.5736064, "longitude": -105.5047182, "elevation": 2701.0, "source": "osm", "_tags": {"ele": "2701", "gnis:feature_id": "191537", "name": "Soapy Hill", "natural": "peak"}}, {"name": "Wall Mountain", "latitude": 38.6316616, "longitude": -105.58222, "elevation": 2698.0, "source": "osm", "_tags": {"ele": "2698", "gnis:feature_id": "191545", "name": "Wall Mountain", "natural": "peak"}}, {"name": "West Antelope Mountain", "latitude": 38.6652723, "longitude": -105.5866643, "elevation": 3055.0, "source": "osm", "_tags": {"ele": "3055", "gnis:feature_id": "191546", "name": "West Antelope Mountain", "natural": "peak"}}, {"name": "East Antelope Mountain", "latitude": 38.6661055, "longitude": -105.5672193, "elevation": 2975.0, "source": "osm", "_tags": {"ele": "2975", "gnis:feature_id": "191547", "name": "East Antelope Mountain", "natural": "peak"}}, {"name": "Thirtyone Mile Mountain", "latitude": 38.702216, "longitude": -105.5463851, "elevation": 3137.0, "source": "osm", "_tags": {"ele": "3137", "gnis:feature_id": "191555", "name": "Thirtyone Mile Mountain", "natural": "peak"}}, {"name": "Baldy Mountain", "latitude": 38.7169384, "longitude": -105.5936087, "elevation": 2960.0, "source": "osm", "_tags": {"ele": "2960", "gnis:feature_id": "191559", "name": "Baldy Mountain", "natural": "peak"}}, {"name": "Hammond Peak", "latitude": 38.7169385, "longitude": -105.6111092, "elevation": 3053.0, "source": "osm", "_tags": {"ele": "3053", "gnis:feature_id": "191560", "name": "Hammond Peak", "natural": "peak"}}, {"name": "Black Mountain", "latitude": 38.718328, "longitude": -105.6872226, "elevation": 3554.0, "source": "osm", "_tags": {"ele": "3554", "gnis:feature_id": "191561", "name": "Black Mountain", "natural": "peak", "wikidata": "Q14684318"}}, {"name": "Gardner Peak", "latitude": 38.5466623, "longitude": -105.4916624, "elevation": 2708.0, "source": "osm", "_tags": {"ele": "2708", "gnis:feature_id": "191567", "name": "Gardner Peak", "natural": "peak"}}, {"name": "Little Crampton Mountain", "latitude": 38.5577732, "longitude": -105.4427719, "elevation": 2344.0, "source": "osm", "_tags": {"ele": "2344", "gnis:feature_id": "191569", "name": "Little Crampton Mountain", "natural": "peak"}}, {"name": "Thompson Mountain", "latitude": 38.60305, "longitude": -105.384714, "elevation": 2659.0, "source": "osm", "_tags": {"ele": "2659", "gnis:feature_id": "191590", "name": "Thompson Mountain", "natural": "peak"}}, {"name": "Gribble Mountain", "latitude": 38.5680508, "longitude": -105.4141598, "elevation": 2399.0, "source": "osm", "_tags": {"ele": "2399", "gnis:feature_id": "191594", "name": "Gribble Mountain", "natural": "peak"}}, {"name": "Rice Mountain", "latitude": 38.5983277, "longitude": -105.3424904, "elevation": 2612.0, "source": "osm", "_tags": {"ele": "2612", "gnis:feature_id": "191606", "name": "Rice Mountain", "natural": "peak"}}, {"name": "Big Baldy", "latitude": 38.6499931, "longitude": -105.3249891, "elevation": 2714.0, "source": "osm", "_tags": {"ele": "2714", "gnis:feature_id": "191608", "name": "Big Baldy", "natural": "peak"}}, {"name": "Booger Red Hill", "latitude": 38.7133243, "longitude": -105.2605414, "elevation": 2525.0, "source": "osm", "_tags": {"ele": "2525", "gnis:feature_id": "191613", "name": "Booger Red Hill", "natural": "peak"}}, {"name": "Cover Mountain", "latitude": 38.7411038, "longitude": -105.4722157, "elevation": 3078.0, "source": "osm", "_tags": {"ele": "3078", "gnis:feature_id": "191620", "name": "Cover Mountain", "natural": "peak"}}, {"name": "Indian Mountain", "latitude": 38.4749968, "longitude": -105.6688905, "elevation": 2623.0, "source": "osm", "_tags": {"ele": "2623", "gnis:feature_id": "191748", "name": "Indian Mountain", "natural": "peak"}}, {"name": "Bear Mountain", "latitude": 38.4563859, "longitude": -105.6613906, "elevation": 2678.0, "source": "osm", "_tags": {"ele": "2678", "gnis:feature_id": "191749", "name": "Bear Mountain", "natural": "peak"}}, {"name": "Garell Peak", "latitude": 38.433886, "longitude": -105.6658356, "elevation": 2495.0, "source": "osm", "_tags": {"ele": "2495", "gnis:feature_id": "191750", "name": "Garell Peak", "natural": "peak"}}, {"name": "Table Mountain", "latitude": 38.4702746, "longitude": -105.6288894, "elevation": 2783.0, "source": "osm", "_tags": {"ele": "2783", "gnis:feature_id": "191751", "name": "Table Mountain", "natural": "peak"}}, {"name": "Lookout Mountain", "latitude": 38.3499978, "longitude": -105.5544448, "elevation": 2560.0, "source": "osm", "_tags": {"ele": "2560", "gnis:feature_id": "191792", "name": "Lookout Mountain", "natural": "peak"}}, {"name": "McIntyre Hills", "latitude": 38.4394415, "longitude": -105.4602739, "elevation": 2458.0, "source": "osm", "_tags": {"ele": "2458", "gnis:feature_id": "191822", "name": "McIntyre Hills", "natural": "peak"}}, {"name": "Deer Mountain", "latitude": 38.3274981, "longitude": -105.4983325, "elevation": 2586.0, "source": "osm", "_tags": {"ele": "2586", "gnis:feature_id": "191825", "name": "Deer Mountain", "natural": "peak"}}, {"name": "McClure Mountain", "latitude": 38.3238871, "longitude": -105.4841655, "elevation": 2475.0, "source": "osm", "_tags": {"ele": "2475", "gnis:feature_id": "191827", "name": "McClure Mountain", "natural": "peak"}}, {"name": "Elkhorn Mountain", "latitude": 38.3008317, "longitude": -105.4927772, "elevation": 2468.0, "source": "osm", "_tags": {"ele": "2468", "gnis:feature_id": "191828", "name": "Elkhorn Mountain", "natural": "peak"}}, {"name": "Red Mountain", "latitude": 38.2958318, "longitude": -105.4858327, "elevation": 2374.0, "source": "osm", "_tags": {"ele": "2374", "gnis:feature_id": "191829", "name": "Red Mountain", "natural": "peak"}}, {"name": "Curley Peak", "latitude": 38.3208328, "longitude": -105.2988825, "elevation": 2914.0, "source": "osm", "_tags": {"ele": "2914", "gnis:feature_id": "191849", "name": "Curley Peak", "natural": "peak"}}, {"name": "Nonans Peak", "latitude": 38.4416644, "longitude": -105.2783244, "elevation": 2088.0, "source": "osm", "_tags": {"ele": "2088", "gnis:feature_id": "191859", "name": "Nonans Peak", "natural": "peak"}}, {"name": "Fremont Peak", "latitude": 38.4486086, "longitude": -105.2830466, "elevation": 2163.0, "source": "osm", "_tags": {"ele": "2163", "gnis:feature_id": "191860", "name": "Fremont Peak", "natural": "peak"}}, {"name": "Baldy Mountain", "latitude": 38.4452753, "longitude": -105.3116585, "elevation": 2078.0, "source": "osm", "_tags": {"ele": "2078", "gnis:feature_id": "191863", "name": "Baldy Mountain", "natural": "peak"}}, {"name": "Y M C A Mountain", "latitude": 38.4263868, "longitude": -105.2872138, "elevation": 2114.0, "source": "osm", "_tags": {"ele": "2114", "gnis:feature_id": "191864", "name": "Y M C A Mountain", "natural": "peak"}}, {"name": "Poverty Mountain", "latitude": 38.4027753, "longitude": -105.4524965, "elevation": 2518.0, "source": "osm", "_tags": {"ele": "2518", "gnis:feature_id": "191869", "name": "Poverty Mountain", "natural": "peak"}}, {"name": "Iron Mountain", "latitude": 38.3569426, "longitude": -105.4274966, "elevation": 2463.0, "source": "osm", "_tags": {"ele": "2463", "gnis:feature_id": "191876", "name": "Iron Mountain", "natural": "peak"}}, {"name": "Horseshoe Mountain", "latitude": 38.3930537, "longitude": -105.3527717, "elevation": 2350.0, "source": "osm", "_tags": {"ele": "2350", "gnis:feature_id": "191883", "name": "Horseshoe Mountain", "natural": "peak"}}, {"name": "Dawson Mountain", "latitude": 38.3833318, "longitude": -105.3052705, "elevation": 2428.0, "source": "osm", "_tags": {"ele": "2428", "gnis:feature_id": "191912", "name": "Dawson Mountain", "natural": "peak"}}, {"name": "Tanner Peak", "latitude": 38.3624987, "longitude": -105.3144378, "elevation": 2845.0, "source": "osm", "_tags": {"ele": "2845", "gnis:feature_id": "191913", "name": "Tanner Peak", "natural": "peak"}}, {"name": "Raspberry Butte", "latitude": 39.219991, "longitude": -104.9088704, "elevation": 2343.0, "source": "osm", "_tags": {"ele": "2343", "gnis:feature_id": "193174", "name": "Raspberry Butte", "natural": "peak"}}, {"name": "Monkey Face", "latitude": 39.2197132, "longitude": -104.9010925, "elevation": 2347.0, "source": "osm", "_tags": {"ele": "2347", "gnis:feature_id": "193175", "name": "Monkey Face", "natural": "peak"}}, {"name": "Spruce Mountain", "latitude": 39.1552692, "longitude": -104.89887, "elevation": 2320.0, "source": "osm", "_tags": {"ele": "2320", "gnis:feature_id": "193177", "name": "Spruce Mountain", "natural": "peak"}}, {"name": "Eagle Mountain", "latitude": 39.1708246, "longitude": -104.8899808, "elevation": 2262.0, "source": "osm", "_tags": {"ele": "2262", "gnis:feature_id": "193178", "name": "Eagle Mountain", "natural": "peak"}}, {"name": "Larkspur Butte", "latitude": 39.2263799, "longitude": -104.8666468, "elevation": 2291.0, "source": "osm", "_tags": {"ele": "2291", "gnis:feature_id": "193183", "name": "Larkspur Butte", "natural": "peak", "wikidata": "Q49043527"}}, {"name": "Corner Mountain", "latitude": 39.2127689, "longitude": -104.8372014, "elevation": 2271.0, "source": "osm", "_tags": {"ele": "2271", "gnis:feature_id": "193184", "name": "Corner Mountain", "natural": "peak"}}, {"name": "Nemrick Butte", "latitude": 39.2091578, "longitude": -104.8222009, "elevation": 2279.0, "source": "osm", "_tags": {"ele": "2279", "gnis:feature_id": "193185", "name": "Nemrick Butte", "natural": "peak"}}, {"name": "Rattlesnake Butte", "latitude": 39.197769, "longitude": -104.8433127, "elevation": 2307.0, "source": "osm", "_tags": {"ele": "2307", "gnis:feature_id": "193186", "name": "Rattlesnake Butte", "natural": "peak"}}, {"name": "True Mountain", "latitude": 39.1486027, "longitude": -104.8347013, "elevation": 2374.0, "source": "osm", "_tags": {"ele": "2374", "gnis:feature_id": "193189", "name": "True Mountain", "natural": "peak"}}, {"name": "Bald Mountain", "latitude": 39.1377694, "longitude": -104.8488684, "elevation": 2402.0, "source": "osm", "_tags": {"ele": "2402", "gnis:feature_id": "193190", "name": "Bald Mountain", "natural": "peak"}}, {"name": "Best Butte", "latitude": 39.1569359, "longitude": -104.7852552, "elevation": 2297.0, "source": "osm", "_tags": {"ele": "2297", "gnis:feature_id": "193192", "name": "Best Butte", "natural": "peak"}}, {"name": "Lincoln Mountain", "latitude": 39.1744358, "longitude": -104.759421, "elevation": 2254.0, "source": "osm", "_tags": {"ele": "2254", "gnis:feature_id": "193196", "name": "Lincoln Mountain", "natural": "peak"}}, {"name": "Bucks Mountain", "latitude": 39.1613804, "longitude": -104.7427538, "elevation": 2264.0, "source": "osm", "_tags": {"ele": "2264", "gnis:feature_id": "193200", "name": "Bucks Mountain", "natural": "peak"}}, {"name": "Raspberry Mountain", "latitude": 39.0919362, "longitude": -104.9277598, "elevation": 2626.0, "source": "osm", "_tags": {"ele": "2626", "gnis:feature_id": "193233", "name": "Raspberry Mountain", "natural": "peak", "wikidata": "Q49066621"}}, {"name": "Chautauqua Mountain", "latitude": 39.1127695, "longitude": -104.9302599, "elevation": 2542.0, "source": "osm", "_tags": {"ele": "2542", "gnis:feature_id": "193234", "name": "Chautauqua Mountain", "natural": "peak", "wikidata": "Q49019884"}}, {"name": "Sundance Mountain", "latitude": 39.1213805, "longitude": -104.9291488, "elevation": 2502.0, "source": "osm", "_tags": {"ele": "2502", "gnis:feature_id": "193236", "name": "Sundance Mountain", "natural": "peak", "wikidata": "Q49080043"}}, {"name": "Ben Lomand Mountain", "latitude": 39.1216584, "longitude": -104.9035925, "elevation": 2317.0, "source": "osm", "_tags": {"ele": "2317", "gnis:feature_id": "193241", "name": "Ben Lomand Mountain", "natural": "peak", "wikidata": "Q49012017"}}, {"name": "Elephant Rock", "latitude": 39.1186028, "longitude": -104.8905364, "elevation": 2247.0, "source": "osm", "_tags": {"ele": "2247", "gnis:feature_id": "193242", "name": "Elephant Rock", "natural": "peak", "wikidata": "Q49027644"}}, {"name": "Monument Rock", "latitude": 39.0880475, "longitude": -104.9044258, "elevation": 2198.0, "source": "osm", "_tags": {"ele": "2198", "gnis:feature_id": "193246", "name": "Monument Rock", "natural": "peak", "wikidata": "Q49051268"}}, {"name": "Mount Herman", "latitude": 39.0818308, "longitude": -104.9262852, "elevation": 2727.0, "source": "osm", "_tags": {"ele": "2727", "gnis:feature_id": "193253", "name": "Mount Herman", "natural": "peak", "wikidata": "Q49053008"}}, {"name": "Cathedral Rock", "latitude": 39.0294367, "longitude": -104.90137, "elevation": 2222.0, "source": "osm", "_tags": {"ele": "2222", "gnis:feature_id": "193261", "name": "Cathedral Rock", "natural": "peak"}}, {"name": "Spruce Hill", "latitude": 39.1052698, "longitude": -104.7402538, "elevation": 2321.0, "source": "osm", "_tags": {"ele": "2321", "gnis:feature_id": "193285", "name": "Spruce Hill", "natural": "peak"}}, {"name": "Ormes Peak", "latitude": 38.9505471, "longitude": -104.9347026, "elevation": 2963.0, "source": "osm", "_tags": {"ele": "2963", "gnis:feature_id": "193329", "name": "Ormes Peak", "natural": "peak"}}, {"name": "Blodgett Peak", "latitude": 38.9588608, "longitude": -104.9071677, "elevation": 2873.0, "source": "osm", "_tags": {"ele": "2873", "gnis:feature_id": "193330", "name": "Blodgett Peak", "natural": "peak", "wikidata": "Q16971639"}}, {"name": "Devils Kitchen", "latitude": 38.958325, "longitude": -104.9308138, "elevation": 2785.0, "source": "osm", "_tags": {"ele": "2785", "gnis:feature_id": "193337", "name": "Devils Kitchen", "natural": "peak"}}, {"name": "Austin Bluffs", "latitude": 38.9011042, "longitude": -104.7999757, "elevation": 2034.0, "source": "osm", "_tags": {"ele": "2034", "gnis:feature_id": "193345", "name": "Austin Bluffs", "natural": "peak", "wikidata": "Q6770946"}}, {"name": "Almagre Mountain", "latitude": 38.7913758, "longitude": -104.9938636, "elevation": 3768.0, "source": "osm", "_tags": {"ele": "3768", "gnis:feature_id": "193402", "name": "Almagre Mountain", "natural": "peak"}}, {"name": "Stove Mountain", "latitude": 38.7661001, "longitude": -104.9205289, "elevation": 2984.0, "source": "osm", "_tags": {"ele": "2984", "gnis:feature_id": "193406", "name": "Stove Mountain", "natural": "peak"}}, {"name": "Mount Rosa", "latitude": 38.754154, "longitude": -104.948029, "elevation": 3507.0, "source": "osm", "_tags": {"ele": "3507", "gnis:feature_id": "193407", "name": "Mount Rosa", "natural": "peak", "wikidata": "Q8536170"}}, {"name": "Mount Cutler", "latitude": 38.7877686, "longitude": -104.8774737, "elevation": 2200.0, "source": "osm", "_tags": {"check_date": "2024-09-15", "ele": "2200", "gnis:feature_id": "193413", "name": "Mount Cutler", "natural": "peak", "summit:cross": "no"}}, {"name": "Kineo Mountain", "latitude": 38.7902668, "longitude": -104.9310854, "elevation": 2882.0, "source": "osm", "_tags": {"ele": "2882", "gnis:feature_id": "193417", "name": "Kineo Mountain", "natural": "peak"}}, {"name": "Mays Peak", "latitude": 38.8013792, "longitude": -104.8963632, "elevation": 2525.0, "source": "osm", "_tags": {"ele": "2525", "gnis:feature_id": "193418", "name": "Mays Peak", "natural": "peak"}}, {"name": "Mount Buckhorn", "latitude": 38.8002679, "longitude": -104.9033078, "elevation": 2548.0, "source": "osm", "_tags": {"ele": "2548", "gnis:feature_id": "193419", "name": "Mount Buckhorn", "natural": "peak"}}, {"name": "Mount Garfield", "latitude": 38.8074888, "longitude": -104.9477528, "elevation": 3327.0, "source": "osm", "_tags": {"ele": "3327", "gnis:feature_id": "193425", "name": "Mount Garfield", "natural": "peak"}}, {"name": "Mount Arthur", "latitude": 38.8094334, "longitude": -104.9419195, "elevation": 3293.0, "source": "osm", "_tags": {"ele": "3293", "gnis:feature_id": "193426", "name": "Mount Arthur", "natural": "peak"}}, {"name": "Marys Mountain", "latitude": 38.8341553, "longitude": -104.9733098, "elevation": 3004.0, "source": "osm", "_tags": {"ele": "3004", "gnis:feature_id": "193436", "name": "Marys Mountain", "natural": "peak"}}, {"name": "Sheep Mountain", "latitude": 38.8405445, "longitude": -104.9655321, "elevation": 2988.0, "source": "osm", "_tags": {"ele": "2988", "gnis:feature_id": "193437", "name": "Sheep Mountain", "natural": "peak"}}, {"name": "Mount Manitou", "latitude": 38.8647116, "longitude": -104.9638664, "elevation": 2877.0, "source": "osm", "_tags": {"ele": "2877", "gnis:feature_id": "193442", "name": "Mount Manitou", "natural": "peak"}}, {"name": "Cameron Cone", "latitude": 38.8313779, "longitude": -104.9544205, "elevation": 3263.0, "source": "osm", "_tags": {"ele": "3263", "gnis:feature_id": "193444", "name": "Cameron Cone", "natural": "peak"}}, {"name": "Rocky Mountain", "latitude": 38.8597117, "longitude": -104.9574772, "elevation": 2816.0, "source": "osm", "_tags": {"ele": "2816", "gnis:feature_id": "193446", "name": "Rocky Mountain", "natural": "peak"}}, {"name": "Eagle Mountain", "latitude": 38.8430453, "longitude": -104.9388652, "elevation": 2750.0, "source": "osm", "_tags": {"ele": "2750", "gnis:feature_id": "193451", "name": "Eagle Mountain", "natural": "peak"}}, {"name": "Red Mountain", "latitude": 38.8513791, "longitude": -104.9213652, "elevation": 2248.0, "source": "osm", "_tags": {"ele": "2248", "gnis:feature_id": "193452", "name": "Red Mountain", "natural": "peak"}}, {"name": "Iron Mountain", "latitude": 38.8490629, "longitude": -104.9132547, "elevation": 2175.0, "source": "osm", "_tags": {"ele": "2175", "gnis:feature_id": "193458", "name": "Iron Mountain", "natural": "peak"}}, {"name": "Sugarloaf Mountain", "latitude": 38.8411013, "longitude": -104.9160871, "elevation": 2315.0, "source": "osm", "_tags": {"ele": "2315", "gnis:feature_id": "193459", "name": "Sugarloaf Mountain", "natural": "peak"}}, {"name": "The Horns", "latitude": 38.7577688, "longitude": -104.8666395, "elevation": 2797.0, "source": "osm", "_tags": {"ele": "2797", "gnis:feature_id": "193524", "name": "The Horns", "natural": "peak"}}, {"name": "Black Mountain", "latitude": 38.6894346, "longitude": -104.9585862, "elevation": 3089.0, "source": "osm", "_tags": {"ele": "3089", "gnis:feature_id": "193582", "name": "Black Mountain", "natural": "peak"}}, {"name": "Green Mountain", "latitude": 38.6966564, "longitude": -104.9630304, "elevation": 3084.0, "source": "osm", "_tags": {"ele": "3084", "gnis:feature_id": "193583", "name": "Green Mountain", "natural": "peak"}}, {"name": "Blue Mountain", "latitude": 38.6936024, "longitude": -104.9158079, "elevation": 2999.0, "source": "osm", "_tags": {"ele": "2999", "gnis:feature_id": "193586", "name": "Blue Mountain", "natural": "peak"}}, {"name": "Mount Big Chief", "latitude": 38.7374873, "longitude": -104.97414, "elevation": 3404.0, "source": "osm", "_tags": {"ele": "3404", "gnis:feature_id": "193587", "name": "Mount Big Chief", "natural": "peak"}}, {"name": "McKinley Peak", "latitude": 38.7261003, "longitude": -104.9366403, "elevation": 3180.0, "source": "osm", "_tags": {"ele": "3180", "gnis:feature_id": "193591", "name": "McKinley Peak", "natural": "peak"}}, {"name": "San Luis Peak", "latitude": 38.726656, "longitude": -104.9324735, "elevation": 3174.0, "source": "osm", "_tags": {"ele": "3174", "gnis:feature_id": "193592", "name": "San Luis Peak", "natural": "peak"}}, {"name": "Mount Vigil", "latitude": 38.7269341, "longitude": -104.9221958, "elevation": 3055.0, "source": "osm", "_tags": {"ele": "3055", "gnis:feature_id": "193594", "name": "Mount Vigil", "natural": "peak"}}, {"name": "Saint Peters Dome", "latitude": 38.7472115, "longitude": -104.9116395, "elevation": 2943.0, "source": "osm", "_tags": {"ele": "2943", "gnis:feature_id": "193596", "name": "Saint Peters Dome", "natural": "peak"}}, {"name": "Sugarloaf Mountain", "latitude": 38.733323, "longitude": -104.9149732, "elevation": 2934.0, "source": "osm", "_tags": {"ele": "2934", "gnis:feature_id": "193598", "name": "Sugarloaf Mountain", "natural": "peak"}}, {"name": "Gray Back Peak", "latitude": 38.71138, "longitude": -104.8999738, "elevation": 2847.0, "source": "osm", "_tags": {"ele": "2847", "gnis:feature_id": "193601", "name": "Gray Back Peak", "natural": "peak"}}, {"name": "Mount Pittsburg", "latitude": 38.6169384, "longitude": -104.9349772, "elevation": 2495.0, "source": "osm", "_tags": {"ele": "2495", "gnis:feature_id": "193635", "name": "Mount Pittsburg", "natural": "peak"}}, {"name": "Wild Mountain", "latitude": 38.5433304, "longitude": -104.9477579, "elevation": 2037.0, "source": "osm", "_tags": {"ele": "2037", "gnis:feature_id": "193643", "name": "Wild Mountain", "natural": "peak"}}, {"name": "Buck Hill", "latitude": 38.5277762, "longitude": -104.8630341, "elevation": 1940.0, "source": "osm", "_tags": {"ele": "1940", "gnis:feature_id": "193647", "name": "Buck Hill", "natural": "peak"}}, {"name": "Booth Mountain", "latitude": 38.4913883, "longitude": -104.869424, "elevation": 1965.0, "source": "osm", "_tags": {"ele": "1965", "gnis:feature_id": "193884", "name": "Booth Mountain", "natural": "peak"}}, {"name": "White Butte", "latitude": 38.4649999, "longitude": -104.8080336, "elevation": 1764.0, "source": "osm", "_tags": {"ele": "1764", "gnis:feature_id": "193885", "name": "White Butte", "natural": "peak"}}, {"name": "Crampton Mountain", "latitude": 38.528607, "longitude": -105.4744398, "elevation": 2664.0, "source": "osm", "_tags": {"ele": "2664", "gnis:feature_id": "196455", "name": "Crampton Mountain", "natural": "peak"}}, {"name": "Granite Hills", "latitude": 38.883324, "longitude": -105.2172094, "elevation": 2809.0, "source": "osm", "_tags": {"ele": "2809", "gnis:feature_id": "196552", "name": "Granite Hills", "natural": "peak"}}, {"name": "Threemile Mountain", "latitude": 38.8630489, "longitude": -105.6383342, "elevation": 3038.0, "source": "osm", "_tags": {"ele": "3038", "gnis:feature_id": "196736", "name": "Threemile Mountain", "natural": "peak"}}, {"name": "Round Mountain", "latitude": 39.0305473, "longitude": -105.4316642, "elevation": 2601.0, "source": "osm", "_tags": {"ele": "2601", "gnis:feature_id": "196739", "name": "Round Mountain", "natural": "peak"}}, {"name": "A L Hill", "latitude": 39.2480448, "longitude": -105.6508406, "elevation": 2814.0, "source": "osm", "_tags": {"ele": "2814", "gnis:feature_id": "202940", "name": "A L Hill", "natural": "peak"}}, {"name": "Sugarloaf Peak", "latitude": 39.2491569, "longitude": -105.3055519, "elevation": 2586.0, "source": "osm", "_tags": {"ele": "2586", "gnis:feature_id": "202945", "name": "Sugarloaf Peak", "natural": "peak"}}, {"name": "Hunt Mountain", "latitude": 39.2574907, "longitude": -104.8799805, "elevation": 2215.0, "source": "osm", "_tags": {"ele": "2215", "gnis:feature_id": "203042", "name": "Hunt Mountain", "natural": "peak"}}, {"name": "Round Mountain", "latitude": 38.3041668, "longitude": -105.2483259, "elevation": 2408.0, "source": "osm", "_tags": {"ele": "2408", "gnis:feature_id": "203348", "name": "Round Mountain", "natural": "peak"}}, {"name": "Stoll Mountain", "latitude": 38.992492, "longitude": -105.5013881, "elevation": 3299.0, "source": "osm", "_tags": {"ele": "3299", "gnis:feature_id": "203528", "name": "Stoll Mountain", "natural": "peak"}}, {"name": "Raspberry Mountain", "latitude": 38.9069348, "longitude": -105.1241511, "elevation": 3225.0, "source": "osm", "_tags": {"ele": "3225", "gnis:feature_id": "203530", "name": "Raspberry Mountain", "natural": "peak"}}, {"name": "Nipple Mountain", "latitude": 38.64027, "longitude": -105.124982, "elevation": 3022.0, "source": "osm", "_tags": {"ele": "3022", "gnis:feature_id": "203535", "name": "Nipple Mountain", "natural": "peak"}}, {"name": "Table Mountain", "latitude": 38.5672178, "longitude": -104.9802577, "elevation": 2260.0, "source": "osm", "_tags": {"ele": "2260", "gnis:feature_id": "203538", "name": "Table Mountain", "natural": "peak"}}, {"name": "Table Mountain", "latitude": 38.5038852, "longitude": -105.5197191, "elevation": 2810.0, "source": "osm", "_tags": {"ele": "2810", "gnis:feature_id": "203540", "name": "Table Mountain", "natural": "peak"}}, {"name": "Delilah Peak", "latitude": 38.6333278, "longitude": -105.5011065, "elevation": 2695.0, "source": "osm", "_tags": {"ele": "2695", "gnis:feature_id": "203541", "name": "Delilah Peak", "natural": "peak"}}, {"name": "Cactus Mountain", "latitude": 38.5118229, "longitude": -105.3798568, "elevation": 2156.0, "source": "osm", "_tags": {"ele": "2156", "gnis:feature_id": "203543", "name": "Cactus Mountain", "natural": "peak"}}, {"name": "South Twin Mountain", "latitude": 38.5153775, "longitude": -105.3081255, "elevation": 2395.0, "source": "osm", "_tags": {"ele": "2395", "gnis:feature_id": "203544", "name": "South Twin Mountain", "natural": "peak"}}, {"name": "The Mesa", "latitude": 38.8944362, "longitude": -104.8738659, "elevation": 2015.0, "source": "osm", "_tags": {"ele": "2015", "gnis:feature_id": "203679", "name": "The Mesa", "natural": "peak"}}, {"name": "Cheyenne Mountain", "latitude": 38.737213, "longitude": -104.8808063, "elevation": 2915.0, "source": "osm", "_tags": {"ele": "2915", "gnis:feature_id": "203681", "name": "Cheyenne Mountain", "natural": "peak", "wikidata": "Q1071445"}}, {"name": "Skinner Hill", "latitude": 38.7535891, "longitude": -104.7210877, "elevation": 1788.0, "source": "osm", "_tags": {"ele": "1788", "gnis:feature_id": "203685", "name": "Skinner Hill", "natural": "peak"}}, {"name": "Timber Mountain", "latitude": 38.5680524, "longitude": -104.8791444, "elevation": 2103.0, "source": "osm", "_tags": {"ele": "2103", "gnis:feature_id": "203686", "name": "Timber Mountain", "natural": "peak"}}, {"name": "Storm Peak", "latitude": 39.1955467, "longitude": -105.0010958, "elevation": 2783.0, "source": "osm", "_tags": {"ele": "2783", "gnis:feature_id": "203894", "name": "Storm Peak", "natural": "peak"}}, {"name": "Trachyte Knob", "latitude": 38.7733212, "longitude": -105.1066455, "elevation": 3310.0, "source": "osm", "_tags": {"ele": "3310", "gnis:feature_id": "203950", "name": "Trachyte Knob", "natural": "peak"}}, {"name": "Pikes Peak", "latitude": 38.8404012, "longitude": -105.0439523, "elevation": 4302.0, "source": "osm", "_tags": {"ele": "4302", "gnis:feature_id": "204770", "name": "Pikes Peak", "natural": "peak", "note": "Elevation 14,115 ft (for local usage, since this is one of the 53 \"fourteeners\" in Colorado). Elevation sourced from Wikipedia, which itself sources the data.", "prominence": "1682", "source:prominence": "4302-2620 (Col at the W)", "website": "https://www.pikes-peak.com", "wikidata": "Q665321", "wikipedia": "en:Pikes Peak"}}, {"name": "Knights Peak", "latitude": 38.7252667, "longitude": -104.945807, "elevation": 3188.0, "source": "osm", "_tags": {"ele": "3188", "gnis:feature_id": "1989390", "name": "Knights Peak", "natural": "peak"}}, {"name": "Muscoco Mountain", "latitude": 38.7850573, "longitude": -104.8894887, "elevation": 2444.0, "source": "osm", "_tags": {"ele": "2444", "name": "Muscoco Mountain", "natural": "peak"}}, {"name": "Truman's Rock", "latitude": 39.0476643, "longitude": -105.2873273, "elevation": null, "source": "osm", "_tags": {"name": "Truman's Rock", "natural": "peak"}}, {"name": "Pulpit Rock", "latitude": 38.9121675, "longitude": -104.8105254, "elevation": 2018.0, "source": "osm", "_tags": {"ele": "2018", "name": "Pulpit Rock", "natural": "peak"}}, {"name": "Eagle's Peak", "latitude": 39.0013166, "longitude": -104.9151406, "elevation": null, "source": "osm", "_tags": {"name": "Eagle's Peak", "natural": "peak"}}, {"name": "North Twin Mountain", "latitude": 38.524961, "longitude": -105.3057387, "elevation": null, "source": "osm", "_tags": {"name": "North Twin Mountain", "natural": "peak"}}, {"name": "Lizard Rock", "latitude": 39.1631175, "longitude": -105.460972, "elevation": null, "source": "osm", "_tags": {"name": "Lizard Rock", "natural": "peak"}}, {"name": "South Blodgett", "latitude": 38.9542973, "longitude": -104.9130274, "elevation": 9500.0, "source": "osm", "_tags": {"elevation": "9500", "name": "South Blodgett", "natural": "peak"}}, {"name": "Lone Pine Peak", "latitude": 38.9428695, "longitude": -104.9176381, "elevation": 9438.0, "source": "osm", "_tags": {"elevation": "9438", "name": "Lone Pine Peak", "natural": "peak"}}, {"name": "Buffalo Rock", "latitude": 38.9146549, "longitude": -105.1841643, "elevation": 2908.0, "source": "osm", "_tags": {"ele": "2908", "name": "Buffalo Rock", "natural": "peak"}}, {"name": "Grouse Mountain", "latitude": 38.9038085, "longitude": -105.1858263, "elevation": 3000.0, "source": "osm", "_tags": {"ele": "3000", "name": "Grouse Mountain", "natural": "peak"}}, {"name": "", "latitude": 38.8945092, "longitude": -105.1993712, "elevation": 2945.0, "source": "osm", "_tags": {"ele": "2945", "natural": "peak"}}, {"name": "Lone Eagle", "latitude": 38.8785734, "longitude": -105.1974916, "elevation": 2870.0, "source": "osm", "_tags": {"ele": "2870", "name": "Lone Eagle", "natural": "peak"}}, {"name": "", "latitude": 38.9174806, "longitude": -105.1859392, "elevation": 2909.0, "source": "osm", "_tags": {"ele": "2909", "natural": "peak"}}, {"name": "", "latitude": 38.8646196, "longitude": -105.1979173, "elevation": 2759.0, "source": "osm", "_tags": {"ele": "2759", "natural": "peak"}}, {"name": "", "latitude": 38.8682697, "longitude": -105.2089722, "elevation": 2844.0, "source": "osm", "_tags": {"ele": "2844", "natural": "peak"}}, {"name": "", "latitude": 38.857456, "longitude": -105.2061126, "elevation": 2866.0, "source": "osm", "_tags": {"ele": "2866", "natural": "peak"}}, {"name": "", "latitude": 38.8506958, "longitude": -105.2193886, "elevation": 2836.0, "source": "osm", "_tags": {"ele": "2836", "natural": "peak"}}, {"name": "Four Mile", "latitude": 38.8457343, "longitude": -105.2123386, "elevation": 2782.0, "source": "osm", "_tags": {"ele": "2782", "name": "Four Mile", "natural": "peak"}}, {"name": "Dome Rock", "latitude": 38.8350887, "longitude": -105.228055, "elevation": 2757.0, "source": "osm", "_tags": {"ele": "2757", "name": "Dome Rock", "natural": "peak"}}, {"name": "", "latitude": 38.8295564, "longitude": -105.1883301, "elevation": 2814.0, "source": "osm", "_tags": {"ele": "2814", "natural": "peak"}}, {"name": "", "latitude": 38.8475729, "longitude": -105.1886301, "elevation": 2919.0, "source": "osm", "_tags": {"ele": "2919", "natural": "peak"}}, {"name": "", "latitude": 38.8459234, "longitude": -105.1749288, "elevation": 2892.0, "source": "osm", "_tags": {"ele": "2892", "natural": "peak"}}, {"name": "", "latitude": 38.8594607, "longitude": -105.1862551, "elevation": 2909.0, "source": "osm", "_tags": {"ele": "2909", "natural": "peak"}}, {"name": "Little Pikes Peak", "latitude": 38.8494596, "longitude": -105.0596754, "elevation": 4073.0, "source": "osm", "_tags": {"ele": "4073", "name": "Little Pikes Peak", "natural": "peak"}}, {"name": "Devil's Playground", "latitude": 38.8642018, "longitude": -105.0708449, "elevation": 3984.0, "source": "osm", "_tags": {"ele": "3984", "name": "Devil's Playground", "natural": "peak"}}, {"name": "Sheep Rock", "latitude": 39.1895149, "longitude": -105.3303443, "elevation": 2712.0, "source": "osm", "_tags": {"ele": "2712", "name": "Sheep Rock", "natural": "peak"}}, {"name": "Fall Mountain", "latitude": 39.0629816, "longitude": -104.925152, "elevation": 2551.0, "source": "osm", "_tags": {"description": "Minor mountain in Colorado USA", "ele": "2551", "name": "Fall Mountain", "natural": "peak"}}, {"name": "Battle Mountain", "latitude": 38.7203765, "longitude": -105.1386634, "elevation": null, "source": "osm", "_tags": {"gnis:feature_id": "2814070", "name": "Battle Mountain", "natural": "peak"}}, {"name": "Peppermint Ridge High Point", "latitude": 38.943941, "longitude": -104.8623773, "elevation": 2054.0, "source": "osm", "_tags": {"check_date": "2022-01-30", "ele": "2054", "name": "Peppermint Ridge High Point", "natural": "peak", "source": "survey;local knowledge;gps"}}, {"name": "Tuckaway Mountain", "latitude": 38.8141102, "longitude": -104.9712328, "elevation": 3303.0, "source": "osm", "_tags": {"ele": "3303", "name": "Tuckaway Mountain", "natural": "peak"}}, {"name": "Loftin's Lookout", "latitude": 38.9209058, "longitude": -104.9466307, "elevation": 2930.0, "source": "osm", "_tags": {"ele": "2930", "name": "Loftin's Lookout", "natural": "peak"}}, {"name": "Bear Creek Peak", "latitude": 38.8277921, "longitude": -104.905635, "elevation": 2476.0, "source": "osm", "_tags": {"alt_name": "Birthday Bruce Peak", "ele": "2476", "name": "Bear Creek Peak", "natural": "peak"}}, {"name": "Gendron Peak", "latitude": 38.7421318, "longitude": -104.922812, "elevation": 3074.0, "source": "osm", "_tags": {"ele": "3074", "name": "Gendron Peak", "natural": "peak"}}, {"name": "Runs-Down-Fast-Mountain", "latitude": 38.7904026, "longitude": -104.9642445, "elevation": 3366.0, "source": "osm", "_tags": {"ele": "3366", "name": "Runs-Down-Fast-Mountain", "natural": "peak"}}, {"name": "Rock Island Hill", "latitude": 38.8588203, "longitude": -104.7414847, "elevation": 1982.0, "source": "osm", "_tags": {"ele": "1982", "name": "Rock Island Hill", "natural": "peak"}}, {"name": "Baby Goat", "latitude": 38.6973096, "longitude": -104.8519953, "elevation": 2296.0, "source": "osm", "_tags": {"ele": "2296", "name": "Baby Goat", "natural": "peak"}}, {"name": "Goat Mountain", "latitude": 38.704966, "longitude": -104.8758006, "elevation": 2601.0, "source": "osm", "_tags": {"ele": "2601", "name": "Goat Mountain", "natural": "peak"}}]