[{"name": "Pyramid Peak", "latitude": 38.845009, "longitude": -120.1578443, "elevation": 3042.818, "source": "osm", "_tags": {"ele": "3042.818", "gnis:feature_id": "265078", "name": "Pyramid Peak", "natural": "peak", "wikidata": "Q7263270"}}, {"name": "Hot Springs Mountain", "latitude": 39.0660202, "longitude": -119.7215664, "elevation": 1808.0, "source": "osm", "_tags": {"ele": "1808", "gnis:feature_id": "841162", "name": "Hot Springs Mountain", "natural": "peak", "wikidata": "Q49037573"}}, {"name": "Folsom Peak", "latitude": 38.9771302, "longitude": -119.9165692, "elevation": 2093.0, "source": "osm", "_tags": {"ele": "2093", "gnis:feature_id": "846383", "name": "Folsom Peak", "natural": "peak", "wikidata": "Q49029894"}}, {"name": "Mount Scott", "latitude": 39.2618558, "longitude": -119.7051804, "elevation": 2272.0, "source": "osm", "_tags": {"ele": "2272", "gnis:feature_id": "848372", "name": "Mount Scott", "natural": "peak"}}, {"name": "McClellan Peak", "latitude": 39.2576891, "longitude": -119.7110139, "elevation": 2271.0, "source": "osm", "_tags": {"ele": "2271", "gnis:feature_id": "857471", "name": "McClellan Peak", "natural": "peak"}}, {"name": "Mount Baldy", "latitude": 39.2785182, "longitude": -120.0001918, "elevation": 2826.0, "source": "osm", "_tags": {"ele": "2826", "gnis:feature_id": "858803", "name": "Mount Baldy", "natural": "peak", "wikidata": "Q6919586"}}, {"name": "C Hill", "latitude": 39.1562981, "longitude": -119.7912928, "elevation": 1756.0, "source": "osm", "_tags": {"ele": "1756", "gnis:feature_id": "859114", "name": "C Hill", "natural": "peak", "wikidata": "Q49017428"}}, {"name": "Duane Bliss Peak", "latitude": 39.0805472, "longitude": -119.87802, "elevation": 2639.0, "source": "osm", "_tags": {"ele": "2639", "gnis:feature_id": "859590", "name": "Duane Bliss Peak", "natural": "peak", "wikidata": "Q49025997"}}, {"name": "Duck Hill", "latitude": 39.2246322, "longitude": -119.7796272, "elevation": 1780.0, "source": "osm", "_tags": {"ele": "1780", "gnis:feature_id": "859597", "name": "Duck Hill", "natural": "peak"}}, {"name": "East Peak", "latitude": 38.9425077, "longitude": -119.9072069, "elevation": 2899.0, "source": "osm", "_tags": {"ele": "2899", "gnis:feature_id": "859631", "name": "East Peak", "natural": "peak", "wikidata": "Q19461486"}}, {"name": "Genoa Peak", "latitude": 39.0429638, "longitude": -119.8812921, "elevation": 2788.0, "source": "osm", "_tags": {"ele": "2788", "gnis:feature_id": "859810", "name": "Genoa Peak", "natural": "peak", "wikidata": "Q49031271"}}, {"name": "Indian Mountain", "latitude": 39.2115769, "longitude": -119.7532372, "elevation": 1646.0, "source": "osm", "_tags": {"ele": "1646", "gnis:feature_id": "860123", "name": "Indian Mountain", "natural": "peak"}}, {"name": "Marlette Peak", "latitude": 39.1882417, "longitude": -119.8951854, "elevation": 2661.0, "source": "osm", "_tags": {"ele": "2661", "gnis:feature_id": "860478", "name": "Marlette Peak", "natural": "peak"}}, {"name": "Nine Hill", "latitude": 39.2360216, "longitude": -119.7521266, "elevation": 1842.0, "source": "osm", "_tags": {"ele": "1842", "gnis:feature_id": "860736", "name": "Nine Hill", "natural": "peak"}}, {"name": "Round Mound", "latitude": 38.9855829, "longitude": -119.9498493, "elevation": 1996.0, "source": "osm", "_tags": {"ele": "1996", "gnis:feature_id": "861187", "name": "Round Mound", "natural": "peak", "wikidata": "Q49069700"}}, {"name": "Shakespeare Point", "latitude": 39.0799081, "longitude": -119.9371276, "elevation": 2148.0, "source": "osm", "_tags": {"ele": "2148", "gnis:feature_id": "861330", "name": "Shakespeare Point", "natural": "peak", "wikidata": "Q49072525"}}, {"name": "Snow Valley Peak", "latitude": 39.1537973, "longitude": -119.8829618, "elevation": 2803.0, "source": "osm", "_tags": {"ele": "2803", "gnis:feature_id": "861440", "name": "Snow Valley Peak", "natural": "peak", "wikidata": "Q7548328", "wikipedia": "en:Snow Valley Peak"}}, {"name": "South Camp Peak", "latitude": 39.0604638, "longitude": -119.8868482, "elevation": 2700.0, "source": "osm", "_tags": {"ele": "2700", "gnis:feature_id": "861454", "name": "South Camp Peak", "natural": "peak", "wikidata": "Q49075761"}}, {"name": "Sugarloaf", "latitude": 39.2146322, "longitude": -119.7696267, "elevation": 1806.0, "source": "osm", "_tags": {"ele": "1806", "gnis:feature_id": "861619", "name": "Sugarloaf", "natural": "peak"}}, {"name": "White Hill", "latitude": 39.0954638, "longitude": -119.9029606, "elevation": 2332.0, "source": "osm", "_tags": {"ele": "2332", "gnis:feature_id": "861968", "name": "White Hill", "natural": "peak", "wikidata": "Q49091581"}}, {"name": "Herlan Peak", "latitude": 39.2029589, "longitude": -119.9110704, "elevation": 2607.0, "source": "osm", "_tags": {"ele": "2607", "gnis:feature_id": "862220", "name": "Herlan Peak", "natural": "peak"}}, {"name": "Round Hill Sewage Hill", "latitude": 38.9812969, "longitude": -119.9293472, "elevation": 1968.0, "source": "osm", "_tags": {"ele": "1968", "gnis:feature_id": "863023", "name": "Round Hill Sewage Hill", "natural": "peak", "wikidata": "Q49069639"}}, {"name": "Bald Peak", "latitude": 38.3721334, "longitude": -119.7773996, "elevation": 2954.0, "source": "osm", "_tags": {"ele": "2954", "gnis:feature_id": "218607", "name": "Bald Peak", "natural": "peak", "wikidata": "Q35725528"}}, {"name": "Baltic Peak", "latitude": 38.6943491, "longitude": -120.51548, "elevation": 1541.0, "source": "osm", "_tags": {"ele": "1541", "gnis:feature_id": "218638", "name": "Baltic Peak", "natural": "peak", "wikidata": "Q28914149", "wikipedia": "en:Baltic Peak"}}, {"name": "Big Butte", "latitude": 38.6765716, "longitude": -120.5607595, "elevation": 1306.0, "source": "osm", "_tags": {"ele": "1306", "gnis:feature_id": "219141", "name": "Big Butte", "natural": "peak"}}, {"name": "Big Chief", "latitude": 39.2410175, "longitude": -120.1963068, "elevation": 2234.0, "source": "osm", "_tags": {"ele": "2234", "gnis:feature_id": "219159", "name": "Big Chief", "natural": "peak"}}, {"name": "Big Mountain", "latitude": 38.8357361, "longitude": -120.6365946, "elevation": 1283.0, "source": "osm", "_tags": {"ele": "1283", "gnis:feature_id": "219220", "name": "Big Mountain", "natural": "peak", "wikidata": "Q35727171"}}, {"name": "Black Dome", "latitude": 38.5312978, "longitude": -119.8451801, "elevation": 2760.0, "source": "osm", "_tags": {"ele": "2760", "gnis:feature_id": "219357", "name": "Black Dome", "natural": "peak", "wikidata": "Q21189332"}}, {"name": "Bull Run Peak", "latitude": 38.475464, "longitude": -119.89213, "elevation": 2893.0, "source": "osm", "_tags": {"ele": "2893", "gnis:feature_id": "220122", "name": "Bull Run Peak", "natural": "peak", "wikidata": "Q35730310"}}, {"name": "Cable Point", "latitude": 38.7921249, "longitude": -120.6774298, "elevation": 856.0, "source": "osm", "_tags": {"ele": "856", "gnis:feature_id": "220348", "name": "Cable Point", "natural": "peak"}}, {"name": "Cary Peak", "latitude": 38.7793501, "longitude": -119.8482339, "elevation": 2651.0, "source": "osm", "_tags": {"ele": "2651", "gnis:feature_id": "220656", "name": "Cary Peak", "natural": "peak", "wikidata": "Q35732923"}}, {"name": "Clinton Peak", "latitude": 38.3796346, "longitude": -120.675487, "elevation": 733.0, "source": "osm", "_tags": {"ele": "733", "gnis:feature_id": "221228", "name": "Clinton Peak", "natural": "peak", "wikidata": "Q35735035"}}, {"name": "Dardanelles Cone", "latitude": 38.4046336, "longitude": -119.8718473, "elevation": 2905.0, "source": "osm", "_tags": {"ele": "2905", "gnis:feature_id": "222012", "name": "Dardanelles Cone", "natural": "peak", "wikidata": "Q5222423"}}, {"name": "Devils Peak", "latitude": 39.0287955, "longitude": -120.2913042, "elevation": 2296.0, "source": "osm", "_tags": {"ele": "2296", "gnis:feature_id": "222320", "name": "Devils Peak", "natural": "peak", "wikidata": "Q49024549"}}, {"name": "Devils Peak", "latitude": 39.2820476, "longitude": -120.440398, "elevation": 2290.0, "source": "osm", "_tags": {"ele": "2290", "gnis:feature_id": "222321", "name": "Devils Peak", "natural": "peak"}}, {"name": "Dicks Peak", "latitude": 38.900502, "longitude": -120.1509717, "elevation": 3042.0, "source": "osm", "_tags": {"ele": "3042", "gnis:feature_id": "222367", "name": "Dicks Peak", "natural": "peak", "wikidata": "Q49024858"}}, {"name": "Disaster Peak", "latitude": 38.4486979, "longitude": -119.7337542, "elevation": 3053.0, "source": "osm", "_tags": {"ele": "3053", "gnis:feature_id": "222415", "name": "Disaster Peak", "natural": "peak", "wikidata": "Q49024981"}}, {"name": "Elephant Rock", "latitude": 38.4465158, "longitude": -119.9699307, "elevation": 2263.0, "source": "osm", "_tags": {"ele": "2263", "gnis:feature_id": "223089", "name": "Elephant Rock", "natural": "peak", "wikidata": "Q49027639"}}, {"name": "Flagpole Point", "latitude": 38.4593565, "longitude": -120.1107447, "elevation": 2413.0, "source": "osm", "_tags": {"ele": "2413", "gnis:feature_id": "223573", "name": "Flagpole Point", "natural": "peak", "wikidata": "Q49029263"}}, {"name": "Guide Peak", "latitude": 39.0376842, "longitude": -120.312694, "elevation": 2359.0, "source": "osm", "_tags": {"ele": "2359", "gnis:feature_id": "224708", "name": "Guide Peak", "natural": "peak", "wikidata": "Q49034265"}}, {"name": "Henry Peak", "latitude": 38.4868544, "longitude": -119.8801814, "elevation": 2843.0, "source": "osm", "_tags": {"ele": "2843", "gnis:feature_id": "225186", "name": "Henry Peak", "natural": "peak", "wikidata": "Q49036028"}}, {"name": "Highland Peak", "latitude": 38.5436921, "longitude": -119.7554967, "elevation": 3324.0, "source": "osm", "_tags": {"ele": "3324", "gnis:feature_id": "225297", "name": "Highland Peak", "natural": "peak", "wikidata": "Q49036458"}}, {"name": "Hiram Peak", "latitude": 38.4779484, "longitude": -119.8035327, "elevation": 2986.0, "source": "osm", "_tags": {"ele": "2986", "gnis:feature_id": "225366", "name": "Hiram Peak", "natural": "peak", "wikidata": "Q49036583"}}, {"name": "Iceberg Peak", "latitude": 38.4503266, "longitude": -119.8226751, "elevation": 2969.0, "source": "osm", "_tags": {"ele": "2969", "gnis:feature_id": "225820", "name": "Iceberg Peak", "natural": "peak", "wikidata": "Q49038237"}}, {"name": "Iowa Hill", "latitude": 38.7704584, "longitude": -120.6907638, "elevation": 867.0, "source": "osm", "_tags": {"ele": "867", "gnis:feature_id": "225965", "name": "Iowa Hill", "natural": "peak", "wikidata": "Q49038890"}}, {"name": "Iron Mountain", "latitude": 38.7037962, "longitude": -120.3563071, "elevation": 1902.0, "source": "osm", "_tags": {"ele": "1902", "gnis:feature_id": "225985", "name": "Iron Mountain", "natural": "peak", "wikidata": "Q49038993"}}, {"name": "Jacks Peak", "latitude": 38.8904633, "longitude": -120.1540764, "elevation": 3002.0, "source": "osm", "_tags": {"ele": "3002", "gnis:feature_id": "226070", "name": "Jacks Peak", "natural": "peak", "wikidata": "Q49039432"}}, {"name": "Jerrett Peak", "latitude": 39.0312951, "longitude": -120.3315836, "elevation": 2287.0, "source": "osm", "_tags": {"ele": "2287", "gnis:feature_id": "226212", "name": "Jerrett Peak", "natural": "peak", "wikidata": "Q49039732"}}, {"name": "Jobs Peak", "latitude": 38.8578003, "longitude": -119.8614955, "elevation": 3233.0, "source": "osm", "_tags": {"ele": "3233", "gnis:feature_id": "226251", "name": "Jobs Peak", "natural": "peak", "wikidata": "Q6206844"}}, {"name": "KT-22", "latitude": 39.1829177, "longitude": -120.2416764, "elevation": 2430.0, "source": "osm", "_tags": {"ele": "2430", "gnis:feature_id": "226407", "name": "KT-22", "natural": "peak"}}, {"name": "Leek Spring Hill", "latitude": 38.6293543, "longitude": -120.2774159, "elevation": 2323.0, "source": "osm", "_tags": {"ele": "2323", "gnis:feature_id": "226999", "name": "Leek Spring Hill", "natural": "peak", "wikidata": "Q49043888"}}, {"name": "Little Butte", "latitude": 38.665183, "longitude": -120.5527038, "elevation": 1142.0, "source": "osm", "_tags": {"ele": "1142", "gnis:feature_id": "227210", "name": "Little Butte", "natural": "peak", "wikidata": "Q49044741"}}, {"name": "Little Chief", "latitude": 39.2451842, "longitude": -120.2024182, "elevation": 2210.0, "source": "osm", "_tags": {"ele": "2210", "gnis:feature_id": "227222", "name": "Little Chief", "natural": "peak"}}, {"name": "Lookout Mountain", "latitude": 39.2624065, "longitude": -120.1463061, "elevation": 2466.0, "source": "osm", "_tags": {"ele": "2466", "gnis:feature_id": "227638", "name": "Lookout Mountain", "natural": "peak"}}, {"name": "McConnell Peak", "latitude": 38.9485185, "longitude": -120.2429683, "elevation": 2770.0, "source": "osm", "_tags": {"ele": "2770", "gnis:feature_id": "228316", "name": "McConnell Peak", "natural": "peak", "wikidata": "Q8523856"}}, {"name": "McKinstry Peak", "latitude": 39.0521282, "longitude": -120.3465846, "elevation": 2415.0, "source": "osm", "_tags": {"ele": "2415", "gnis:feature_id": "228419", "name": "McKinstry Peak", "natural": "peak", "wikidata": "Q49048931"}}, {"name": "Middle Butte", "latitude": 38.6707383, "longitude": -120.556315, "elevation": 1260.0, "source": "osm", "_tags": {"ele": "1260", "gnis:feature_id": "228577", "name": "Middle Butte", "natural": "peak", "wikidata": "Q49049789"}}, {"name": "Middle Mountain", "latitude": 38.9565743, "longitude": -120.1812994, "elevation": 2539.0, "source": "osm", "_tags": {"ele": "2539", "gnis:feature_id": "228607", "name": "Middle Mountain", "natural": "peak", "wikidata": "Q6841502"}}, {"name": "Osborne Hill", "latitude": 38.4749112, "longitude": -120.0193525, "elevation": 2381.0, "source": "osm", "_tags": {"ele": "2381", "gnis:feature_id": "230131", "name": "Osborne Hill", "natural": "peak", "wikidata": "Q49058952"}}, {"name": "Painted Rock", "latitude": 39.2131922, "longitude": -120.1736318, "elevation": 2353.0, "source": "osm", "_tags": {"ele": "2353", "gnis:feature_id": "230238", "name": "Painted Rock", "natural": "peak"}}, {"name": "Peep Sight Peak", "latitude": 38.4971612, "longitude": -119.8518752, "elevation": 2950.0, "source": "osm", "_tags": {"ele": "2950", "gnis:feature_id": "230466", "name": "Peep Sight Peak", "natural": "peak", "wikidata": "Q49060524"}}, {"name": "Phipps Peak", "latitude": 38.9546298, "longitude": -120.1499094, "elevation": 2813.0, "source": "osm", "_tags": {"ele": "2813", "gnis:feature_id": "230605", "name": "Phipps Peak", "natural": "peak", "wikidata": "Q7186412"}}, {"name": "Mount Pluto", "latitude": 39.2415733, "longitude": -120.1396385, "elevation": 2625.0, "source": "osm", "_tags": {"ele": "2625", "gnis:feature_id": "230831", "name": "Mount Pluto", "natural": "peak", "wikidata": "Q6923001"}}, {"name": "Red Mountain", "latitude": 39.0068505, "longitude": -120.3574173, "elevation": 2088.0, "source": "osm", "_tags": {"ele": "2088", "gnis:feature_id": "231351", "name": "Red Mountain", "natural": "peak", "wikidata": "Q49067615"}}, {"name": "Red Peak", "latitude": 38.3818553, "longitude": -119.7432318, "elevation": 3050.0, "source": "osm", "_tags": {"ele": "3050", "gnis:feature_id": "231365", "name": "Red Peak", "natural": "peak", "wikidata": "Q49067853"}}, {"name": "Red Peak", "latitude": 38.9254632, "longitude": -120.2213009, "elevation": 2833.0, "source": "osm", "_tags": {"ele": "2833", "gnis:feature_id": "231366", "name": "Red Peak", "natural": "peak", "wikidata": "Q7304711"}}, {"name": "Rubicon Peak", "latitude": 38.9885188, "longitude": -120.133242, "elevation": 2798.0, "source": "osm", "_tags": {"ele": "2798", "gnis:feature_id": "231997", "name": "Rubicon Peak", "natural": "peak", "wikidata": "Q7376080"}}, {"name": "Sand Mountain", "latitude": 38.8718468, "longitude": -120.657706, "elevation": 1433.0, "source": "osm", "_tags": {"ele": "1433", "gnis:feature_id": "232506", "name": "Sand Mountain", "natural": "peak", "wikidata": "Q49071232"}}, {"name": "Sapps Hill", "latitude": 38.4140792, "longitude": -120.0279636, "elevation": 2225.0, "source": "osm", "_tags": {"ele": "2225", "gnis:feature_id": "232575", "name": "Sapps Hill", "natural": "peak", "wikidata": "Q49071422"}}, {"name": "Scott Peak", "latitude": 39.1579623, "longitude": -120.2224163, "elevation": 2517.0, "source": "osm", "_tags": {"ele": "2517", "gnis:feature_id": "232731", "name": "Scott Peak", "natural": "peak"}}, {"name": "Silver Peak", "latitude": 38.9344076, "longitude": -120.2304352, "elevation": 2724.0, "source": "osm", "_tags": {"ele": "2724", "gnis:feature_id": "233140", "name": "Silver Peak", "natural": "peak", "wikidata": "Q7516231"}}, {"name": "Silver Peak", "latitude": 39.2205022, "longitude": -120.2464253, "elevation": 2556.0, "source": "osm", "_tags": {"ele": "2556", "gnis:feature_id": "233141", "name": "Silver Peak", "natural": "peak"}}, {"name": "Slate Mountain", "latitude": 38.823553, "longitude": -120.6851484, "elevation": 1161.0, "source": "osm", "_tags": {"ele": "1161", "gnis:feature_id": "233244", "name": "Slate Mountain", "natural": "peak", "wikidata": "Q49074465"}}, {"name": "Snow Mountain", "latitude": 39.2410258, "longitude": -120.4638707, "elevation": 2436.0, "source": "osm", "_tags": {"ele": "2436", "gnis:feature_id": "234777", "name": "Snow Mountain", "natural": "peak"}}, {"name": "Steamboat Mountain", "latitude": 39.1110168, "longitude": -120.3526973, "elevation": 2236.0, "source": "osm", "_tags": {"ele": "2236", "gnis:feature_id": "235415", "name": "Steamboat Mountain", "natural": "peak"}}, {"name": "Sunflower Hill", "latitude": 39.1701821, "longitude": -120.4546463, "elevation": 2137.0, "source": "osm", "_tags": {"ele": "2137", "gnis:feature_id": "235781", "name": "Sunflower Hill", "natural": "peak"}}, {"name": "Tanners Point", "latitude": 39.032402, "longitude": -120.6382603, "elevation": 1256.0, "source": "osm", "_tags": {"ele": "1256", "gnis:feature_id": "236016", "name": "Tanners Point", "natural": "peak", "wikidata": "Q49081371"}}, {"name": "The Iceberg", "latitude": 38.4260832, "longitude": -119.7451858, "elevation": 2545.0, "source": "osm", "_tags": {"ele": "2545", "gnis:feature_id": "236183", "name": "The Iceberg", "natural": "peak", "wikidata": "Q49082513"}}, {"name": "The Pinnacles", "latitude": 39.0590725, "longitude": -120.3629741, "elevation": 2306.0, "source": "osm", "_tags": {"ele": "2306", "gnis:feature_id": "236212", "name": "The Pinnacles", "natural": "peak", "wikidata": "Q49082845"}}, {"name": "Ward Peak", "latitude": 39.1479622, "longitude": -120.2454723, "elevation": 2622.0, "source": "osm", "_tags": {"ele": "2622", "gnis:feature_id": "237232", "name": "Ward Peak", "natural": "peak"}}, {"name": "Mount Watson", "latitude": 39.2201844, "longitude": -120.1471381, "elevation": 2566.0, "source": "osm", "_tags": {"ele": "2566", "gnis:feature_id": "237353", "name": "Mount Watson", "natural": "peak"}}, {"name": "Mount Zion", "latitude": 38.389912, "longitude": -120.6518749, "elevation": 899.0, "source": "osm", "_tags": {"ele": "899", "gnis:feature_id": "238322", "name": "Mount Zion", "natural": "peak", "wikidata": "Q49055336"}}, {"name": "Jakes Peak", "latitude": 38.9699077, "longitude": -120.1226862, "elevation": 2797.0, "source": "osm", "_tags": {"ele": "2797", "gnis:feature_id": "252309", "name": "Jakes Peak", "natural": "peak", "wikidata": "Q49039536"}}, {"name": "Trimmer Peak", "latitude": 38.8715738, "longitude": -119.9229581, "elevation": 3016.0, "source": "osm", "_tags": {"ele": "3016", "gnis:feature_id": "252426", "name": "Trimmer Peak", "natural": "peak"}}, {"name": "Lighting Mountain", "latitude": 38.448521, "longitude": -119.782678, "elevation": 2835.0, "source": "osm", "_tags": {"ele": "2835", "gnis:feature_id": "253268", "name": "Lighting Mountain", "natural": "peak", "wikidata": "Q49044184"}}, {"name": "Night Cap Peak", "latitude": 38.3076697, "longitude": -119.691156, "elevation": 3243.0, "source": "osm", "_tags": {"ele": "3243", "gnis:feature_id": "254972", "name": "Night Cap Peak", "natural": "peak", "wikidata": "Q49056932"}}, {"name": "Airola Peak", "latitude": 38.4576374, "longitude": -119.8155125, "elevation": 3030.0, "source": "osm", "_tags": {"ele": "3030", "gnis:feature_id": "256143", "name": "Airola Peak", "natural": "peak", "wikidata": "Q35723671"}}, {"name": "Anderson Peak", "latitude": 39.2590724, "longitude": -120.2968656, "elevation": 2646.0, "source": "osm", "_tags": {"ele": "2646", "gnis:feature_id": "256241", "name": "Anderson Peak", "natural": "peak"}}, {"name": "Angora Peak", "latitude": 38.8671244, "longitude": -120.0731212, "elevation": 2618.0, "source": "osm", "_tags": {"ele": "2618", "gnis:feature_id": "256261", "name": "Angora Peak", "natural": "peak", "wikidata": "Q4763852", "wikipedia": "en:Angora Peak"}}, {"name": "Armstrong Hill", "latitude": 38.5421317, "longitude": -120.3838095, "elevation": 1735.0, "source": "osm", "_tags": {"ele": "1735", "gnis:feature_id": "256323", "name": "Armstrong Hill", "natural": "peak"}}, {"name": "Arnot Peak", "latitude": 38.4728095, "longitude": -119.7596112, "elevation": 3059.0, "source": "osm", "_tags": {"ele": "3059", "gnis:feature_id": "256327", "name": "Arnot Peak", "natural": "peak", "wikidata": "Q35724427"}}, {"name": "Bald Mountain", "latitude": 38.4193563, "longitude": -120.4435341, "elevation": 1247.0, "source": "osm", "_tags": {"ele": "1247", "gnis:feature_id": "256460", "name": "Bald Mountain", "natural": "peak", "wikidata": "Q35725142"}}, {"name": "Bald Mountain", "latitude": 38.7668527, "longitude": -120.2221345, "elevation": 2131.0, "source": "osm", "_tags": {"ele": "2131", "gnis:feature_id": "256461", "name": "Bald Mountain", "natural": "peak", "wikidata": "Q35725151"}}, {"name": "Barker Peak", "latitude": 39.0793513, "longitude": -120.2388036, "elevation": 2489.0, "source": "osm", "_tags": {"ele": "2489", "gnis:feature_id": "256522", "name": "Barker Peak", "natural": "peak"}}, {"name": "Big Hill", "latitude": 38.8426918, "longitude": -120.4078088, "elevation": 1873.0, "source": "osm", "_tags": {"ele": "1873", "gnis:feature_id": "256941", "name": "Big Hill", "natural": "peak", "tourism": "viewpoint", "wikidata": "Q35727100"}}, {"name": "Big Mountain", "latitude": 38.5765737, "longitude": -120.5052024, "elevation": 1395.0, "source": "osm", "_tags": {"ele": "1395", "gnis:feature_id": "256975", "name": "Big Mountain", "natural": "peak", "wikidata": "Q35727163"}}, {"name": "Black Mountain", "latitude": 39.2826794, "longitude": -120.6065983, "elevation": 2131.0, "source": "osm", "_tags": {"ele": "2131", "gnis:feature_id": "257134", "name": "Black Mountain", "natural": "peak"}}, {"name": "Blue Mountain", "latitude": 38.8482412, "longitude": -120.197689, "elevation": 2674.0, "source": "osm", "_tags": {"ele": "2674", "gnis:feature_id": "257264", "name": "Blue Mountain", "natural": "peak", "wikidata": "Q4929491"}}, {"name": "Brockway Summit", "latitude": 39.2610178, "longitude": -120.071304, "elevation": 2197.0, "source": "osm", "_tags": {"ele": "2197", "gnis:feature_id": "257473", "name": "Brockway Summit", "natural": "peak"}}, {"name": "Brown Mountain", "latitude": 38.9886072, "longitude": -120.2881328, "elevation": 2178.0, "source": "osm", "_tags": {"ele": "2178", "gnis:feature_id": "257492", "name": "Brown Mountain", "natural": "peak", "wikidata": "Q35729521"}}, {"name": "Bunker Hill", "latitude": 39.0493501, "longitude": -120.3804746, "elevation": 2300.0, "source": "osm", "_tags": {"ele": "2300", "gnis:feature_id": "257687", "name": "Bunker Hill", "natural": "peak", "wikidata": "Q35730419"}}, {"name": "Canada Hill", "latitude": 39.1762922, "longitude": -120.529371, "elevation": 2048.0, "source": "osm", "_tags": {"ele": "2048", "gnis:feature_id": "257926", "name": "Canada Hill", "natural": "peak"}}, {"name": "Castle Point", "latitude": 38.7046305, "longitude": -120.1201872, "elevation": 2444.0, "source": "osm", "_tags": {"ele": "2444", "gnis:feature_id": "258065", "name": "Castle Point", "natural": "peak", "wikidata": "Q35733098"}}, {"name": "Chaix Mountain", "latitude": 38.8362923, "longitude": -120.5765926, "elevation": 1471.0, "source": "osm", "_tags": {"ele": "1471", "gnis:feature_id": "258178", "name": "Chaix Mountain", "natural": "peak", "wikidata": "Q35733871"}}, {"name": "Cherry Point", "latitude": 39.258792, "longitude": -120.5121498, "elevation": 2048.0, "source": "osm", "_tags": {"ele": "2048", "gnis:feature_id": "258253", "name": "Cherry Point", "natural": "peak"}}, {"name": "Chipmunk Bluff", "latitude": 38.9690731, "longitude": -120.3376942, "elevation": 2030.0, "source": "osm", "_tags": {"ele": "2030", "gnis:feature_id": "258330", "name": "Chipmunk Bluff", "natural": "peak", "wikidata": "Q35734491"}}, {"name": "Colorado Hill", "latitude": 38.6707396, "longitude": -119.7093413, "elevation": 2278.0, "source": "osm", "_tags": {"ele": "2278", "gnis:feature_id": "258606", "name": "Colorado Hill", "natural": "peak", "wikidata": "Q35735532"}}, {"name": "Cracked Crag", "latitude": 38.8690744, "longitude": -120.1296311, "elevation": 2667.0, "source": "osm", "_tags": {"ele": "2667", "gnis:feature_id": "258857", "name": "Cracked Crag", "natural": "peak", "wikidata": "Q35736332"}}, {"name": "Deer Knob", "latitude": 38.8899053, "longitude": -120.4338093, "elevation": 1711.0, "source": "osm", "_tags": {"ele": "1711", "gnis:feature_id": "259230", "name": "Deer Knob", "natural": "peak", "wikidata": "Q35737234"}}, {"name": "Devil Peak", "latitude": 38.9587928, "longitude": -120.5479796, "elevation": 1611.0, "source": "osm", "_tags": {"ele": "1611", "gnis:feature_id": "259294", "name": "Devil Peak", "natural": "peak", "wikidata": "Q49024418"}}, {"name": "Devils Nose", "latitude": 38.4629664, "longitude": -120.4201999, "elevation": 1445.0, "source": "osm", "_tags": {"ele": "1445", "gnis:feature_id": "259324", "name": "Devils Nose", "natural": "peak", "wikidata": "Q49024542"}}, {"name": "Duncan Peak", "latitude": 39.1543481, "longitude": -120.5127035, "elevation": 2160.0, "source": "osm", "_tags": {"ele": "2160", "gnis:feature_id": "259610", "name": "Duncan Peak", "natural": "peak"}}, {"name": "Eagle Rock", "latitude": 38.7682414, "longitude": -120.2682473, "elevation": 1897.0, "source": "osm", "_tags": {"ele": "1897", "gnis:feature_id": "259677", "name": "Eagle Rock", "natural": "peak", "wikidata": "Q49026686"}}, {"name": "Echo Peak", "latitude": 38.8564458, "longitude": -120.0734303, "elevation": 2698.0, "source": "osm", "_tags": {"ele": "2698", "gnis:feature_id": "259790", "name": "Echo Peak", "natural": "peak", "wikidata": "Q5332740", "wikipedia": "en:Echo Peak"}}, {"name": "Elephants Back", "latitude": 38.6784231, "longitude": -119.9831527, "elevation": 2920.0, "source": "osm", "_tags": {"ele": "2920", "gnis:feature_id": "259835", "name": "Elephants Back", "natural": "peak", "wikidata": "Q49027663"}}, {"name": "Ellis Peak", "latitude": 39.0682404, "longitude": -120.197413, "elevation": 2648.0, "source": "osm", "_tags": {"ele": "2648", "gnis:feature_id": "259876", "name": "Ellis Peak", "natural": "peak"}}, {"name": "Flagpole Peak", "latitude": 38.8459269, "longitude": -120.057445, "elevation": 2549.0, "source": "osm", "_tags": {"ele": "2549", "gnis:feature_id": "260190", "name": "Flagpole Peak", "natural": "peak"}}, {"name": "Fort Mountain", "latitude": 38.3429696, "longitude": -120.4735353, "elevation": 999.0, "source": "osm", "_tags": {"ele": "999", "gnis:feature_id": "260279", "name": "Fort Mountain", "natural": "peak", "wikidata": "Q49030071"}}, {"name": "Four Cornered Peak", "latitude": 38.8585185, "longitude": -120.2890814, "elevation": 2072.0, "source": "osm", "_tags": {"ele": "2072", "gnis:feature_id": "260292", "name": "Four Cornered Peak", "natural": "peak", "wikidata": "Q49030203"}}, {"name": "Freel Peak", "latitude": 38.8575348, "longitude": -119.9002147, "elevation": 3305.0, "source": "osm", "_tags": {"ele": "3305", "gnis:feature_id": "260360", "name": "Freel Peak", "natural": "peak", "wikidata": "Q8526079", "wikipedia": "en:Freel Peak"}}, {"name": "Garnet Hill", "latitude": 38.4799126, "longitude": -120.2529721, "elevation": 1369.0, "source": "osm", "_tags": {"ele": "1369", "gnis:feature_id": "260489", "name": "Garnet Hill", "natural": "peak", "wikidata": "Q49031098"}}, {"name": "Granite Chief", "latitude": 39.1982695, "longitude": -120.2870419, "elevation": 2749.0, "source": "osm", "_tags": {"ele": "2749", "gnis:feature_id": "260740", "name": "Granite Chief", "natural": "peak", "wikidata": "Q5595839"}}, {"name": "Hawkins Peak", "latitude": 38.7385168, "longitude": -119.8724013, "elevation": 3052.0, "source": "osm", "_tags": {"ele": "3052", "gnis:feature_id": "261164", "name": "Hawkins Peak", "natural": "peak", "wikidata": "Q49035349"}}, {"name": "Da-ek Dow Go-et Mountain", "latitude": 38.6365743, "longitude": -119.896291, "elevation": 2764.0, "source": "osm", "_tags": {"ele": "2764", "gnis:feature_id": "261917", "name": "Da-ek Dow Go-et Mountain", "natural": "peak", "old_name": "Jeff Davis Peak", "wikidata": "Q49039640"}}, {"name": "Johnnys Hill", "latitude": 39.0054616, "longitude": -120.3763069, "elevation": 1994.0, "source": "osm", "_tags": {"ele": "1994", "gnis:feature_id": "261966", "name": "Johnnys Hill", "natural": "peak", "wikidata": "Q49039973"}}, {"name": "Keiths Dome", "latitude": 38.8594078, "longitude": -120.1063229, "elevation": 2637.0, "source": "osm", "_tags": {"ele": "2637", "gnis:feature_id": "262097", "name": "Keiths Dome", "natural": "peak", "wikidata": "Q49041036"}}, {"name": "Liberty Hill", "latitude": 38.3679695, "longitude": -120.1010217, "elevation": 2302.0, "source": "osm", "_tags": {"ele": "2302", "gnis:feature_id": "262433", "name": "Liberty Hill", "natural": "peak", "wikidata": "Q49044109"}}, {"name": "Little Bald Mountain", "latitude": 39.1443483, "longitude": -120.5079808, "elevation": 2190.0, "source": "osm", "_tags": {"ele": "2190", "gnis:feature_id": "262509", "name": "Little Bald Mountain", "natural": "peak"}}, {"name": "Little Sugar Pine Mountain", "latitude": 38.8629587, "longitude": -120.6004819, "elevation": 1492.0, "source": "osm", "_tags": {"ele": "1492", "gnis:feature_id": "262733", "name": "Little Sugar Pine Mountain", "natural": "peak"}}, {"name": "Lookout Mountain", "latitude": 38.8835147, "longitude": -120.5615918, "elevation": 1566.0, "source": "osm", "_tags": {"ele": "1566", "gnis:feature_id": "262900", "name": "Lookout Mountain", "natural": "peak"}}, {"name": "Lookout Peak", "latitude": 38.5106337, "longitude": -119.8732592, "elevation": 2919.0, "source": "osm", "_tags": {"ele": "2919", "gnis:feature_id": "262905", "name": "Lookout Peak", "natural": "peak", "wikidata": "Q49046719"}}, {"name": "Lost Corner Mountain", "latitude": 39.0134348, "longitude": -120.204336, "elevation": 2516.0, "source": "osm", "_tags": {"ele": "2516", "gnis:feature_id": "262929", "name": "Lost Corner Mountain", "natural": "peak", "wikidata": "Q8523893", "wikipedia": "en:Lost Corner Mountain"}}, {"name": "Lyon Peak", "latitude": 39.2068501, "longitude": -120.315476, "elevation": 2713.0, "source": "osm", "_tags": {"ele": "2713", "gnis:feature_id": "263084", "name": "Lyon Peak", "natural": "peak"}}, {"name": "Maggies Peaks", "latitude": 38.93152, "longitude": -120.1137201, "elevation": 2639.0, "source": "osm", "_tags": {"ele": "2639", "gnis:feature_id": "263117", "name": "Maggies Peaks", "natural": "peak", "wikidata": "Q6730348"}}, {"name": "Markleeville Peak", "latitude": 38.6615739, "longitude": -119.8979582, "elevation": 2864.0, "source": "osm", "_tags": {"ele": "2864", "gnis:feature_id": "263219", "name": "Markleeville Peak", "natural": "peak", "wikidata": "Q49047997"}}, {"name": "Mount Mildred", "latitude": 39.1458338, "longitude": -120.330194, "elevation": 2551.0, "source": "osm", "_tags": {"ele": "2551", "gnis:feature_id": "263568", "name": "Mount Mildred", "natural": "peak", "wikidata": "Q49053626"}}, {"name": "Mogul Peak", "latitude": 38.6887948, "longitude": -119.7179526, "elevation": 2298.0, "source": "osm", "_tags": {"ele": "2298", "gnis:feature_id": "263724", "name": "Mogul Peak", "natural": "peak", "wikidata": "Q49050860"}}, {"name": "Mokelumne Peak", "latitude": 38.5379662, "longitude": -120.0946327, "elevation": 2837.0, "source": "osm", "_tags": {"ele": "2837", "gnis:feature_id": "263730", "name": "Mokelumne Peak", "natural": "peak", "wikidata": "Q48800417"}}, {"name": "Needle Peak", "latitude": 39.2007392, "longitude": -120.3007532, "elevation": 2711.0, "source": "osm", "_tags": {"ele": "2711", "gnis:feature_id": "264020", "name": "Needle Peak", "natural": "peak"}}, {"name": "Painted Rock", "latitude": 39.2421277, "longitude": -120.320477, "elevation": 2035.0, "source": "osm", "_tags": {"ele": "2035", "gnis:feature_id": "264451", "name": "Painted Rock", "natural": "peak"}}, {"name": "Pickett Peak", "latitude": 38.7557392, "longitude": -119.9032353, "elevation": 2743.0, "source": "osm", "_tags": {"ele": "2743", "gnis:feature_id": "264702", "name": "Pickett Peak", "natural": "peak", "wikidata": "Q49061051"}}, {"name": "Mount Price", "latitude": 38.8638704, "longitude": -120.1747168, "elevation": 3040.0, "source": "osm", "_tags": {"ele": "3040", "gnis:feature_id": "265037", "name": "Mount Price", "natural": "peak", "wikidata": "Q6923042"}}, {"name": "Ralston Peak", "latitude": 38.833056, "longitude": -120.101828, "elevation": 2807.0, "source": "osm", "_tags": {"ele": "2807", "gnis:feature_id": "265157", "name": "Ralston Peak", "natural": "peak", "wikidata": "Q7288369"}}, {"name": "Raymond Peak", "latitude": 38.6037965, "longitude": -119.8332346, "elevation": 3055.0, "source": "osm", "_tags": {"ele": "3055", "gnis:feature_id": "265241", "name": "Raymond Peak", "natural": "peak", "wikidata": "Q49066972"}}, {"name": "Mount Reba", "latitude": 38.5076885, "longitude": -120.0287973, "elevation": 2663.0, "source": "osm", "_tags": {"ele": "2663", "gnis:feature_id": "265244", "name": "Mount Reba", "natural": "peak", "wikidata": "Q49054292"}}, {"name": "Red Star Point", "latitude": 39.0532372, "longitude": -120.5340912, "elevation": 1493.0, "source": "osm", "_tags": {"ele": "1493", "gnis:feature_id": "265334", "name": "Red Star Point", "natural": "peak"}}, {"name": "Reynolds Peak", "latitude": 38.5793525, "longitude": -119.8376795, "elevation": 2955.0, "source": "osm", "_tags": {"ele": "2955", "gnis:feature_id": "265386", "name": "Reynolds Peak", "natural": "peak", "wikidata": "Q49068316"}}, {"name": "Robbs Peak", "latitude": 38.9246279, "longitude": -120.4035302, "elevation": 2040.0, "source": "osm", "_tags": {"ele": "2040", "gnis:feature_id": "265451", "name": "Robbs Peak", "natural": "peak", "wikidata": "Q49068740"}}, {"name": "Round Mountain", "latitude": 38.5385185, "longitude": -120.616873, "elevation": 1063.0, "source": "osm", "_tags": {"ele": "1063", "gnis:feature_id": "265605", "name": "Round Mountain", "natural": "peak"}}, {"name": "Round Top", "latitude": 38.6636245, "longitude": -120.0010186, "elevation": 3164.0, "source": "osm", "_tags": {"ele": "3164", "gnis:feature_id": "265618", "name": "Round Top", "natural": "peak", "wikidata": "Q49069985", "wikipedia": "en:Round Top (Alpine County, California)"}}, {"name": "Saddle Mountain", "latitude": 38.84657, "longitude": -120.5835371, "elevation": 1555.0, "source": "osm", "_tags": {"ele": "1555", "gnis:feature_id": "265710", "name": "Saddle Mountain", "natural": "peak"}}, {"name": "Shovel Grave", "latitude": 38.4829678, "longitude": -120.1993591, "elevation": 2036.0, "source": "osm", "_tags": {"ele": "2036", "gnis:feature_id": "266145", "name": "Shovel Grave", "natural": "peak", "wikidata": "Q49073542"}}, {"name": "Silver Hill", "latitude": 38.6382402, "longitude": -119.6993411, "elevation": 2280.0, "source": "osm", "_tags": {"ele": "2280", "gnis:feature_id": "266190", "name": "Silver Hill", "natural": "peak", "wikidata": "Q49073889"}}, {"name": "Silver Hill", "latitude": 38.8985159, "longitude": -120.4688107, "elevation": 1855.0, "source": "osm", "_tags": {"ele": "1855", "gnis:feature_id": "266191", "name": "Silver Hill", "natural": "peak"}}, {"name": "Silver Peak", "latitude": 38.5640745, "longitude": -119.7601772, "elevation": 3283.0, "source": "osm", "_tags": {"ele": "3283", "gnis:feature_id": "266202", "name": "Silver Peak", "natural": "peak", "wikidata": "Q49073969"}}, {"name": "Slick Rock", "latitude": 38.8832406, "longitude": -120.288248, "elevation": 2210.0, "source": "osm", "_tags": {"ele": "2210", "gnis:feature_id": "266288", "name": "Slick Rock", "natural": "peak", "wikidata": "Q49074559"}}, {"name": "Blue Mountain", "latitude": 38.3424149, "longitude": -120.365198, "elevation": 1835.0, "source": "osm", "_tags": {"ele": "1835", "gnis:feature_id": "266469", "name": "Blue Mountain", "natural": "peak", "wikidata": "Q35728330"}}, {"name": "Sourdough Hill", "latitude": 39.0257405, "longitude": -120.2190793, "elevation": 2424.0, "source": "osm", "_tags": {"ele": "2424", "gnis:feature_id": "267401", "name": "Sourdough Hill", "natural": "peak", "wikidata": "Q49075674"}}, {"name": "Washeshu Peak", "latitude": 39.1807396, "longitude": -120.26964, "elevation": 2706.0, "source": "osm", "_tags": {"ele": "2706", "gnis:feature_id": "267636", "name": "Washeshu Peak", "name:etymology": "Washoe", "name:etymology:wikidata": "Q1456583", "natural": "peak", "old_name": "Squaw Peak", "wikidata": "Q49077319"}}, {"name": "Stevens Peak", "latitude": 38.7335179, "longitude": -119.9826822, "elevation": 3061.0, "source": "osm", "_tags": {"ele": "3061", "gnis:feature_id": "267734", "name": "Stevens Peak", "natural": "peak", "wikidata": "Q49078100"}}, {"name": "Sugar Pine Point", "latitude": 39.2468471, "longitude": -120.5443729, "elevation": 1882.0, "source": "osm", "_tags": {"ele": "1882", "gnis:feature_id": "267849", "name": "Sugar Pine Point", "natural": "peak"}}, {"name": "Sugarloaf", "latitude": 38.7768518, "longitude": -120.3088046, "elevation": 1486.0, "source": "osm", "_tags": {"ele": "1486", "gnis:feature_id": "267863", "name": "Sugarloaf", "natural": "peak", "wikidata": "Q49079195"}}, {"name": "Table Rock", "latitude": 38.8460186, "longitude": -120.2871369, "elevation": 1943.0, "source": "osm", "_tags": {"ele": "1943", "gnis:feature_id": "268055", "name": "Table Rock", "natural": "peak", "wikidata": "Q49080964"}}, {"name": "Tahoe Mountain", "latitude": 38.9101855, "longitude": -120.0357387, "elevation": 2205.0, "source": "osm", "_tags": {"ele": "2205", "gnis:feature_id": "268062", "name": "Tahoe Mountain", "natural": "peak"}}, {"name": "Talking Mountain", "latitude": 38.832752, "longitude": -120.069496, "elevation": 2688.0, "source": "osm", "_tags": {"ele": "2688", "gnis:feature_id": "268069", "name": "Talking Mountain", "natural": "peak", "wikidata": "Q7679830", "wikipedia": "en:Talking Mountain"}}, {"name": "Mount Tallac", "latitude": 38.9059727, "longitude": -120.0990192, "elevation": 2967.0, "source": "osm", "_tags": {"ele": "2967", "gnis:feature_id": "268072", "name": "Mount Tallac", "natural": "peak", "note": "corrected position according to USGS map and GPS measurement", "wikidata": "Q3322135"}}, {"name": "Tells Peak", "latitude": 38.9599073, "longitude": -120.2543576, "elevation": 2699.0, "source": "osm", "_tags": {"ele": "2699", "gnis:feature_id": "268137", "name": "Tells Peak", "natural": "peak", "wikidata": "Q7697644"}}, {"name": "The Nipple", "latitude": 38.6399079, "longitude": -119.9332372, "elevation": 2847.0, "source": "osm", "_tags": {"ele": "2847", "gnis:feature_id": "268202", "name": "The Nipple", "natural": "peak", "wikidata": "Q49082730"}}, {"name": "Thimble Peak", "latitude": 38.6624085, "longitude": -120.0604633, "elevation": 2988.0, "source": "osm", "_tags": {"ele": "2988", "gnis:feature_id": "268215", "name": "Thimble Peak", "natural": "peak", "wikidata": "Q49083112"}}, {"name": "Tinker Knob", "latitude": 39.244905, "longitude": -120.284643, "elevation": 2713.0, "source": "osm", "_tags": {"ele": "2713", "gnis:feature_id": "268295", "name": "Tinker Knob", "natural": "peak", "wikidata": "Q49083950", "wikipedia": "en:Tinker Knob"}}, {"name": "Tryon Peak", "latitude": 38.5218531, "longitude": -119.7879561, "elevation": 3041.0, "source": "osm", "_tags": {"ele": "3041", "gnis:feature_id": "268445", "name": "Tryon Peak", "natural": "peak", "wikidata": "Q49084996"}}, {"name": "Twin Peaks", "latitude": 39.112405, "longitude": -120.231583, "elevation": 2701.0, "source": "osm", "_tags": {"ele": "2701", "gnis:feature_id": "268540", "name": "Twin Peaks", "natural": "peak"}}, {"name": "Two Peaks", "latitude": 38.9035184, "longitude": -120.2826922, "elevation": 2306.0, "source": "osm", "_tags": {"ele": "2306", "gnis:feature_id": "268555", "name": "Two Peaks", "natural": "peak", "wikidata": "Q49086397"}}, {"name": "Whisky Hill", "latitude": 39.1937914, "longitude": -120.5760397, "elevation": 1776.0, "source": "osm", "_tags": {"ele": "1776", "gnis:feature_id": "268977", "name": "Whisky Hill", "natural": "peak"}}, {"name": "Deadwood Peak", "latitude": 38.6282418, "longitude": -119.9926836, "elevation": 2987.0, "source": "osm", "_tags": {"ele": "2987", "gnis:feature_id": "274712", "name": "Deadwood Peak", "natural": "peak", "wikidata": "Q35737081"}}, {"name": "Thunder Mountain", "latitude": 38.6741464, "longitude": -120.0908713, "elevation": 2865.0, "source": "osm", "_tags": {"ele": "2865", "gnis:feature_id": "274714", "name": "Thunder Mountain", "natural": "peak", "wikidata": "Q7798994"}}, {"name": "Pacific Grade Summit", "latitude": 38.5165764, "longitude": -119.909348, "elevation": 2464.0, "source": "osm", "_tags": {"ele": "2464", "gnis:feature_id": "274786", "mountain_pass": "yes", "name": "Pacific Grade Summit", "natural": "peak", "wikidata": "Q7122465", "wikipedia": "en:Pacific Grade Summit"}}, {"name": "Hartless Mountain", "latitude": 38.941572, "longitude": -120.4357536, "elevation": 1880.0, "source": "osm", "_tags": {"ele": "1880", "gnis:feature_id": "274835", "name": "Hartless Mountain", "natural": "peak"}}, {"name": "Wallace Peak", "latitude": 39.0454607, "longitude": -120.4488104, "elevation": 1863.0, "source": "osm", "_tags": {"ele": "1863", "gnis:feature_id": "276175", "name": "Wallace Peak", "natural": "peak", "wikidata": "Q49087424"}}, {"name": "Billy's Peak", "latitude": 39.237406, "longitude": -120.2740867, "elevation": 2623.0, "source": "osm", "_tags": {"ele": "2623", "gnis:feature_id": "277259", "name": "Billy's Peak", "natural": "peak"}}, {"name": "Melissa Coray Peak", "latitude": 38.6518529, "longitude": -120.0399072, "elevation": 2977.0, "source": "osm", "_tags": {"ele": "2977", "gnis:feature_id": "1652834", "name": "Melissa Coray Peak", "natural": "peak", "wikidata": "Q49049165"}}, {"name": "American Hill", "latitude": 39.1401803, "longitude": -120.5888168, "elevation": 1566.0, "source": "osm", "_tags": {"ele": "1566", "gnis:feature_id": "1655797", "name": "American Hill", "natural": "peak"}}, {"name": "Becker Peak", "latitude": 38.8323225, "longitude": -120.0597491, "elevation": 2520.0, "source": "osm", "_tags": {"ele": "2520", "gnis:feature_id": "1655821", "name": "Becker Peak", "natural": "peak", "wikidata": "Q35726744"}}, {"name": "Ebbetts Peak", "latitude": 38.5476862, "longitude": -119.8143456, "elevation": 2800.0, "source": "osm", "_tags": {"ele": "2800", "gnis:feature_id": "1655986", "name": "Ebbetts Peak", "natural": "peak", "wikidata": "Q49027146"}}, {"name": "Folger Peak", "latitude": 38.4957132, "longitude": -119.8163369, "elevation": 2938.0, "source": "osm", "_tags": {"ele": "2938", "gnis:feature_id": "1656021", "name": "Folger Peak", "natural": "peak", "wikidata": "Q49029887"}}, {"name": "Gardner Mountain", "latitude": 38.9123155, "longitude": -120.0164553, "elevation": 1944.0, "source": "osm", "_tags": {"ele": "1944", "gnis:feature_id": "1656040", "name": "Gardner Mountain", "natural": "peak"}}, {"name": "Inspiration Point", "latitude": 38.9466555, "longitude": -120.0989342, "elevation": 2081.0, "source": "osm", "_tags": {"ele": "2081", "gnis:feature_id": "1656093", "name": "Inspiration Point", "natural": "peak"}}, {"name": "Lynchburg Hill", "latitude": 38.9943469, "longitude": -120.6213148, "elevation": 1388.0, "source": "osm", "_tags": {"ele": "1388", "gnis:feature_id": "1656147", "name": "Lynchburg Hill", "natural": "peak", "wikidata": "Q49047243"}}, {"name": "Buck Mountain", "latitude": 38.3749139, "longitude": -120.3726983, "elevation": 1566.0, "source": "osm", "_tags": {"ele": "1566", "gnis:feature_id": "1656299", "name": "Buck Mountain", "natural": "peak", "wikidata": "Q35729839"}}, {"name": "Dome Rock", "latitude": 38.3388024, "longitude": -119.9760171, "elevation": 2235.0, "source": "osm", "_tags": {"ele": "2235", "gnis:feature_id": "1656305", "name": "Dome Rock", "natural": "peak", "wikidata": "Q49025394"}}, {"name": "Double Dome Rock", "latitude": 38.3399126, "longitude": -119.8765694, "elevation": 2401.0, "source": "osm", "_tags": {"ele": "2401", "gnis:feature_id": "1656307", "name": "Double Dome Rock", "natural": "peak", "wikidata": "Q49025586"}}, {"name": "Twin Peaks", "latitude": 38.8815743, "longitude": -120.0124047, "elevation": 2066.0, "source": "osm", "_tags": {"ele": "2066", "gnis:feature_id": "1656376", "name": "Twin Peaks", "natural": "peak"}}, {"name": "Alder Hill", "latitude": 38.6299102, "longitude": -120.2388034, "elevation": 2359.0, "source": "osm", "_tags": {"ele": "2359", "gnis:feature_id": "1657905", "name": "Alder Hill", "natural": "peak", "wikidata": "Q35723882"}}, {"name": "Big Bend", "latitude": 38.8499038, "longitude": -120.5338133, "elevation": 1357.0, "source": "osm", "_tags": {"ele": "1357", "gnis:feature_id": "1658049", "name": "Big Bend", "natural": "peak", "wikidata": "Q35727015"}}, {"name": "Bullshead", "latitude": 39.2346286, "longitude": -120.2013067, "elevation": 1927.0, "source": "osm", "_tags": {"ele": "1927", "gnis:feature_id": "1658168", "name": "Bullshead", "natural": "peak"}}, {"name": "Cement Hill", "latitude": 38.5607403, "longitude": -120.6127062, "elevation": 1018.0, "source": "osm", "_tags": {"ele": "1018", "gnis:feature_id": "1658247", "name": "Cement Hill", "natural": "peak"}}, {"name": "Mount Crossman", "latitude": 38.4651874, "longitude": -120.5329815, "elevation": 1184.0, "source": "osm", "_tags": {"ele": "1184", "gnis:feature_id": "1658354", "name": "Mount Crossman", "natural": "peak", "wikidata": "Q49052384"}}, {"name": "Mount Danaher", "latitude": 38.7443476, "longitude": -120.6688189, "elevation": 1026.0, "source": "osm", "_tags": {"ele": "1026", "gnis:feature_id": "1658373", "name": "Mount Danaher", "natural": "peak"}}, {"name": "Eagle Rock", "latitude": 39.1091581, "longitude": -120.1617782, "elevation": 1916.0, "source": "osm", "_tags": {"ele": "1916", "gnis:feature_id": "1658453", "name": "Eagle Rock", "natural": "peak"}}, {"name": "Grand Point", "latitude": 38.6587938, "longitude": -120.651874, "elevation": 728.0, "source": "osm", "_tags": {"ele": "728", "gnis:feature_id": "1658644", "name": "Grand Point", "natural": "peak"}}, {"name": "Inspiration Point", "latitude": 38.4735221, "longitude": -119.9876848, "elevation": 2415.0, "source": "osm", "_tags": {"ele": "2415", "gnis:feature_id": "1658825", "name": "Inspiration Point", "natural": "peak", "wikidata": "Q49038849"}}, {"name": "Lincoln Hill", "latitude": 38.6626832, "longitude": -120.5021463, "elevation": 1379.0, "source": "osm", "_tags": {"ele": "1379", "gnis:feature_id": "1658961", "name": "Lincoln Hill", "natural": "peak", "wikidata": "Q49044330"}}, {"name": "Little Mountain", "latitude": 38.5921288, "longitude": -120.5427037, "elevation": 1029.0, "source": "osm", "_tags": {"ele": "1029", "gnis:feature_id": "1658974", "name": "Little Mountain", "natural": "peak", "wikidata": "Q49045175"}}, {"name": "Little Steamboat Mountain", "latitude": 39.0987947, "longitude": -120.3485301, "elevation": 2075.0, "source": "osm", "_tags": {"ele": "2075", "gnis:feature_id": "1658985", "name": "Little Steamboat Mountain", "natural": "peak"}}, {"name": "Old Iron Mountain", "latitude": 38.7054622, "longitude": -120.3913084, "elevation": 1798.0, "source": "osm", "_tags": {"ele": "1798", "gnis:feature_id": "1659293", "name": "Old Iron Mountain", "natural": "peak", "wikidata": "Q49058455"}}, {"name": "Scott Hill", "latitude": 39.2554565, "longitude": -120.6649332, "elevation": 1625.0, "source": "osm", "_tags": {"ele": "1625", "gnis:feature_id": "1659611", "name": "Scott Hill", "natural": "peak"}}, {"name": "Peddler Hill", "latitude": 38.5779664, "longitude": -120.263805, "elevation": 2175.0, "source": "osm", "_tags": {"ele": "2175", "gnis:feature_id": "1659775", "name": "Peddler Hill", "natural": "peak", "wikidata": "Q49060482"}}, {"name": "Sun Rock", "latitude": 38.9262954, "longitude": -120.3338053, "elevation": 1991.0, "source": "osm", "_tags": {"ele": "1991", "gnis:feature_id": "1659917", "name": "Sun Rock", "natural": "peak", "wikidata": "Q49080031"}}, {"name": "Sunday Ridge", "latitude": 38.6524055, "longitude": -120.5399255, "elevation": 1233.0, "source": "osm", "_tags": {"ele": "1233", "gnis:feature_id": "1659918", "name": "Sunday Ridge", "natural": "peak"}}, {"name": "Texas Hill", "latitude": 39.2357346, "longitude": -120.6432652, "elevation": 1704.0, "source": "osm", "_tags": {"ele": "1704", "gnis:feature_id": "1659974", "name": "Texas Hill", "natural": "peak"}}, {"name": "Union Hill", "latitude": 38.7635146, "longitude": -120.5540923, "elevation": 1316.0, "source": "osm", "_tags": {"ele": "1316", "gnis:feature_id": "1660078", "name": "Union Hill", "natural": "peak"}}, {"name": "Quartz Mountain", "latitude": 39.2671242, "longitude": -120.5885417, "elevation": 2125.0, "source": "osm", "_tags": {"ele": "2125", "gnis:feature_id": "1662467", "name": "Quartz Mountain", "natural": "peak"}}, {"name": "Hope Mountain", "latitude": 38.6785161, "longitude": -120.5396476, "elevation": 1281.0, "source": "osm", "_tags": {"ele": "1281", "gnis:feature_id": "1662500", "name": "Hope Mountain", "natural": "peak", "wikidata": "Q49037052"}}, {"name": "Black Butte", "latitude": 38.683519, "longitude": -120.0224062, "elevation": 2743.0, "source": "osm", "_tags": {"ele": "2743", "gnis:feature_id": "1702065", "name": "Black Butte", "natural": "peak", "wikidata": "Q35727485"}}, {"name": "Covered Wagon Peak", "latitude": 38.6571307, "longitude": -120.0476852, "elevation": 2918.0, "source": "osm", "_tags": {"ele": "2918", "gnis:feature_id": "1702068", "name": "Covered Wagon Peak", "natural": "peak", "wikidata": "Q35736098"}}, {"name": "Fourth of July Peak", "latitude": 38.65879, "longitude": -120.0232796, "elevation": 2896.0, "source": "osm", "_tags": {"ele": "2896", "gnis:feature_id": "1702071", "name": "Fourth of July Peak", "natural": "peak", "wikidata": "Q49030260"}}, {"name": "The Sisters", "latitude": 38.6626859, "longitude": -120.0079614, "elevation": 3094.0, "source": "osm", "_tags": {"ele": "3094", "gnis:feature_id": "1702075", "name": "The Sisters", "natural": "peak", "wikidata": "Q49082969"}}, {"name": "Martin Point", "latitude": 38.6887972, "longitude": -120.0924086, "elevation": 2819.0, "source": "osm", "_tags": {"ele": "2819", "gnis:feature_id": "1702083", "name": "Martin Point", "natural": "peak", "wikidata": "Q49048109"}}, {"name": "Two Sentinels", "latitude": 38.6979637, "longitude": -120.0882416, "elevation": 2641.0, "source": "osm", "_tags": {"ele": "2641", "gnis:feature_id": "1702091", "name": "Two Sentinels", "natural": "peak", "wikidata": "Q49086410"}}, {"name": "Little Round Top", "latitude": 38.740185, "longitude": -120.0515733, "elevation": 2924.0, "source": "osm", "_tags": {"ele": "2924", "gnis:feature_id": "1702102", "name": "Little Round Top", "natural": "peak", "wikidata": "Q49045481"}}, {"name": "Thornburg Peak", "latitude": 38.6496292, "longitude": -119.8496236, "elevation": 2627.0, "source": "osm", "_tags": {"ele": "2627", "gnis:feature_id": "1802922", "name": "Thornburg Peak", "natural": "peak", "wikidata": "Q49083287"}}, {"name": "Poulsen Peak", "latitude": 39.209604, "longitude": -120.2361744, "elevation": 2332.0, "source": "osm", "_tags": {"ele": "2332", "gnis:feature_id": "2071321", "name": "Poulsen Peak", "natural": "peak"}}, {"name": "Cinder Cone", "latitude": 39.1917182, "longitude": -120.1834188, "elevation": 2337.0, "source": "osm", "_tags": {"ele": "2337", "name": "Cinder Cone", "natural": "peak"}}, {"name": "Castle Rock", "latitude": 38.989462, "longitude": -119.9086757, "elevation": 2404.48, "source": "osm", "_tags": {"ele": "2404.48", "name": "Castle Rock", "natural": "peak", "source": "USGS Topo; Yahoo"}}, {"name": "", "latitude": 38.8161836, "longitude": -120.0990819, "elevation": 2439.0, "source": "osm", "_tags": {"ele": "2439", "natural": "peak"}}, {"name": "", "latitude": 38.8251153, "longitude": -120.135343, "elevation": 2481.0, "source": "osm", "_tags": {"ele": "2481", "natural": "peak"}}, {"name": "", "latitude": 39.0082503, "longitude": -120.1440811, "elevation": 2407.0, "source": "osm", "_tags": {"ele": "2407", "natural": "peak"}}, {"name": "", "latitude": 39.0208615, "longitude": -120.1632068, "elevation": 2407.0, "source": "osm", "_tags": {"ele": "2407", "natural": "peak"}}, {"name": "", "latitude": 38.4880281, "longitude": -119.7951574, "elevation": 2814.0, "source": "osm", "_tags": {"ele": "2814", "natural": "peak"}}, {"name": "Glove Rock", "latitude": 38.678565, "longitude": -120.0843165, "elevation": 2853.0, "source": "osm", "_tags": {"ele": "2853", "name": "Glove Rock", "natural": "peak"}}, {"name": "Huckleberry Mt.", "latitude": 38.795765, "longitude": -120.0627954, "elevation": 2698.1, "source": "osm", "_tags": {"ele": "2698.1", "name": "Huckleberry Mt.", "natural": "peak"}}, {"name": "", "latitude": 38.6548796, "longitude": -119.9552809, "elevation": 2857.0, "source": "osm", "_tags": {"ele": "2857", "natural": "peak"}}, {"name": "Point Mariah", "latitude": 39.2659285, "longitude": -120.3964253, "elevation": null, "source": "osm", "_tags": {"name": "Point Mariah", "natural": "peak"}}, {"name": "Stanford Rock", "latitude": 39.1239043, "longitude": -120.2049796, "elevation": 2582.56, "source": "osm", "_tags": {"ele": "2582.56", "name": "Stanford Rock", "natural": "peak"}}, {"name": "Crag Peak", "latitude": 38.9851526, "longitude": -120.1641272, "elevation": 2658.0, "source": "osm", "_tags": {"ele": "2658", "name": "Crag Peak", "natural": "peak"}}, {"name": "", "latitude": 38.9944089, "longitude": -120.1655434, "elevation": 2383.0, "source": "osm", "_tags": {"ele": "2383", "natural": "peak"}}, {"name": "", "latitude": 38.9770627, "longitude": -120.1521538, "elevation": 2755.0, "source": "osm", "_tags": {"ele": "2755.0", "natural": "peak"}}, {"name": "", "latitude": 38.9836705, "longitude": -120.1295148, "elevation": 2825.0, "source": "osm", "_tags": {"ele": "2825", "natural": "peak"}}, {"name": "Knee Ridge", "latitude": 39.0628917, "longitude": -120.1856588, "elevation": 2565.0, "source": "osm", "_tags": {"ele": "2565", "name": "Knee Ridge", "natural": "peak"}}, {"name": "", "latitude": 38.9990103, "longitude": -120.1462372, "elevation": 2552.0, "source": "osm", "_tags": {"ele": "2552", "natural": "peak"}}, {"name": "Prison Hill", "latitude": 39.126632, "longitude": -119.721142, "elevation": 1744.0, "source": "osm", "_tags": {"ele": "1744", "name": "Prison Hill", "natural": "peak"}}, {"name": "Picnic Rock", "latitude": 39.2650048, "longitude": -120.0595707, "elevation": null, "source": "osm", "_tags": {"name": "Picnic Rock", "natural": "peak"}}, {"name": "Captain Pomin Rock", "latitude": 39.0959059, "longitude": -119.9236161, "elevation": 2298.0, "source": "osm", "_tags": {"ele": "2298", "name": "Captain Pomin Rock", "natural": "peak"}}, {"name": "Centennial Peak", "latitude": 39.202033, "longitude": -119.7151509, "elevation": 1647.0, "source": "osm", "_tags": {"ele": "1647", "name": "Centennial Peak", "natural": "peak"}}, {"name": "Barber Peak", "latitude": 38.7772917, "longitude": -119.7409678, "elevation": 1872.0, "source": "osm", "_tags": {"ele": "1872", "name": "Barber Peak", "natural": "peak"}}, {"name": "Reba", "latitude": 38.5089486, "longitude": -120.0164502, "elevation": 2695.0, "source": "osm", "_tags": {"ele": "2695", "name": "Reba", "natural": "peak"}}, {"name": "Haypress", "latitude": 38.7167963, "longitude": -119.7120898, "elevation": 2471.0, "source": "osm", "_tags": {"ele": "2471", "name": "Haypress", "natural": "peak"}}, {"name": "Wade Peak", "latitude": 38.8166392, "longitude": -119.8424878, "elevation": 2855.0, "source": "osm", "_tags": {"ele": "2855", "name": "Wade Peak", "natural": "peak"}}, {"name": "Indian Peak", "latitude": 38.5639654, "longitude": -119.8679587, "elevation": 2729.0, "source": "osm", "_tags": {"ele": "2729", "name": "Indian Peak", "natural": "peak"}}, {"name": "Carson Spur", "latitude": 38.7028904, "longitude": -120.1007441, "elevation": 2527.0, "source": "osm", "_tags": {"ele": "2527", "name": "Carson Spur", "natural": "peak", "wikidata": "Q49683936"}}, {"name": "Plasse Peak", "latitude": 38.6169845, "longitude": -120.1255492, "elevation": 2576.0, "source": "osm", "_tags": {"ele": "2576", "name": "Plasse Peak", "natural": "peak"}}, {"name": "", "latitude": 38.5275487, "longitude": -120.1588968, "elevation": 2106.0, "source": "osm", "_tags": {"ele": "2106", "natural": "peak"}}, {"name": "Wheeler Peak", "latitude": 38.5077267, "longitude": -119.9649564, "elevation": 2736.0, "source": "osm", "_tags": {"ele": "2736", "name": "Wheeler Peak", "natural": "peak"}}, {"name": "", "latitude": 38.4958376, "longitude": -119.973003, "elevation": 2594.0, "source": "osm", "_tags": {"ele": "2594", "natural": "peak"}}, {"name": "McCauley Peak", "latitude": 38.4942757, "longitude": -119.9558154, "elevation": 2409.0, "source": "osm", "_tags": {"ele": "2409", "name": "McCauley Peak", "natural": "peak"}}, {"name": "", "latitude": 38.4884792, "longitude": -119.8582334, "elevation": 2716.0, "source": "osm", "_tags": {"ele": "2716", "natural": "peak"}}, {"name": "", "latitude": 38.6131669, "longitude": -119.8876089, "elevation": 2432.0, "source": "osm", "_tags": {"ele": "2432", "natural": "peak"}}, {"name": "IXL Peak", "latitude": 38.6140345, "longitude": -119.789719, "elevation": 2580.0, "source": "osm", "_tags": {"ele": "2580", "name": "IXL Peak", "natural": "peak"}}, {"name": "Rock Cliff", "latitude": 38.8409013, "longitude": -119.6956578, "elevation": 1708.0, "source": "osm", "_tags": {"ele": "1708", "name": "Rock Cliff", "natural": "peak"}}, {"name": "Deer Peak", "latitude": 38.5439382, "longitude": -119.9015209, "elevation": 2338.0, "source": "osm", "_tags": {"ele": "2338", "name": "Deer Peak", "natural": "peak"}}, {"name": "Circle Peak", "latitude": 38.6932855, "longitude": -119.7308918, "elevation": 2110.0, "source": "osm", "_tags": {"ele": "2110", "name": "Circle Peak", "natural": "peak"}}, {"name": "Ledge", "latitude": 38.9505836, "longitude": -119.8749456, "elevation": 2469.0, "source": "osm", "_tags": {"ele": "2469", "name": "Ledge", "natural": "peak"}}, {"name": "Jobs Sister", "latitude": 38.8623424, "longitude": -119.8845479, "elevation": 3299.0, "source": "osm", "_tags": {"ele": "3299", "gnis:feature_id": "261954", "name": "Jobs Sister", "natural": "peak"}}, {"name": "Monument Peak", "latitude": 38.922806, "longitude": -119.89765, "elevation": 3068.0, "source": "osm", "_tags": {"ele": "3068", "gnis:feature_id": "228994", "name": "Monument Peak", "natural": "peak"}}, {"name": "Red Lake Peak", "latitude": 38.7121176, "longitude": -119.9873686, "elevation": 3067.0, "source": "osm", "_tags": {"ele": "3067", "gnis:feature_id": "265292", "name": "Red Lake Peak", "natural": "peak", "wikidata": "Q7304450"}}, {"name": "Thompson Peak", "latitude": 38.796707, "longitude": -119.94414, "elevation": 2847.0, "source": "osm", "_tags": {"ele": "2847", "gnis:feature_id": "268239", "name": "Thompson Peak", "natural": "peak"}}, {"name": "Waterhouse Peak", "latitude": 38.77618, "longitude": -119.96486, "elevation": 2895.0, "source": "osm", "_tags": {"ele": "2895", "gnis:feature_id": "268809", "name": "Waterhouse Peak", "natural": "peak"}}, {"name": "Agassiz", "latitude": 38.8575752, "longitude": -120.170379, "elevation": 3038.0, "source": "osm", "_tags": {"ele": "3038", "name": "Agassiz", "natural": "peak"}}, {"name": "Bear Top", "latitude": 38.4867425, "longitude": -120.0527755, "elevation": 2589.0, "source": "osm", "_tags": {"ele": "2589", "name": "Bear Top", "natural": "peak"}}, {"name": "Koala Top", "latitude": 38.4896141, "longitude": -120.0395294, "elevation": 2523.0, "source": "osm", "_tags": {"ele": "2523", "name": "Koala Top", "natural": "peak"}}, {"name": "Gold Star Peak", "latitude": 39.2567492, "longitude": -120.088126, "elevation": null, "source": "osm", "_tags": {"gnis:feature_id": "2745591", "name": "Gold Star Peak", "natural": "peak"}}, {"name": "Hidden Peak", "latitude": 38.9752557, "longitude": -120.1244385, "elevation": 2794.711, "source": "osm", "_tags": {"ele": "2794.711", "name": "Hidden Peak", "natural": "peak"}}, {"name": "", "latitude": 38.6663707, "longitude": -119.718499, "elevation": 2140.0, "source": "osm", "_tags": {"ele": "2140", "natural": "peak"}}, {"name": "", "latitude": 38.6424182, "longitude": -119.7045782, "elevation": 2221.0, "source": "osm", "_tags": {"ele": "2221", "natural": "peak"}}, {"name": "", "latitude": 38.6329738, "longitude": -119.7413654, "elevation": 2356.0, "source": "osm", "_tags": {"ele": "2356", "natural": "peak"}}, {"name": "", "latitude": 38.6351069, "longitude": -119.7316822, "elevation": 2090.0, "source": "osm", "_tags": {"ele": "2090", "natural": "peak"}}, {"name": "", "latitude": 38.6339853, "longitude": -119.7038387, "elevation": 2289.0, "source": "osm", "_tags": {"ele": "2289", "natural": "peak"}}, {"name": "", "latitude": 39.2589843, "longitude": -119.7177607, "elevation": null, "source": "osm", "_tags": {"ele:ft": "7323", "natural": "peak"}}, {"name": "", "latitude": 39.1072903, "longitude": -119.8199214, "elevation": 1969.0, "source": "osm", "_tags": {"ele": "1969", "natural": "peak"}}, {"name": "Maggies Peaks - North", "latitude": 38.9415195, "longitude": -120.1143899, "elevation": 2585.618, "source": "osm", "_tags": {"ele": "2585.618", "name": "Maggies Peaks - North", "natural": "peak", "short_name": "Maggie's North"}}, {"name": "Janine's Peak", "latitude": 38.9064979, "longitude": -120.1306321, "elevation": 2919.679, "source": "osm", "_tags": {"ele": "2919.679", "name": "Janine's Peak", "natural": "peak"}}, {"name": "Indian Rock", "latitude": 38.8648971, "longitude": -120.0759929, "elevation": 2627.071, "source": "osm", "_tags": {"ele": "2627.071", "name": "Indian Rock", "natural": "peak"}}, {"name": "Blackwood Ridge", "latitude": 39.0902098, "longitude": -120.1938599, "elevation": 2518.562, "source": "osm", "_tags": {"ele": "2518.562", "name": "Blackwood Ridge", "natural": "peak"}}, {"name": "McConnell Spur", "latitude": 38.9403886, "longitude": -120.2389426, "elevation": 2779.776, "source": "osm", "_tags": {"ele": "2779.776", "name": "McConnell Spur", "natural": "peak"}}, {"name": "Little Pyramid", "latitude": 38.8844907, "longitude": -120.187358, "elevation": 2876.398, "source": "osm", "_tags": {"ele": "2876.398", "name": "Little Pyramid", "natural": "peak"}}]