[{"name": "Eightmile Point", "latitude": 38.7574675, "longitude": -112.5513308, "elevation": 1608.0, "source": "osm", "_tags": {"ele": "1608", "gnis:feature_id": "1440872", "name": "Eightmile Point", "natural": "peak"}}, {"name": "Sixmile Point", "latitude": 38.771634, "longitude": -112.5204965, "elevation": 1648.0, "source": "osm", "_tags": {"ele": "1648", "gnis:feature_id": "1445627", "name": "Sixmile Point", "natural": "peak"}}, {"name": "Bald Knoll", "latitude": 39.0032942, "longitude": -111.9652081, "elevation": 2030.0, "source": "osm", "_tags": {"ele": "2030", "gnis:feature_id": "1425252", "name": "Bald Knoll", "natural": "peak"}}, {"name": "Bald Mountain", "latitude": 39.0727396, "longitude": -112.3891069, "elevation": 1499.0, "source": "osm", "_tags": {"ele": "1499", "gnis:feature_id": "1425259", "name": "Bald Mountain", "natural": "peak"}}, {"name": "Big Flat Top", "latitude": 38.2897639, "longitude": -111.7213534, "elevation": 2607.0, "source": "osm", "_tags": {"ele": "2607", "gnis:feature_id": "1425490", "name": "Big Flat Top", "natural": "peak"}}, {"name": "Black Point", "latitude": 38.8138547, "longitude": -112.6655013, "elevation": 1529.0, "source": "osm", "_tags": {"ele": "1529", "gnis:feature_id": "1425701", "name": "Black Point", "natural": "peak"}}, {"name": "Blue Mountain", "latitude": 39.2738482, "longitude": -112.2721616, "elevation": 2605.0, "source": "osm", "_tags": {"ele": "2605", "gnis:feature_id": "1425811", "name": "Blue Mountain", "natural": "peak"}}, {"name": "Cedar Mountain", "latitude": 39.0360735, "longitude": -112.3257717, "elevation": 1715.0, "source": "osm", "_tags": {"ele": "1715", "gnis:feature_id": "1426463", "name": "Cedar Mountain", "natural": "peak"}}, {"name": "Chalk Hill", "latitude": 39.1507949, "longitude": -111.7732564, "elevation": 1709.0, "source": "osm", "_tags": {"ele": "1709", "gnis:feature_id": "1426518", "name": "Chalk Hill", "natural": "peak"}}, {"name": "Cyclone Knoll", "latitude": 38.3299812, "longitude": -111.7776886, "elevation": 2619.0, "source": "osm", "_tags": {"ele": "2619", "gnis:feature_id": "1427174", "name": "Cyclone Knoll", "natural": "peak"}}, {"name": "Elsies Nipple", "latitude": 38.3372967, "longitude": -111.6956375, "elevation": 2548.0, "source": "osm", "_tags": {"ele": "2548", "gnis:feature_id": "1427808", "name": "Elsies Nipple", "natural": "peak"}}, {"name": "First Red Knoll", "latitude": 39.0060725, "longitude": -111.8857604, "elevation": 1652.0, "source": "osm", "_tags": {"ele": "1652", "gnis:feature_id": "1427950", "name": "First Red Knoll", "natural": "peak"}}, {"name": "Gillies Hill", "latitude": 38.4580263, "longitude": -112.6588322, "elevation": 2394.0, "source": "osm", "_tags": {"ele": "2394", "gnis:feature_id": "1428190", "name": "Gillies Hill", "natural": "peak"}}, {"name": "Knobby", "latitude": 39.1769044, "longitude": -112.5032773, "elevation": 1433.0, "source": "osm", "_tags": {"ele": "1433", "gnis:feature_id": "1429384", "name": "Knobby", "natural": "peak"}}, {"name": "Little Flat Top", "latitude": 38.2927595, "longitude": -111.7371321, "elevation": 2618.0, "source": "osm", "_tags": {"ele": "2618", "gnis:feature_id": "1429729", "name": "Little Flat Top", "natural": "peak"}}, {"name": "Moroni Peak", "latitude": 38.3488573, "longitude": -111.6966174, "elevation": 2479.0, "source": "osm", "_tags": {"ele": "2479", "gnis:feature_id": "1430501", "name": "Moroni Peak", "natural": "peak"}}, {"name": "Pahvant Butte", "latitude": 39.131627, "longitude": -112.552167, "elevation": 1750.0, "source": "osm", "_tags": {"alt_name": "Sugarloaf", "ele": "1750", "gnis:feature_id": "1431145", "name": "Pahvant Butte", "natural": "peak"}}, {"name": "Red Cedar Hill", "latitude": 39.0063518, "longitude": -112.2654921, "elevation": 1784.0, "source": "osm", "_tags": {"ele": "1784", "gnis:feature_id": "1431626", "name": "Red Cedar Hill", "natural": "peak"}}, {"name": "Red Knoll", "latitude": 38.3066486, "longitude": -111.834635, "elevation": 2795.0, "source": "osm", "_tags": {"ele": "2795", "gnis:feature_id": "1431656", "name": "Red Knoll", "natural": "peak"}}, {"name": "Rocky Point", "latitude": 39.1557945, "longitude": -111.838259, "elevation": 1650.0, "source": "osm", "_tags": {"ele": "1650", "gnis:feature_id": "1431969", "name": "Rocky Point", "natural": "peak", "wikidata": "Q49069239"}}, {"name": "Second Red Knoll", "latitude": 39.0132947, "longitude": -111.8815936, "elevation": 1628.0, "source": "osm", "_tags": {"ele": "1628", "gnis:feature_id": "1432302", "name": "Second Red Knoll", "natural": "peak"}}, {"name": "Tabernacle Hill", "latitude": 38.9096766, "longitude": -112.5295121, "elevation": 1493.0, "source": "osm", "_tags": {"ele": "1493", "gnis:feature_id": "1433155", "name": "Tabernacle Hill", "natural": "peak"}}, {"name": "Third Red Knoll", "latitude": 39.0182947, "longitude": -111.8774268, "elevation": 1624.0, "source": "osm", "_tags": {"ele": "1624", "gnis:feature_id": "1433460", "name": "Third Red Knoll", "natural": "peak"}}, {"name": "West Mountain", "latitude": 39.0177337, "longitude": -112.3823263, "elevation": 1559.0, "source": "osm", "_tags": {"ele": "1559", "gnis:feature_id": "1434100", "name": "West Mountain", "natural": "peak"}}, {"name": "White Mountain", "latitude": 38.91302, "longitude": -112.496886, "elevation": 1472.0, "source": "osm", "_tags": {"ele": "1472", "gnis:feature_id": "1434175", "name": "White Mountain", "natural": "peak"}}, {"name": "Woodtick Hill", "latitude": 38.4816375, "longitude": -112.6410538, "elevation": 2270.0, "source": "osm", "_tags": {"ele": "2270", "gnis:feature_id": "1434472", "name": "Woodtick Hill", "natural": "peak"}}, {"name": "Hoover Peak", "latitude": 38.5116414, "longitude": -112.2518701, "elevation": 2114.0, "source": "osm", "_tags": {"ele": "2114", "gnis:feature_id": "1435698", "name": "Hoover Peak", "natural": "peak"}}, {"name": "Abes Knoll", "latitude": 38.4230762, "longitude": -111.8493342, "elevation": 2581.0, "source": "osm", "_tags": {"ele": "2581", "gnis:feature_id": "1438116", "name": "Abes Knoll", "natural": "peak"}}, {"name": "Edna Peak", "latitude": 38.3852226, "longitude": -112.3334276, "elevation": 3552.0, "source": "osm", "_tags": {"ele": "3552", "gnis:feature_id": "1438134", "name": "Edna Peak", "natural": "peak"}}, {"name": "Antelope Range", "latitude": 38.534419, "longitude": -112.2163137, "elevation": 2255.0, "source": "osm", "_tags": {"ele": "2255", "gnis:feature_id": "1438243", "name": "Antelope Range", "natural": "peak"}}, {"name": "Mount Baldy", "latitude": 38.4019169, "longitude": -112.436322, "elevation": 3685.0, "source": "osm", "_tags": {"ele": "3685", "gnis:feature_id": "1438370", "name": "Mount Baldy", "natural": "peak", "wikidata": "Q28056284"}}, {"name": "Bean Hill", "latitude": 38.4130353, "longitude": -112.0582514, "elevation": 3060.0, "source": "osm", "_tags": {"ele": "3060", "gnis:feature_id": "1438435", "name": "Bean Hill", "natural": "peak"}}, {"name": "Beehive Peak", "latitude": 38.9357964, "longitude": -112.0790982, "elevation": 2674.0, "source": "osm", "_tags": {"ele": "2674", "gnis:feature_id": "1438564", "name": "Beehive Peak", "natural": "peak"}}, {"name": "Mount Belknap", "latitude": 38.4191396, "longitude": -112.4127098, "elevation": 3694.0, "source": "osm", "_tags": {"ele": "3694", "gnis:feature_id": "1438578", "name": "Mount Belknap", "natural": "peak"}}, {"name": "Big Table", "latitude": 38.4010906, "longitude": -112.0765856, "elevation": 3077.0, "source": "osm", "_tags": {"ele": "3077", "gnis:feature_id": "1438751", "name": "Big Table", "natural": "peak"}}, {"name": "Black Cap Mountain", "latitude": 38.9552411, "longitude": -111.8207566, "elevation": 2005.0, "source": "osm", "_tags": {"ele": "2005", "gnis:feature_id": "1438838", "name": "Black Cap Mountain", "natural": "peak"}}, {"name": "Black Knoll", "latitude": 38.8227438, "longitude": -111.9727035, "elevation": 1611.0, "source": "osm", "_tags": {"ele": "1611", "gnis:feature_id": "1438853", "name": "Black Knoll", "natural": "peak", "wikidata": "Q49013491"}}, {"name": "Black Mountain", "latitude": 38.8957984, "longitude": -111.826311, "elevation": 2015.0, "source": "osm", "_tags": {"ele": "2015", "gnis:feature_id": "1438863", "name": "Black Mountain", "natural": "peak"}}, {"name": "Black Rock Volcano", "latitude": 38.8063555, "longitude": -112.4843846, "elevation": 1583.0, "source": "osm", "_tags": {"ele": "1583", "gnis:feature_id": "1438877", "name": "Black Rock Volcano", "natural": "peak"}}, {"name": "Blue Peak", "latitude": 38.5516433, "longitude": -111.9215812, "elevation": 2592.0, "source": "osm", "_tags": {"ele": "2592", "gnis:feature_id": "1438948", "name": "Blue Peak", "natural": "peak"}}, {"name": "Boobe Hole Mountain", "latitude": 38.6966387, "longitude": -111.7435253, "elevation": 3242.0, "source": "osm", "_tags": {"ele": "3242", "gnis:feature_id": "1439003", "name": "Boobe Hole Mountain", "natural": "peak"}}, {"name": "Mount Brigham", "latitude": 38.3854712, "longitude": -112.3378962, "elevation": 3569.0, "source": "osm", "_tags": {"ele": "3569", "gnis:feature_id": "1439113", "name": "Mount Brigham", "natural": "peak"}}, {"name": "Bull Claim Hill", "latitude": 38.7366351, "longitude": -112.014369, "elevation": 2005.0, "source": "osm", "_tags": {"ele": "2005", "gnis:feature_id": "1439263", "name": "Bull Claim Hill", "natural": "peak"}}, {"name": "Carter Peak", "latitude": 38.8769096, "longitude": -111.8760347, "elevation": 2039.0, "source": "osm", "_tags": {"ele": "2039", "gnis:feature_id": "1439500", "name": "Carter Peak", "natural": "peak"}}, {"name": "Mount Catherine", "latitude": 38.9941293, "longitude": -112.1957684, "elevation": 3051.0, "source": "osm", "_tags": {"ele": "3051", "gnis:feature_id": "1439540", "name": "Mount Catherine", "natural": "peak"}}, {"name": "Cedar Knoll", "latitude": 38.4483041, "longitude": -112.6199414, "elevation": 2101.0, "source": "osm", "_tags": {"ele": "2101", "gnis:feature_id": "1439577", "name": "Cedar Knoll", "natural": "peak"}}, {"name": "Cedar Mountain", "latitude": 38.7849679, "longitude": -111.8929774, "elevation": 2335.0, "source": "osm", "_tags": {"ele": "2335", "gnis:feature_id": "1439580", "name": "Cedar Mountain", "natural": "peak"}}, {"name": "Cedar Mountain", "latitude": 38.9877414, "longitude": -111.7149196, "elevation": 2370.0, "source": "osm", "_tags": {"ele": "2370", "gnis:feature_id": "1439582", "name": "Cedar Mountain", "natural": "peak"}}, {"name": "City Creek Peak", "latitude": 38.3119195, "longitude": -112.3388182, "elevation": 3391.0, "source": "osm", "_tags": {"ele": "3391", "gnis:feature_id": "1439760", "name": "City Creek Peak", "natural": "peak"}}, {"name": "Coffee Peak", "latitude": 39.0599615, "longitude": -112.1377123, "elevation": 3038.0, "source": "osm", "_tags": {"ele": "3038", "gnis:feature_id": "1439855", "name": "Coffee Peak", "natural": "peak"}}, {"name": "Cove Mountain", "latitude": 38.6024745, "longitude": -111.960473, "elevation": 3260.0, "source": "osm", "_tags": {"ele": "3260", "gnis:feature_id": "1440072", "name": "Cove Mountain", "natural": "peak"}}, {"name": "Dairy Knoll", "latitude": 39.0905162, "longitude": -112.041044, "elevation": 1831.0, "source": "osm", "_tags": {"ele": "1831", "gnis:feature_id": "1440234", "name": "Dairy Knoll", "natural": "peak"}}, {"name": "Deer Trail Mountain", "latitude": 38.3838641, "longitude": -112.3068724, "elevation": 3283.0, "source": "osm", "_tags": {"ele": "3283", "gnis:feature_id": "1440403", "name": "Deer Trail Mountain", "natural": "peak"}}, {"name": "Delano Peak", "latitude": 38.3691407, "longitude": -112.3713194, "elevation": 3710.0, "source": "osm", "_tags": {"ele": "3710", "gnis:feature_id": "1440404", "name": "Delano Peak", "natural": "peak", "wikidata": "Q1183873"}}, {"name": "Dog Valley Mountain", "latitude": 38.6969129, "longitude": -112.5202177, "elevation": 2357.0, "source": "osm", "_tags": {"ele": "2357", "gnis:feature_id": "1440510", "name": "Dog Valley Mountain", "natural": "peak"}}, {"name": "Dog Valley Peak", "latitude": 38.6480247, "longitude": -112.5343842, "elevation": 2501.0, "source": "osm", "_tags": {"ele": "2501", "gnis:feature_id": "1440511", "name": "Dog Valley Peak", "natural": "peak"}}, {"name": "Tanner Mountain", "latitude": 38.3858043, "longitude": -112.5421596, "elevation": 2584.0, "source": "osm", "_tags": {"ele": "2584", "gnis:feature_id": "1440996", "name": "Tanner Mountain", "natural": "peak"}}, {"name": "Gold Mountain", "latitude": 38.4424731, "longitude": -112.3938203, "elevation": 3552.0, "source": "osm", "_tags": {"ele": "3552", "gnis:feature_id": "1441355", "name": "Gold Mountain", "natural": "peak"}}, {"name": "Granddad Peak", "latitude": 38.6560806, "longitude": -112.4441031, "elevation": 2377.0, "source": "osm", "_tags": {"ele": "2377", "gnis:feature_id": "1441405", "name": "Granddad Peak", "natural": "peak"}}, {"name": "Halfway Hill", "latitude": 38.909687, "longitude": -112.3391037, "elevation": 1780.0, "source": "osm", "_tags": {"ele": "1780", "gnis:feature_id": "1441549", "name": "Halfway Hill", "natural": "peak"}}, {"name": "Hennessy Point", "latitude": 38.3991416, "longitude": -112.3182617, "elevation": 3137.0, "source": "osm", "_tags": {"ele": "3137", "gnis:feature_id": "1441707", "name": "Hennessy Point", "natural": "peak"}}, {"name": "Hogback", "latitude": 38.4719165, "longitude": -112.4441, "elevation": 2751.0, "source": "osm", "_tags": {"ele": "2751", "gnis:feature_id": "1441800", "name": "Hogback", "natural": "peak"}}, {"name": "Mount Holly", "latitude": 38.3527522, "longitude": -112.3577077, "elevation": 3646.0, "source": "osm", "_tags": {"ele": "3646", "gnis:feature_id": "1441814", "name": "Mount Holly", "natural": "peak"}}, {"name": "Horse Heaven", "latitude": 38.3780309, "longitude": -112.3038167, "elevation": 3119.0, "source": "osm", "_tags": {"ele": "3119", "gnis:feature_id": "1441874", "name": "Horse Heaven", "natural": "peak"}}, {"name": "Indian Knoll", "latitude": 39.1341272, "longitude": -112.057711, "elevation": 1846.0, "source": "osm", "_tags": {"ele": "1846", "gnis:feature_id": "1442013", "name": "Indian Knoll", "natural": "peak"}}, {"name": "Joseph Peak", "latitude": 38.6771922, "longitude": -112.3054874, "elevation": 2844.0, "source": "osm", "_tags": {"ele": "2844", "gnis:feature_id": "1442015", "name": "Joseph Peak", "natural": "peak"}}, {"name": "Indian Peak", "latitude": 38.5563654, "longitude": -111.9621379, "elevation": 2990.0, "source": "osm", "_tags": {"ele": "2990", "gnis:feature_id": "1442017", "name": "Indian Peak", "natural": "peak"}}, {"name": "Jacks Peak", "latitude": 38.993851, "longitude": -112.1393785, "elevation": 3040.0, "source": "osm", "_tags": {"ele": "3040", "gnis:feature_id": "1442088", "name": "Jacks Peak", "natural": "peak"}}, {"name": "Johnson Peak", "latitude": 38.3146933, "longitude": -112.5193806, "elevation": 2716.0, "source": "osm", "_tags": {"ele": "2716", "gnis:feature_id": "1442190", "name": "Johnson Peak", "natural": "peak"}}, {"name": "Monument Hill", "latitude": 38.6396931, "longitude": -112.294375, "elevation": 2621.0, "source": "osm", "_tags": {"ele": "2621", "gnis:feature_id": "1442227", "name": "Monument Hill", "natural": "peak"}}, {"name": "Lake Peak", "latitude": 38.336215, "longitude": -112.3566014, "elevation": 3419.0, "source": "osm", "_tags": {"ele": "3419", "gnis:feature_id": "1442418", "name": "Lake Peak", "natural": "peak"}}, {"name": "Langdon", "latitude": 38.3910919, "longitude": -112.0193614, "elevation": 3148.0, "source": "osm", "_tags": {"ele": "3148", "gnis:feature_id": "1442436", "name": "Langdon", "natural": "peak"}}, {"name": "Leavitts Peak", "latitude": 38.7735789, "longitude": -112.2927113, "elevation": 2629.0, "source": "osm", "_tags": {"ele": "2629", "gnis:feature_id": "1442474", "name": "Leavitts Peak", "natural": "peak"}}, {"name": "Lion Peak", "latitude": 38.6352485, "longitude": -112.3421544, "elevation": 2638.0, "source": "osm", "_tags": {"ele": "2638", "gnis:feature_id": "1442647", "name": "Lion Peak", "natural": "peak"}}, {"name": "Little Mountain", "latitude": 38.4888669, "longitude": -111.7062969, "elevation": 2750.0, "source": "osm", "_tags": {"ele": "2750", "gnis:feature_id": "1442745", "name": "Little Mountain", "natural": "peak"}}, {"name": "Little Shelly", "latitude": 38.4408046, "longitude": -112.4960466, "elevation": 3007.0, "source": "osm", "_tags": {"ele": "3007", "gnis:feature_id": "1442780", "name": "Little Shelly", "natural": "peak"}}, {"name": "Little Table", "latitude": 38.4033122, "longitude": -112.1068645, "elevation": 2514.0, "source": "osm", "_tags": {"ele": "2514", "gnis:feature_id": "1442786", "name": "Little Table", "natural": "peak"}}, {"name": "Long Knoll", "latitude": 39.1924603, "longitude": -112.0827118, "elevation": 1797.0, "source": "osm", "_tags": {"ele": "1797", "gnis:feature_id": "1442923", "name": "Long Knoll", "natural": "peak"}}, {"name": "Marbletop", "latitude": 38.4944161, "longitude": -112.4657677, "elevation": 2673.0, "source": "osm", "_tags": {"ele": "2673", "gnis:feature_id": "1443192", "name": "Marbletop", "natural": "peak"}}, {"name": "Marys Nipple", "latitude": 38.312198, "longitude": -112.3121505, "elevation": 3045.0, "source": "osm", "_tags": {"ele": "3045", "gnis:feature_id": "1443218", "name": "Marys Nipple", "natural": "peak"}}, {"name": "Marysvale Peak", "latitude": 38.4838666, "longitude": -112.1013078, "elevation": 3330.0, "source": "osm", "_tags": {"ele": "3330", "gnis:feature_id": "1443222", "name": "Marysvale Peak", "natural": "peak"}}, {"name": "Middle Mountain", "latitude": 38.7360796, "longitude": -112.3388233, "elevation": 2227.0, "source": "osm", "_tags": {"ele": "2227", "gnis:feature_id": "1443364", "name": "Middle Mountain", "natural": "peak"}}, {"name": "Mine Camp Peak", "latitude": 38.8741324, "longitude": -112.2535451, "elevation": 3081.0, "source": "osm", "_tags": {"ele": "3081", "gnis:feature_id": "1443501", "name": "Mine Camp Peak", "natural": "peak"}}, {"name": "Monroe Peak", "latitude": 38.5360876, "longitude": -112.0732521, "elevation": 3419.0, "source": "osm", "_tags": {"ele": "3419", "gnis:feature_id": "1443561", "name": "Monroe Peak", "natural": "peak"}}, {"name": "Monument Peak", "latitude": 38.5916417, "longitude": -111.9526946, "elevation": 3368.0, "source": "osm", "_tags": {"ele": "3368", "gnis:feature_id": "1443572", "name": "Monument Peak", "natural": "peak"}}, {"name": "Mormon Mountain", "latitude": 38.6552504, "longitude": -111.8746393, "elevation": 2626.0, "source": "osm", "_tags": {"ele": "2626", "gnis:feature_id": "1443590", "name": "Mormon Mountain", "natural": "peak"}}, {"name": "Noon Rock Peak", "latitude": 39.1916271, "longitude": -112.1210461, "elevation": 2341.0, "source": "osm", "_tags": {"ele": "2341", "gnis:feature_id": "1443842", "name": "Noon Rock Peak", "natural": "peak"}}, {"name": "Pine Peaks", "latitude": 38.3244263, "longitude": -111.892692, "elevation": 2969.0, "source": "osm", "_tags": {"ele": "2969", "gnis:feature_id": "1444402", "name": "Pine Peaks", "natural": "peak"}}, {"name": "Pioneer Peak", "latitude": 38.9941291, "longitude": -112.1735458, "elevation": 3088.0, "source": "osm", "_tags": {"ele": "3088", "gnis:feature_id": "1444448", "name": "Pioneer Peak", "natural": "peak"}}, {"name": "Pole Hill", "latitude": 38.6669143, "longitude": -112.3549334, "elevation": 2659.0, "source": "osm", "_tags": {"ele": "2659", "gnis:feature_id": "1444552", "name": "Pole Hill", "natural": "peak"}}, {"name": "Pole Mountain", "latitude": 38.4010822, "longitude": -112.5329926, "elevation": 2870.0, "source": "osm", "_tags": {"ele": "2870", "gnis:feature_id": "1444559", "name": "Pole Mountain", "natural": "peak"}}, {"name": "Rainbow Hills", "latitude": 38.7873628, "longitude": -111.9420207, "elevation": 1988.0, "source": "osm", "_tags": {"ele": "1988", "gnis:feature_id": "1444716", "name": "Rainbow Hills", "natural": "peak"}}, {"name": "Rattlesnake Peak", "latitude": 38.3344154, "longitude": -112.5354924, "elevation": 2283.0, "source": "osm", "_tags": {"ele": "2283", "gnis:feature_id": "1444741", "name": "Rattlesnake Peak", "natural": "peak"}}, {"name": "Rattlesnake Point", "latitude": 38.9271867, "longitude": -111.7790876, "elevation": 1795.0, "source": "osm", "_tags": {"ele": "1795", "gnis:feature_id": "1444744", "name": "Rattlesnake Point", "natural": "peak"}}, {"name": "Red Knoll", "latitude": 39.0252387, "longitude": -112.0396548, "elevation": 1902.0, "source": "osm", "_tags": {"ele": "1902", "gnis:feature_id": "1444805", "name": "Red Knoll", "natural": "peak"}}, {"name": "Reservoir Hill", "latitude": 38.5791422, "longitude": -111.9971397, "elevation": 2975.0, "source": "osm", "_tags": {"ele": "2975", "gnis:feature_id": "1444872", "name": "Reservoir Hill", "natural": "peak"}}, {"name": "Indian Peak", "latitude": 38.6785809, "longitude": -112.3279882, "elevation": 2790.0, "source": "osm", "_tags": {"ele": "2790", "gnis:feature_id": "1445108", "name": "Indian Peak", "natural": "peak"}}, {"name": "Round Hill", "latitude": 39.0638501, "longitude": -112.0966004, "elevation": 2233.0, "source": "osm", "_tags": {"ele": "2233", "gnis:feature_id": "1445162", "name": "Round Hill", "natural": "peak"}}, {"name": "Sargent Mountain", "latitude": 38.5252513, "longitude": -112.3129841, "elevation": 2700.0, "source": "osm", "_tags": {"ele": "2700", "gnis:feature_id": "1445340", "name": "Sargent Mountain", "natural": "peak"}}, {"name": "Shelly Baldy Peak", "latitude": 38.3691395, "longitude": -112.4254881, "elevation": 3450.0, "source": "osm", "_tags": {"ele": "3450", "gnis:feature_id": "1445518", "name": "Shelly Baldy Peak", "natural": "peak"}}, {"name": "Signal Peak", "latitude": 38.4608062, "longitude": -112.4002093, "elevation": 3441.0, "source": "osm", "_tags": {"ele": "3441", "gnis:feature_id": "1445581", "name": "Signal Peak", "natural": "peak"}}, {"name": "Signal Peak", "latitude": 38.6252511, "longitude": -112.0154756, "elevation": 3414.0, "source": "osm", "_tags": {"ele": "3414", "gnis:feature_id": "1445582", "name": "Signal Peak", "natural": "peak"}}, {"name": "Sulphur Peak", "latitude": 38.6138585, "longitude": -112.5299391, "elevation": 2139.0, "source": "osm", "_tags": {"ele": "2139", "gnis:feature_id": "1446223", "name": "Sulphur Peak", "natural": "peak", "wikidata": "Q22073368"}}, {"name": "Sunset Peak", "latitude": 38.8341332, "longitude": -112.2702115, "elevation": 3050.0, "source": "osm", "_tags": {"ele": "3050", "gnis:feature_id": "1446259", "name": "Sunset Peak", "natural": "peak"}}, {"name": "Table Mountain", "latitude": 38.8241328, "longitude": -112.1029849, "elevation": 2223.0, "source": "osm", "_tags": {"ele": "2223", "gnis:feature_id": "1446316", "name": "Table Mountain", "natural": "peak"}}, {"name": "The Pyramids", "latitude": 38.6774688, "longitude": -112.49855, "elevation": 2455.0, "source": "osm", "_tags": {"ele": "2455", "gnis:feature_id": "1446496", "name": "The Pyramids", "natural": "peak"}}, {"name": "The Stone Quarry", "latitude": 38.9694071, "longitude": -111.8343686, "elevation": 1816.0, "source": "osm", "_tags": {"ele": "1816", "gnis:feature_id": "1446507", "name": "The Stone Quarry", "natural": "peak"}}, {"name": "The Twist", "latitude": 38.8727428, "longitude": -111.914925, "elevation": 1660.0, "source": "osm", "_tags": {"ele": "1660", "gnis:feature_id": "1446512", "name": "The Twist", "natural": "peak"}}, {"name": "Three Knolls", "latitude": 39.0813496, "longitude": -112.0377105, "elevation": 1870.0, "source": "osm", "_tags": {"ele": "1870", "gnis:feature_id": "1446568", "name": "Three Knolls", "natural": "peak"}}, {"name": "Tip Top", "latitude": 38.4877503, "longitude": -112.4160434, "elevation": 3003.0, "source": "osm", "_tags": {"ele": "3003", "gnis:feature_id": "1446619", "name": "Tip Top", "natural": "peak"}}, {"name": "Trail Mountain", "latitude": 38.62497, "longitude": -112.4424358, "elevation": 2090.0, "source": "osm", "_tags": {"ele": "2090", "gnis:feature_id": "1446685", "name": "Trail Mountain", "natural": "peak"}}, {"name": "Triangle Mountain", "latitude": 38.911354, "longitude": -111.7696425, "elevation": 2097.0, "source": "osm", "_tags": {"ele": "2097", "gnis:feature_id": "1446715", "name": "Triangle Mountain", "natural": "peak"}}, {"name": "Whiskey Knoll", "latitude": 38.6321963, "longitude": -111.7199117, "elevation": 3519.0, "source": "osm", "_tags": {"ele": "3519", "gnis:feature_id": "1447231", "name": "Whiskey Knoll", "natural": "peak"}}, {"name": "White Hills", "latitude": 38.4835878, "longitude": -112.1613104, "elevation": 2348.0, "source": "osm", "_tags": {"ele": "2348", "gnis:feature_id": "1447250", "name": "White Hills", "natural": "peak"}}, {"name": "White Pine Peak", "latitude": 38.8653522, "longitude": -112.2319292, "elevation": 2901.0, "source": "osm", "_tags": {"ele": "2901", "gnis:feature_id": "1447277", "name": "White Pine Peak", "natural": "peak"}}, {"name": "Willow Creek Peak", "latitude": 38.9738514, "longitude": -112.1257667, "elevation": 2974.0, "source": "osm", "_tags": {"ele": "2974", "gnis:feature_id": "1447417", "name": "Willow Creek Peak", "natural": "peak"}}, {"name": "Wittwer Hill", "latitude": 38.4713599, "longitude": -112.5496604, "elevation": 2651.0, "source": "osm", "_tags": {"ele": "2651", "gnis:feature_id": "1447494", "name": "Wittwer Hill", "natural": "peak"}}, {"name": "Devils Dutch Oven", "latitude": 38.5430317, "longitude": -112.0796415, "elevation": 3074.0, "source": "osm", "_tags": {"ele": "3074", "gnis:feature_id": "1448344", "name": "Devils Dutch Oven", "natural": "peak"}}, {"name": "East Mountain", "latitude": 38.6424699, "longitude": -112.4152128, "elevation": 2298.0, "source": "osm", "_tags": {"ele": "2298", "gnis:feature_id": "1448367", "name": "East Mountain", "natural": "peak"}}, {"name": "Langdon Mountain", "latitude": 38.3910919, "longitude": -112.0193614, "elevation": 3148.0, "source": "osm", "_tags": {"ele": "3148", "gnis:feature_id": "1448574", "name": "Langdon Mountain", "natural": "peak"}}, {"name": "Oscars Vision", "latitude": 38.5655314, "longitude": -112.0290847, "elevation": 2711.0, "source": "osm", "_tags": {"ele": "2711", "gnis:feature_id": "1448788", "name": "Oscars Vision", "natural": "peak"}}, {"name": "South Mountain", "latitude": 38.7274683, "longitude": -112.4385488, "elevation": 2516.0, "source": "osm", "_tags": {"ele": "2516", "gnis:feature_id": "1449033", "name": "South Mountain", "natural": "peak"}}, {"name": "Sugarloaf Mountain", "latitude": 38.9166309, "longitude": -112.167433, "elevation": 2555.0, "source": "osm", "_tags": {"ele": "2555", "gnis:feature_id": "1449079", "name": "Sugarloaf Mountain", "natural": "peak"}}, {"name": "Big Rock Candy Mountain", "latitude": 38.5071967, "longitude": -112.2757599, "elevation": 2122.0, "source": "osm", "_tags": {"ele": "2122", "gnis:feature_id": "1450250", "name": "Big Rock Candy Mountain", "natural": "peak"}}, {"name": "Copper Belt Peak", "latitude": 38.4247643, "longitude": -112.3568645, "elevation": 3462.0, "source": "osm", "_tags": {"ele": "3462", "gnis:feature_id": "1454594", "name": "Copper Belt Peak", "natural": "peak"}}, {"name": "Glenwood Mountain", "latitude": 38.6249733, "longitude": -112.0151977, "elevation": 3409.0, "source": "osm", "_tags": {"ele": "3409", "gnis:feature_id": "1454596", "name": "Glenwood Mountain", "natural": "peak"}}, {"name": "South Edna Peak", "latitude": 38.383308, "longitude": -112.332429, "elevation": 3540.0, "source": "osm", "_tags": {"ele": "3540", "gnis:feature_id": "1455520", "name": "South Edna Peak", "natural": "peak"}}, {"name": "Winkler Point", "latitude": 38.4930287, "longitude": -112.3813197, "elevation": 3008.0, "source": "osm", "_tags": {"ele": "3008", "gnis:feature_id": "1455583", "name": "Winkler Point", "natural": "peak"}}, {"name": "Marys Nipples", "latitude": 38.6830248, "longitude": -112.4107691, "elevation": 2570.0, "source": "osm", "_tags": {"ele": "2570", "gnis:feature_id": "1455890", "name": "Marys Nipples", "natural": "peak"}}, {"name": "Cinder Crater", "latitude": 38.5682613, "longitude": -112.640376, "elevation": null, "source": "osm", "_tags": {"name": "Cinder Crater", "natural": "peak"}}, {"name": "Red Dome", "latitude": 38.9614772, "longitude": -112.5066102, "elevation": null, "source": "osm", "_tags": {"name": "Red Dome", "natural": "peak"}}, {"name": "Limestone Point", "latitude": 38.4351401, "longitude": -112.6875824, "elevation": null, "source": "osm", "_tags": {"gnis:feature_id": "1429634", "name": "Limestone Point", "natural": "peak"}}, {"name": "Sage Hill", "latitude": 39.0730973, "longitude": -112.3249385, "elevation": null, "source": "osm", "_tags": {"gnis:feature_id": "2805047", "name": "Sage Hill", "natural": "peak"}}, {"name": "Bald Hill", "latitude": 38.675085, "longitude": -112.3553015, "elevation": null, "source": "osm", "_tags": {"gnis:feature_id": "1448102", "name": "Bald Hill", "natural": "peak"}}, {"name": "Telegraph Point", "latitude": 38.8551805, "longitude": -112.6134758, "elevation": null, "source": "osm", "_tags": {"gnis:feature_id": "1446375", "name": "Telegraph Point", "natural": "peak"}}]