[{"name": "Black Butte", "latitude": 39.5793579, "longitude": -119.0571068, "elevation": 1428.0, "source": "osm", "_tags": {"ele": "1428", "gnis:feature_id": "838807", "name": "Black Butte", "natural": "peak"}}, {"name": "Black Mountain", "latitude": 39.7693547, "longitude": -119.3154502, "elevation": 1663.0, "source": "osm", "_tags": {"ele": "1663", "gnis:feature_id": "838858", "name": "Black Mountain", "natural": "peak"}}, {"name": "Black Warrior Peak", "latitude": 39.9129642, "longitude": -119.2435051, "elevation": 1902.0, "source": "osm", "_tags": {"ele": "1902", "gnis:feature_id": "838892", "name": "Black Warrior Peak", "natural": "peak"}}, {"name": "Castle Peak", "latitude": 39.4060234, "longitude": -119.6446259, "elevation": 1990.0, "source": "osm", "_tags": {"ele": "1990", "gnis:feature_id": "839339", "name": "Castle Peak", "natural": "peak"}}, {"name": "Churchill Butte", "latitude": 39.3393609, "longitude": -119.2959957, "elevation": 1807.0, "source": "osm", "_tags": {"ele": "1807", "gnis:feature_id": "839531", "name": "Churchill Butte", "natural": "peak"}}, {"name": "Cinder Mountain", "latitude": 39.4379692, "longitude": -119.4985095, "elevation": 2080.0, "source": "osm", "_tags": {"ele": "2080", "gnis:feature_id": "839536", "name": "Cinder Mountain", "natural": "peak"}}, {"name": "Cinnabar Hill", "latitude": 39.8088005, "longitude": -118.8829358, "elevation": 1380.0, "source": "osm", "_tags": {"ele": "1380", "gnis:feature_id": "839539", "name": "Cinnabar Hill", "natural": "peak"}}, {"name": "Juniper Peak", "latitude": 39.7954659, "longitude": -119.1823904, "elevation": 2175.0, "source": "osm", "_tags": {"ele": "2175", "gnis:feature_id": "841448", "name": "Juniper Peak", "natural": "peak"}}, {"name": "Kits Peak", "latitude": 40.2649046, "longitude": -119.4943541, "elevation": 1918.0, "source": "osm", "_tags": {"ele": "1918", "gnis:feature_id": "841502", "name": "Kits Peak", "natural": "peak"}}, {"name": "Nache Peak", "latitude": 39.9968519, "longitude": -119.2357282, "elevation": 1985.0, "source": "osm", "_tags": {"ele": "1985", "gnis:feature_id": "842384", "name": "Nache Peak", "natural": "peak"}}, {"name": "Orleans Hill", "latitude": 39.3371344, "longitude": -119.6562912, "elevation": 2263.0, "source": "osm", "_tags": {"ele": "2263", "gnis:feature_id": "842639", "name": "Orleans Hill", "natural": "peak"}}, {"name": "Ragged Top Mountain", "latitude": 40.0435202, "longitude": -118.7776558, "elevation": 1925.0, "source": "osm", "_tags": {"ele": "1925", "gnis:feature_id": "843054", "name": "Ragged Top Mountain", "natural": "peak"}}, {"name": "Rattlesnake Hill", "latitude": 39.4899179, "longitude": -118.752096, "elevation": 1269.0, "source": "osm", "_tags": {"ele": "1269", "gnis:feature_id": "843090", "name": "Rattlesnake Hill", "natural": "peak", "wikidata": "Q49066779"}}, {"name": "Red Mountain", "latitude": 39.3885285, "longitude": -118.9734904, "elevation": 1622.0, "source": "osm", "_tags": {"ele": "1622", "gnis:feature_id": "843150", "name": "Red Mountain", "natural": "peak"}}, {"name": "Rocky Peak", "latitude": 39.3496354, "longitude": -119.5715655, "elevation": 2123.0, "source": "osm", "_tags": {"ele": "2123", "gnis:feature_id": "843326", "name": "Rocky Peak", "natural": "peak"}}, {"name": "Russell Peak", "latitude": 39.9096306, "longitude": -119.3282305, "elevation": 1393.0, "source": "osm", "_tags": {"ele": "1393", "gnis:feature_id": "843394", "name": "Russell Peak", "natural": "peak"}}, {"name": "Tibbie Peak", "latitude": 39.3713025, "longitude": -119.5354534, "elevation": 2209.0, "source": "osm", "_tags": {"ele": "2209", "gnis:feature_id": "844313", "name": "Tibbie Peak", "natural": "peak"}}, {"name": "Tohakum Peak", "latitude": 40.1793498, "longitude": -119.45574, "elevation": 2459.0, "source": "osm", "_tags": {"ele": "2459", "gnis:feature_id": "844339", "name": "Tohakum Peak", "natural": "peak"}}, {"name": "Toulon Peak", "latitude": 40.1071305, "longitude": -118.742933, "elevation": 2124.0, "source": "osm", "_tags": {"ele": "2124", "gnis:feature_id": "844378", "name": "Toulon Peak", "natural": "peak"}}, {"name": "Two Tips", "latitude": 39.712967, "longitude": -119.1696113, "elevation": 2131.0, "source": "osm", "_tags": {"ele": "2131", "gnis:feature_id": "844509", "name": "Two Tips", "natural": "peak"}}, {"name": "Wakefield Peak", "latitude": 39.2910229, "longitude": -119.6849024, "elevation": 2162.0, "source": "osm", "_tags": {"ele": "2162", "gnis:feature_id": "844614", "name": "Wakefield Peak", "natural": "peak"}}, {"name": "Washington Hill", "latitude": 39.4649125, "longitude": -119.6193487, "elevation": 1799.0, "source": "osm", "_tags": {"ele": "1799", "gnis:feature_id": "844655", "name": "Washington Hill", "natural": "peak"}}, {"name": "Wildcat Peak", "latitude": 40.2382381, "longitude": -119.4087948, "elevation": 1750.0, "source": "osm", "_tags": {"ele": "1750", "gnis:feature_id": "844865", "name": "Wildcat Peak", "natural": "peak"}}, {"name": "Mount Abbie", "latitude": 39.3321342, "longitude": -119.6718473, "elevation": 2254.0, "source": "osm", "_tags": {"ele": "2254", "gnis:feature_id": "845337", "name": "Mount Abbie", "natural": "peak"}}, {"name": "Allen Hill", "latitude": 40.0618509, "longitude": -119.3985134, "elevation": 1430.0, "source": "osm", "_tags": {"ele": "1430", "gnis:feature_id": "845341", "name": "Allen Hill", "natural": "peak"}}, {"name": "Butler Peak", "latitude": 39.2982453, "longitude": -119.6710131, "elevation": 2275.0, "source": "osm", "_tags": {"ele": "2275", "gnis:feature_id": "845391", "name": "Butler Peak", "natural": "peak"}}, {"name": "Cedar Hill", "latitude": 39.3249123, "longitude": -119.6518462, "elevation": 2173.0, "source": "osm", "_tags": {"ele": "2173", "gnis:feature_id": "845404", "name": "Cedar Hill", "natural": "peak"}}, {"name": "Chalk Hills", "latitude": 39.3885243, "longitude": -119.5590662, "elevation": 1831.0, "source": "osm", "_tags": {"ele": "1831", "gnis:feature_id": "845406", "name": "Chalk Hills", "natural": "peak"}}, {"name": "Green Hill", "latitude": 39.6679668, "longitude": -119.4204534, "elevation": 1980.0, "source": "osm", "_tags": {"ele": "1980", "gnis:feature_id": "845492", "name": "Green Hill", "natural": "peak"}}, {"name": "Green Hill", "latitude": 39.8068555, "longitude": -118.9318265, "elevation": 1515.0, "source": "osm", "_tags": {"ele": "1515", "gnis:feature_id": "845493", "name": "Green Hill", "natural": "peak"}}, {"name": "Mopung Hills", "latitude": 39.8699121, "longitude": -118.7254302, "elevation": 1318.0, "source": "osm", "_tags": {"ele": "1318", "gnis:feature_id": "845577", "name": "Mopung Hills", "natural": "peak"}}, {"name": "San Juan Hill", "latitude": 39.4621362, "longitude": -119.4026725, "elevation": 1752.0, "source": "osm", "_tags": {"ele": "1752", "gnis:feature_id": "845649", "name": "San Juan Hill", "natural": "peak"}}, {"name": "Twin Peaks", "latitude": 39.2879678, "longitude": -119.6546231, "elevation": 1816.0, "source": "osm", "_tags": {"ele": "1816", "gnis:feature_id": "845718", "name": "Twin Peaks", "natural": "peak"}}, {"name": "White Hill", "latitude": 39.6896333, "longitude": -119.3773963, "elevation": 1752.0, "source": "osm", "_tags": {"ele": "1752", "gnis:feature_id": "845733", "name": "White Hill", "natural": "peak"}}, {"name": "Kimberly Hill", "latitude": 39.7932421, "longitude": -119.6851876, "elevation": 1553.0, "source": "osm", "_tags": {"ele": "1553", "gnis:feature_id": "846257", "name": "Kimberly Hill", "natural": "peak"}}, {"name": "Churchill Peak", "latitude": 39.3396387, "longitude": -119.2954401, "elevation": 1831.0, "source": "osm", "_tags": {"ele": "1831", "gnis:feature_id": "847721", "name": "Churchill Peak", "natural": "peak"}}, {"name": "Red White and Blue Mountain", "latitude": 39.6265789, "longitude": -119.3212825, "elevation": 1390.0, "source": "osm", "_tags": {"ele": "1390", "gnis:feature_id": "848454", "name": "Red White and Blue Mountain", "natural": "peak"}}, {"name": "Desert Peak", "latitude": 39.7857447, "longitude": -118.9373822, "elevation": 1627.0, "source": "osm", "_tags": {"ele": "1627", "gnis:feature_id": "848531", "name": "Desert Peak", "natural": "peak"}}, {"name": "Needle Rock", "latitude": 39.9124076, "longitude": -119.6512989, "elevation": 1830.0, "source": "osm", "_tags": {"ele": "1830", "gnis:feature_id": "848597", "name": "Needle Rock", "natural": "peak"}}, {"name": "Pah Rah Mountain", "latitude": 39.7943538, "longitude": -119.4740677, "elevation": 2507.0, "source": "osm", "_tags": {"ele": "2507", "gnis:feature_id": "848608", "name": "Pah Rah Mountain", "natural": "peak"}}, {"name": "Pond Peak", "latitude": 39.6521334, "longitude": -119.4635106, "elevation": 2448.0, "source": "osm", "_tags": {"ele": "2448", "gnis:feature_id": "848619", "name": "Pond Peak", "natural": "peak"}}, {"name": "Sugarloaf Peak", "latitude": 39.6754189, "longitude": -119.6741287, "elevation": 1582.0, "source": "osm", "_tags": {"ele": "1582", "gnis:feature_id": "848658", "name": "Sugarloaf Peak", "natural": "peak"}}, {"name": "Juniper Mountain", "latitude": 40.2346272, "longitude": -119.074337, "elevation": 2272.0, "source": "osm", "_tags": {"ele": "2272", "gnis:feature_id": "850223", "name": "Juniper Mountain", "natural": "peak"}}, {"name": "Moses Rock", "latitude": 39.8212978, "longitude": -119.5365706, "elevation": 2185.0, "source": "osm", "_tags": {"ele": "2185", "gnis:feature_id": "850503", "name": "Moses Rock", "natural": "peak"}}, {"name": "Jackass Peak", "latitude": 39.8846303, "longitude": -119.5612948, "elevation": 1542.0, "source": "osm", "_tags": {"ele": "1542", "gnis:feature_id": "850513", "name": "Jackass Peak", "natural": "peak"}}, {"name": "Twentyone Mile Hill", "latitude": 39.7657424, "longitude": -119.6865762, "elevation": 1388.0, "source": "osm", "_tags": {"ele": "1388", "gnis:feature_id": "850519", "name": "Twentyone Mile Hill", "natural": "peak"}}, {"name": "Old Lonesome", "latitude": 39.5560231, "longitude": -119.5751816, "elevation": 1572.0, "source": "osm", "_tags": {"ele": "1572", "gnis:feature_id": "850568", "name": "Old Lonesome", "natural": "peak"}}, {"name": "Little Butte", "latitude": 39.5776913, "longitude": -119.0507177, "elevation": 1363.0, "source": "osm", "_tags": {"ele": "1363", "gnis:feature_id": "850578", "name": "Little Butte", "natural": "peak"}}, {"name": "The Nipple", "latitude": 39.3829731, "longitude": -118.9679346, "elevation": 1559.0, "source": "osm", "_tags": {"ele": "1559", "gnis:feature_id": "850656", "name": "The Nipple", "natural": "peak"}}, {"name": "Sugar Loaf", "latitude": 39.7257432, "longitude": -119.558237, "elevation": 1575.0, "source": "osm", "_tags": {"ele": "1575", "gnis:feature_id": "853476", "name": "Sugar Loaf", "natural": "peak"}}, {"name": "Mount Bullion", "latitude": 39.3040787, "longitude": -119.6718466, "elevation": 2336.0, "source": "osm", "_tags": {"ele": "2336", "gnis:feature_id": "854384", "name": "Mount Bullion", "natural": "peak"}}, {"name": "Emma Peak", "latitude": 39.2963019, "longitude": -119.6035098, "elevation": 1967.0, "source": "osm", "_tags": {"ele": "1967", "gnis:feature_id": "854440", "name": "Emma Peak", "natural": "peak"}}, {"name": "Flowery Peak", "latitude": 39.3201905, "longitude": -119.6160111, "elevation": 1997.0, "source": "osm", "_tags": {"ele": "1997", "gnis:feature_id": "854450", "name": "Flowery Peak", "natural": "peak"}}, {"name": "Ophir Hill", "latitude": 39.3182453, "longitude": -119.6696246, "elevation": 2369.0, "source": "osm", "_tags": {"ele": "2369", "gnis:feature_id": "854556", "name": "Ophir Hill", "natural": "peak"}}, {"name": "Virginia Peak", "latitude": 39.7560209, "longitude": -119.4604554, "elevation": 2514.0, "source": "osm", "_tags": {"ele": "2514", "gnis:feature_id": "854985", "name": "Virginia Peak", "natural": "peak", "wikidata": "Q22060860"}}, {"name": "Clark Mountain", "latitude": 39.5040795, "longitude": -119.551847, "elevation": 2194.0, "source": "osm", "_tags": {"ele": "2194", "gnis:feature_id": "856211", "name": "Clark Mountain", "natural": "peak"}}, {"name": "Mount Davidson", "latitude": 39.3082454, "longitude": -119.6632352, "elevation": 2389.0, "source": "osm", "_tags": {"ele": "2389", "gnis:feature_id": "856225", "name": "Mount Davidson", "natural": "peak"}}, {"name": "Middle Hill", "latitude": 39.3238011, "longitude": -119.6596243, "elevation": 2253.0, "source": "osm", "_tags": {"ele": "2253", "gnis:feature_id": "856315", "name": "Middle Hill", "natural": "peak"}}, {"name": "Spanish Springs Peak", "latitude": 39.649633, "longitude": -119.5779597, "elevation": 2230.0, "source": "osm", "_tags": {"ele": "2230", "gnis:feature_id": "856390", "name": "Spanish Springs Peak", "natural": "peak"}}, {"name": "Sugarloaf", "latitude": 39.3074129, "longitude": -119.6093437, "elevation": 1768.0, "source": "osm", "_tags": {"ele": "1768", "gnis:feature_id": "856397", "name": "Sugarloaf", "natural": "peak"}}, {"name": "Mountain of Hieroglyphics", "latitude": 39.3896386, "longitude": -119.1782165, "elevation": 1334.0, "source": "osm", "_tags": {"ele": "1334", "gnis:feature_id": "857347", "name": "Mountain of Hieroglyphics", "natural": "peak"}}, {"name": "Trinity Peak", "latitude": 40.2318507, "longitude": -118.7482126, "elevation": 2121.0, "source": "osm", "_tags": {"ele": "2121", "gnis:feature_id": "863336", "name": "Trinity Peak", "natural": "peak"}}, {"name": "Polaris Mountain", "latitude": 39.6394717, "longitude": -119.1924297, "elevation": 1409.0, "source": "osm", "_tags": {"ele": "1409", "name": "Polaris Mountain", "natural": "peak"}}, {"name": "McLane Peak", "latitude": 40.1537194, "longitude": -119.2593556, "elevation": null, "source": "osm", "_tags": {"gnis:feature_id": "2778527", "name": "McLane Peak", "natural": "peak"}}]