[{"name": "Blue Jacket Butte", "latitude": 40.279587, "longitude": -123.7005885, "elevation": 701.0, "source": "osm", "_tags": {"ele": "701", "gnis:feature_id": "219495", "name": "Blue Jacket Butte", "natural": "peak"}}, {"name": "Brushy Mountain", "latitude": 40.1920841, "longitude": -124.1719855, "elevation": 895.0, "source": "osm", "_tags": {"ele": "895", "gnis:feature_id": "219953", "name": "Brushy Mountain", "natural": "peak"}}, {"name": "Clarks Butte", "latitude": 40.189031, "longitude": -123.934202, "elevation": 842.0, "source": "osm", "_tags": {"ele": "842", "gnis:feature_id": "221169", "name": "Clarks Butte", "natural": "peak"}}, {"name": "Cooskie Mountain", "latitude": 40.2562483, "longitude": -124.265879, "elevation": 886.0, "source": "osm", "_tags": {"ele": "886", "gnis:feature_id": "221529", "name": "Cooskie Mountain", "natural": "peak"}}, {"name": "Elk Mountain", "latitude": 40.2615308, "longitude": -123.7728119, "elevation": 785.0, "source": "osm", "_tags": {"ele": "785", "gnis:feature_id": "223116", "name": "Elk Mountain", "natural": "peak"}}, {"name": "Fire Hill", "latitude": 40.1270859, "longitude": -124.1194814, "elevation": 897.0, "source": "osm", "_tags": {"ele": "897", "gnis:feature_id": "223516", "name": "Fire Hill", "natural": "peak"}}, {"name": "Gordon Hill", "latitude": 39.6696023, "longitude": -123.7797406, "elevation": 237.0, "source": "osm", "_tags": {"ele": "237", "gnis:feature_id": "224340", "name": "Gordon Hill", "natural": "peak"}}, {"name": "Hadley Peak", "latitude": 40.1754175, "longitude": -124.2025412, "elevation": 905.0, "source": "osm", "_tags": {"ele": "905", "gnis:feature_id": "224767", "name": "Hadley Peak", "natural": "peak"}}, {"name": "High Tip", "latitude": 39.9234808, "longitude": -123.9533586, "elevation": 91.0, "source": "osm", "_tags": {"ele": "91", "gnis:feature_id": "225282", "name": "High Tip", "natural": "peak"}}, {"name": "Kerr Peak", "latitude": 40.2543079, "longitude": -123.9019818, "elevation": 787.0, "source": "osm", "_tags": {"ele": "787", "gnis:feature_id": "226536", "name": "Kerr Peak", "natural": "peak"}}, {"name": "King Peak", "latitude": 40.1568218, "longitude": -124.1243042, "elevation": 1246.0, "source": "osm", "_tags": {"ele": "1246", "gnis:feature_id": "226592", "name": "King Peak", "natural": "peak", "wikidata": "Q18153994"}}, {"name": "Little Buck Mountain", "latitude": 40.1032008, "longitude": -123.7489172, "elevation": 707.0, "source": "osm", "_tags": {"ele": "707", "gnis:feature_id": "227204", "name": "Little Buck Mountain", "natural": "peak"}}, {"name": "Little Chaparral Mountain", "latitude": 40.2523594, "longitude": -124.2786571, "elevation": 805.0, "source": "osm", "_tags": {"ele": "805", "gnis:feature_id": "227218", "name": "Little Chaparral Mountain", "natural": "peak"}}, {"name": "Oat Hill", "latitude": 40.1998611, "longitude": -124.2250427, "elevation": 725.0, "source": "osm", "_tags": {"ele": "725", "gnis:feature_id": "229906", "name": "Oat Hill", "natural": "peak"}}, {"name": "Observatory Hill", "latitude": 39.3410056, "longitude": -123.7211241, "elevation": 301.0, "source": "osm", "_tags": {"ele": "301", "gnis:feature_id": "229917", "name": "Observatory Hill", "natural": "peak"}}, {"name": "Panther Peak", "latitude": 40.0612579, "longitude": -123.7003042, "elevation": 538.0, "source": "osm", "_tags": {"ele": "538", "gnis:feature_id": "230309", "name": "Panther Peak", "natural": "peak"}}, {"name": "Pratt Mountain", "latitude": 40.1201457, "longitude": -123.6919725, "elevation": 1174.0, "source": "osm", "_tags": {"ele": "1174", "gnis:feature_id": "231029", "name": "Pratt Mountain", "natural": "peak"}}, {"name": "Reed Mountain", "latitude": 40.0259804, "longitude": -123.7450258, "elevation": 944.0, "source": "osm", "_tags": {"ele": "944", "gnis:feature_id": "231457", "name": "Reed Mountain", "natural": "peak"}}, {"name": "Rose Peak", "latitude": 40.0773666, "longitude": -123.8811404, "elevation": 614.0, "source": "osm", "_tags": {"ele": "614", "gnis:feature_id": "231888", "name": "Rose Peak", "natural": "peak"}}, {"name": "Schofield Peak", "latitude": 40.0454237, "longitude": -123.8108605, "elevation": 603.0, "source": "osm", "_tags": {"ele": "603", "gnis:feature_id": "232665", "name": "Schofield Peak", "natural": "peak"}}, {"name": "Shubrick Peak", "latitude": 40.1545847, "longitude": -124.188929, "elevation": 848.0, "source": "osm", "_tags": {"ele": "848", "gnis:feature_id": "233069", "name": "Shubrick Peak", "natural": "peak"}}, {"name": "Saddle Mountain", "latitude": 40.1256971, "longitude": -124.1005919, "elevation": 1003.0, "source": "osm", "_tags": {"ele": "1003", "gnis:feature_id": "234600", "name": "Saddle Mountain", "natural": "peak"}}, {"name": "Soldier Frank Hill", "latitude": 39.7604318, "longitude": -123.8325208, "elevation": 224.0, "source": "osm", "_tags": {"ele": "224", "gnis:feature_id": "234864", "name": "Soldier Frank Hill", "natural": "peak"}}, {"name": "Uncle Tommy", "latitude": 40.273192, "longitude": -124.3092144, "elevation": 642.0, "source": "osm", "_tags": {"ele": "642", "gnis:feature_id": "236776", "name": "Uncle Tommy", "natural": "peak"}}, {"name": "Wildcat Butte", "latitude": 40.2309766, "longitude": -123.695587, "elevation": 522.0, "source": "osm", "_tags": {"ele": "522", "gnis:feature_id": "237771", "name": "Wildcat Butte", "natural": "peak"}}, {"name": "Bell Mountain", "latitude": 39.6243263, "longitude": -123.7733508, "elevation": 321.0, "source": "osm", "_tags": {"ele": "321", "gnis:feature_id": "255064", "name": "Bell Mountain", "natural": "peak"}}, {"name": "Bald Hill", "latitude": 39.4676665, "longitude": -123.7564034, "elevation": 235.0, "source": "osm", "_tags": {"ele": "235", "gnis:feature_id": "1655806", "name": "Bald Hill", "natural": "peak", "wikidata": "Q22077954"}}, {"name": "Dickson Butte", "latitude": 40.2156971, "longitude": -123.9419812, "elevation": 818.0, "source": "osm", "_tags": {"ele": "818", "gnis:feature_id": "1655968", "name": "Dickson Butte", "natural": "peak"}}, {"name": "Gilham Butte", "latitude": 40.2231967, "longitude": -123.9936495, "elevation": 931.0, "source": "osm", "_tags": {"ele": "931", "gnis:feature_id": "1656045", "name": "Gilham Butte", "natural": "peak"}}, {"name": "Tuttle Buttes", "latitude": 40.1620889, "longitude": -123.715863, "elevation": 1094.0, "source": "osm", "_tags": {"ele": "1094", "gnis:feature_id": "1656373", "name": "Tuttle Buttes", "natural": "peak"}}, {"name": "Bear Buttes", "latitude": 40.1818095, "longitude": -123.8405884, "elevation": 864.0, "source": "osm", "_tags": {"ele": "864", "gnis:feature_id": "1658013", "name": "Bear Buttes", "natural": "peak"}}, {"name": "Big Mountain", "latitude": 40.1804174, "longitude": -124.2003191, "elevation": 893.0, "source": "osm", "_tags": {"ele": "893", "gnis:feature_id": "1658055", "name": "Big Mountain", "natural": "peak"}}, {"name": "Catheys Peak", "latitude": 40.2748615, "longitude": -124.0819866, "elevation": 933.0, "source": "osm", "_tags": {"ele": "933", "gnis:feature_id": "1658239", "name": "Catheys Peak", "natural": "peak"}}, {"name": "Chimney Rock", "latitude": 39.8765228, "longitude": -123.8503358, "elevation": 406.0, "source": "osm", "_tags": {"ele": "406", "gnis:feature_id": "1658272", "name": "Chimney Rock", "natural": "peak"}}, {"name": "Duncan Pre-emption", "latitude": 40.2020857, "longitude": -124.0133711, "elevation": 627.0, "source": "osm", "_tags": {"ele": "627", "gnis:feature_id": "1658445", "name": "Duncan Pre-emption", "natural": "peak"}}, {"name": "Grasshopper Hill", "latitude": 40.1179203, "longitude": -124.0136446, "elevation": 429.0, "source": "osm", "_tags": {"ele": "429", "gnis:feature_id": "1658654", "name": "Grasshopper Hill", "natural": "peak"}}, {"name": "Horse Mountain", "latitude": 40.0876424, "longitude": -124.081423, "elevation": 556.0, "source": "osm", "_tags": {"ele": "556", "gnis:feature_id": "1658783", "name": "Horse Mountain", "natural": "peak"}}, {"name": "Kibesillah Hill", "latitude": 39.602105, "longitude": -123.7819616, "elevation": 184.0, "source": "osm", "_tags": {"ele": "184", "gnis:feature_id": "1658900", "name": "Kibesillah Hill", "natural": "peak"}}, {"name": "North Slide Peak", "latitude": 40.1833346, "longitude": -124.1804647, "elevation": 1060.0, "source": "osm", "_tags": {"ele": "1060", "gnis:feature_id": "1659252", "name": "North Slide Peak", "natural": "peak", "wikidata": "Q49057540"}}, {"name": "Noyo Hill", "latitude": 39.4071137, "longitude": -123.7352915, "elevation": 248.0, "source": "osm", "_tags": {"ele": "248", "gnis:feature_id": "1659261", "name": "Noyo Hill", "natural": "peak"}}, {"name": "Queen Peak", "latitude": 40.0670875, "longitude": -124.033087, "elevation": 858.0, "source": "osm", "_tags": {"ele": "858", "gnis:feature_id": "1659448", "name": "Queen Peak", "natural": "peak"}}, {"name": "", "latitude": 39.8535892, "longitude": -123.8139923, "elevation": 445.0, "source": "osm", "_tags": {"ele": "445", "natural": "peak"}}, {"name": "", "latitude": 39.8622524, "longitude": -123.8867928, "elevation": 401.0, "source": "osm", "_tags": {"ele": "401", "natural": "peak"}}, {"name": "", "latitude": 39.8657412, "longitude": -123.858129, "elevation": 451.0, "source": "osm", "_tags": {"ele": "451", "natural": "peak"}}, {"name": "", "latitude": 39.8711126, "longitude": -123.9028526, "elevation": 386.0, "source": "osm", "_tags": {"ele": "386", "natural": "peak"}}, {"name": "", "latitude": 39.8913361, "longitude": -123.9027712, "elevation": 336.0, "source": "osm", "_tags": {"ele": "336", "natural": "peak"}}, {"name": "", "latitude": 39.905979, "longitude": -123.9214566, "elevation": 325.0, "source": "osm", "_tags": {"ele": "325", "natural": "peak"}}, {"name": "", "latitude": 39.9128028, "longitude": -123.8970536, "elevation": 568.0, "source": "osm", "_tags": {"ele": "568", "natural": "peak"}}, {"name": "", "latitude": 39.9196901, "longitude": -123.915884, "elevation": 509.0, "source": "osm", "_tags": {"ele": "509", "natural": "peak"}}, {"name": "", "latitude": 39.9204677, "longitude": -123.8844753, "elevation": 549.0, "source": "osm", "_tags": {"ele": "549", "natural": "peak"}}, {"name": "", "latitude": 39.924006, "longitude": -123.9110252, "elevation": 531.0, "source": "osm", "_tags": {"ele": "531", "natural": "peak"}}, {"name": "", "latitude": 39.9372143, "longitude": -123.9393229, "elevation": 509.0, "source": "osm", "_tags": {"ele": "509", "natural": "peak"}}, {"name": "", "latitude": 39.9438332, "longitude": -123.9510289, "elevation": 495.0, "source": "osm", "_tags": {"ele": "495", "natural": "peak"}}, {"name": "", "latitude": 39.9461307, "longitude": -123.944093, "elevation": 545.0, "source": "osm", "_tags": {"ele": "545", "natural": "peak"}}, {"name": "", "latitude": 39.9506641, "longitude": -123.9343162, "elevation": 551.0, "source": "osm", "_tags": {"ele": "551", "natural": "peak"}}, {"name": "", "latitude": 39.9021815, "longitude": -123.8276163, "elevation": 595.0, "source": "osm", "_tags": {"ele": "595", "natural": "peak"}}, {"name": "", "latitude": 39.89856, "longitude": -123.812553, "elevation": 561.0, "source": "osm", "_tags": {"ele": "561", "natural": "peak"}}, {"name": "", "latitude": 39.9051609, "longitude": -123.7987772, "elevation": 550.0, "source": "osm", "_tags": {"ele": "550", "natural": "peak"}}, {"name": "", "latitude": 39.8928721, "longitude": -123.8072959, "elevation": 542.0, "source": "osm", "_tags": {"ele": "542", "natural": "peak"}}, {"name": "", "latitude": 39.8518827, "longitude": -123.7677065, "elevation": 618.0, "source": "osm", "_tags": {"ele": "618", "natural": "peak"}}, {"name": "", "latitude": 39.8373766, "longitude": -123.7564412, "elevation": 538.0, "source": "osm", "_tags": {"ele": "538", "natural": "peak"}}, {"name": "", "latitude": 39.8132754, "longitude": -123.7283746, "elevation": 588.0, "source": "osm", "_tags": {"ele": "588", "natural": "peak"}}, {"name": "", "latitude": 39.8475511, "longitude": -123.7973245, "elevation": 306.0, "source": "osm", "_tags": {"ele": "306", "natural": "peak"}}, {"name": "Windy Point Peak", "latitude": 40.2707229, "longitude": -124.3585825, "elevation": 250.0, "source": "osm", "_tags": {"ele": "250", "name": "Windy Point Peak", "natural": "peak"}}, {"name": "Punta", "latitude": 40.2599491, "longitude": -124.3586683, "elevation": 157.0, "source": "osm", "_tags": {"ele": "157", "name": "Punta", "natural": "peak"}}, {"name": "Strawberry Rock", "latitude": 40.2806873, "longitude": -124.3516073, "elevation": 268.0, "source": "osm", "_tags": {"ele": "268", "name": "Strawberry Rock", "natural": "peak"}}, {"name": "Barksdale Table", "latitude": 40.2774623, "longitude": -124.3431905, "elevation": 400.0, "source": "osm", "_tags": {"ele": "400", "name": "Barksdale Table", "natural": "peak"}}, {"name": "Titus", "latitude": 40.255686, "longitude": -124.3519479, "elevation": 194.0, "source": "osm", "_tags": {"ele": "194", "name": "Titus", "natural": "peak"}}, {"name": "Gorda 2", "latitude": 40.2474992, "longitude": -124.3081285, "elevation": 725.0, "source": "osm", "_tags": {"ele": "725", "name": "Gorda 2", "natural": "peak"}}, {"name": "", "latitude": 40.2081028, "longitude": -124.2456093, "elevation": 726.0, "source": "osm", "_tags": {"ele": "726", "natural": "peak"}}]