[{"name": "Long Tater Hill", "latitude": 39.5397422, "longitude": -93.5377127, "elevation": 273.0, "source": "osm", "_tags": {"ele": "273", "gnis:feature_id": "721555", "name": "Long Tater Hill", "natural": "peak"}}, {"name": "Round Tater Hill", "latitude": 39.5394646, "longitude": -93.5302127, "elevation": 252.0, "source": "osm", "_tags": {"ele": "252", "gnis:feature_id": "725623", "name": "Round Tater Hill", "natural": "peak"}}, {"name": "Shale Hill", "latitude": 39.7505707, "longitude": -93.646047, "elevation": 267.0, "source": "osm", "_tags": {"ele": "267", "gnis:feature_id": "726261", "name": "Shale Hill", "natural": "peak"}}, {"name": "Shields Hill", "latitude": 39.3372437, "longitude": -93.4157654, "elevation": 241.0, "source": "osm", "_tags": {"ele": "241", "gnis:feature_id": "726353", "name": "Shields Hill", "natural": "peak"}}, {"name": "Stokes Mound", "latitude": 39.5883538, "longitude": -93.4813234, "elevation": 277.0, "source": "osm", "_tags": {"ele": "277", "gnis:feature_id": "727124", "name": "Stokes Mound", "natural": "peak"}}, {"name": "Mound Bogard", "latitude": 39.4669647, "longitude": -93.5388237, "elevation": 290.0, "source": "osm", "_tags": {"ele": "290", "gnis:feature_id": "730154", "name": "Mound Bogard", "natural": "peak"}}]