[{"name": "Allison Mound", "latitude": 39.7050465, "longitude": -90.3509563, "elevation": 207.0, "source": "osm", "_tags": {"ele": "207", "gnis:feature_id": "403445", "name": "Allison Mound", "natural": "peak"}}, {"name": "Browns Mound", "latitude": 39.6317134, "longitude": -90.5245699, "elevation": 158.0, "source": "osm", "_tags": {"ele": "158", "gnis:feature_id": "404984", "name": "Browns Mound", "natural": "peak"}}, {"name": "Coops Mound", "latitude": 39.3172717, "longitude": -89.7839842, "elevation": 211.0, "source": "osm", "_tags": {"ele": "211", "gnis:feature_id": "406562", "name": "Coops Mound", "natural": "peak"}}, {"name": "Kingfisher Hill", "latitude": 40.0733803, "longitude": -89.9840029, "elevation": 183.0, "source": "osm", "_tags": {"ele": "183", "gnis:feature_id": "411503", "name": "Kingfisher Hill", "natural": "peak"}}, {"name": "Pilot Knob", "latitude": 39.51977, "longitude": -90.5884591, "elevation": 193.0, "source": "osm", "_tags": {"ele": "193", "gnis:feature_id": "415683", "name": "Pilot Knob", "natural": "peak"}}, {"name": "Shick Shack Hill", "latitude": 40.0583806, "longitude": -90.0270595, "elevation": 162.0, "source": "osm", "_tags": {"ele": "162", "gnis:feature_id": "418386", "name": "Shick Shack Hill", "natural": "peak"}}, {"name": "The Mound", "latitude": 39.7178245, "longitude": -90.2984557, "elevation": 216.0, "source": "osm", "_tags": {"ele": "216", "gnis:feature_id": "419633", "name": "The Mound", "natural": "peak"}}, {"name": "Cox Creek Hill", "latitude": 40.0202753, "longitude": -90.0935289, "elevation": null, "source": "osm", "_tags": {"name": "Cox Creek Hill", "natural": "peak"}}]