[{"name": "Mount Augusta", "latitude": 39.5396425, "longitude": -117.9184567, "elevation": 2996.0, "source": "osm", "_tags": {"ele": "2996", "gnis:feature_id": "838532", "name": "Mount Augusta", "natural": "peak", "wikidata": "Q19865039"}}, {"name": "Basque Summit", "latitude": 39.3849223, "longitude": -117.7003886, "elevation": 2321.0, "source": "osm", "_tags": {"ele": "2321", "gnis:feature_id": "838640", "name": "Basque Summit", "natural": "peak"}}, {"name": "Black Knob", "latitude": 39.445476, "longitude": -118.2890231, "elevation": 1878.0, "source": "osm", "_tags": {"ele": "1878", "gnis:feature_id": "838838", "name": "Black Knob", "natural": "peak"}}, {"name": "Black Knob", "latitude": 40.2412988, "longitude": -118.2218072, "elevation": 1774.0, "source": "osm", "_tags": {"ele": "1774", "gnis:feature_id": "838839", "name": "Black Knob", "natural": "peak"}}, {"name": "Buena Vista Hills", "latitude": 40.0135241, "longitude": -118.1523596, "elevation": 1555.0, "source": "osm", "_tags": {"ele": "1555", "gnis:feature_id": "839147", "name": "Buena Vista Hills", "natural": "peak"}}, {"name": "Buffalo Mountain", "latitude": 40.2229663, "longitude": -118.1284706, "elevation": 2464.0, "source": "osm", "_tags": {"ele": "2464", "gnis:feature_id": "839156", "name": "Buffalo Mountain", "natural": "peak"}}, {"name": "Camelback Peak", "latitude": 39.4571433, "longitude": -118.0801285, "elevation": 1937.0, "source": "osm", "_tags": {"ele": "1937", "gnis:feature_id": "839286", "name": "Camelback Peak", "natural": "peak"}}, {"name": "Chalk Mountain", "latitude": 39.3257567, "longitude": -118.1206837, "elevation": 1622.0, "source": "osm", "_tags": {"ele": "1622", "gnis:feature_id": "839409", "name": "Chalk Mountain", "natural": "peak"}}, {"name": "Chocolate Butte", "latitude": 40.045746, "longitude": -118.1237477, "elevation": 1422.0, "source": "osm", "_tags": {"ele": "1422", "gnis:feature_id": "839506", "name": "Chocolate Butte", "natural": "peak"}}, {"name": "Cornish Peak", "latitude": 40.0168582, "longitude": -118.0040214, "elevation": 2264.0, "source": "osm", "_tags": {"ele": "2264", "gnis:feature_id": "839692", "name": "Cornish Peak", "natural": "peak"}}, {"name": "Driscoll Peak", "latitude": 39.4410325, "longitude": -118.081795, "elevation": 1942.0, "source": "osm", "_tags": {"ele": "1942", "gnis:feature_id": "840130", "name": "Driscoll Peak", "natural": "peak"}}, {"name": "Granite Peak", "latitude": 40.2782452, "longitude": -117.7940133, "elevation": 2540.0, "source": "osm", "_tags": {"ele": "2540", "gnis:feature_id": "840753", "name": "Granite Peak", "natural": "peak"}}, {"name": "Independence Hill", "latitude": 40.2771318, "longitude": -118.1981958, "elevation": 1893.0, "source": "osm", "_tags": {"ele": "1893", "gnis:feature_id": "841233", "name": "Independence Hill", "natural": "peak"}}, {"name": "Mount Lincoln", "latitude": 39.5493631, "longitude": -118.2631902, "elevation": 2611.0, "source": "osm", "_tags": {"ele": "2611", "gnis:feature_id": "841648", "name": "Mount Lincoln", "natural": "peak"}}, {"name": "Little Black Knob", "latitude": 40.2446321, "longitude": -118.2134736, "elevation": 1680.0, "source": "osm", "_tags": {"ele": "1680", "gnis:feature_id": "841662", "name": "Little Black Knob", "natural": "peak"}}, {"name": "Logan Peak", "latitude": 40.0501915, "longitude": -117.9379075, "elevation": 2112.0, "source": "osm", "_tags": {"ele": "2112", "gnis:feature_id": "841758", "name": "Logan Peak", "natural": "peak"}}, {"name": "Lone Mountain", "latitude": 40.1947284, "longitude": -118.5300111, "elevation": 1419.0, "source": "osm", "_tags": {"ele": "1419", "gnis:feature_id": "841767", "name": "Lone Mountain", "natural": "peak"}}, {"name": "Lone Rock", "latitude": 39.8776916, "longitude": -118.3470852, "elevation": 1210.0, "source": "osm", "_tags": {"ele": "1210", "gnis:feature_id": "841778", "name": "Lone Rock", "natural": "peak"}}, {"name": "Nenzel Hill", "latitude": 40.2847561, "longitude": -118.1518099, "elevation": 2222.0, "source": "osm", "_tags": {"ele": "2222", "gnis:feature_id": "842408", "name": "Nenzel Hill", "natural": "peak"}}, {"name": "Pirouette Mountain", "latitude": 39.4529765, "longitude": -118.1267964, "elevation": 1523.0, "source": "osm", "_tags": {"ele": "1523", "gnis:feature_id": "842874", "name": "Pirouette Mountain", "natural": "peak"}}, {"name": "Porphyry Peak", "latitude": 39.4599211, "longitude": -118.0737394, "elevation": 1900.0, "source": "osm", "_tags": {"ele": "1900", "gnis:feature_id": "842937", "name": "Porphyry Peak", "natural": "peak"}}, {"name": "Red Hill", "latitude": 40.0785245, "longitude": -117.9342963, "elevation": 1576.0, "source": "osm", "_tags": {"ele": "1576", "gnis:feature_id": "843144", "name": "Red Hill", "natural": "peak"}}, {"name": "Reed Butte", "latitude": 39.4382527, "longitude": -118.588477, "elevation": 1208.0, "source": "osm", "_tags": {"ele": "1208", "gnis:feature_id": "843182", "name": "Reed Butte", "natural": "peak"}}, {"name": "Sand Mountain", "latitude": 39.3085328, "longitude": -118.3970798, "elevation": 1329.0, "source": "osm", "_tags": {"ele": "1329", "gnis:feature_id": "843484", "name": "Sand Mountain", "natural": "peak", "wikidata": "Q7415839"}}, {"name": "Sehoo Mountain", "latitude": 39.4193639, "longitude": -118.5959771, "elevation": 1392.0, "source": "osm", "_tags": {"ele": "1392", "gnis:feature_id": "843566", "name": "Sehoo Mountain", "natural": "peak"}}, {"name": "Shaly Peak", "latitude": 39.5485299, "longitude": -118.2831907, "elevation": 2464.0, "source": "osm", "_tags": {"ele": "2464", "gnis:feature_id": "843600", "name": "Shaly Peak", "natural": "peak"}}, {"name": "Slaughter Peaks", "latitude": 39.5215859, "longitude": -118.2848572, "elevation": 2474.0, "source": "osm", "_tags": {"ele": "2474", "gnis:feature_id": "843755", "name": "Slaughter Peaks", "natural": "peak"}}, {"name": "Table Mountain", "latitude": 40.0326916, "longitude": -117.9495747, "elevation": 2168.0, "source": "osm", "_tags": {"ele": "2168", "gnis:feature_id": "844161", "name": "Table Mountain", "natural": "peak"}}, {"name": "Topog Peak", "latitude": 39.8871344, "longitude": -118.6573723, "elevation": 1662.0, "source": "osm", "_tags": {"ele": "1662", "gnis:feature_id": "844367", "name": "Topog Peak", "natural": "peak", "wikidata": "Q22060847"}}, {"name": "Tungsten Mountain", "latitude": 39.686308, "longitude": -117.7198396, "elevation": 2263.0, "source": "osm", "_tags": {"ele": "2263", "gnis:feature_id": "844452", "name": "Tungsten Mountain", "natural": "peak"}}, {"name": "Twin Peaks", "latitude": 39.4093665, "longitude": -118.0570718, "elevation": 2162.0, "source": "osm", "_tags": {"ele": "2162", "gnis:feature_id": "844483", "name": "Twin Peaks", "natural": "peak"}}, {"name": "Weaver Hill", "latitude": 40.2701876, "longitude": -118.1751393, "elevation": 1928.0, "source": "osm", "_tags": {"ele": "1928", "gnis:feature_id": "844683", "name": "Weaver Hill", "natural": "peak"}}, {"name": "Wonder Mountain", "latitude": 39.4493658, "longitude": -118.0542943, "elevation": 1900.0, "source": "osm", "_tags": {"ele": "1900", "gnis:feature_id": "845019", "name": "Wonder Mountain", "natural": "peak"}}, {"name": "Battleground Point", "latitude": 39.713804, "longitude": -118.6459816, "elevation": 1190.0, "source": "osm", "_tags": {"ele": "1190", "gnis:feature_id": "845110", "name": "Battleground Point", "natural": "peak"}}, {"name": "Crown Peak", "latitude": 39.4093663, "longitude": -118.0926283, "elevation": 2008.0, "source": "osm", "_tags": {"ele": "2008", "gnis:feature_id": "845419", "name": "Crown Peak", "natural": "peak"}}, {"name": "Desatoya Peak", "latitude": 39.3653677, "longitude": -117.759092, "elevation": 2995.0, "source": "osm", "_tags": {"ele": "2995", "gnis:feature_id": "845427", "name": "Desatoya Peak", "natural": "peak", "wikidata": "Q5263639"}}, {"name": "Dickey Peak", "latitude": 39.4774205, "longitude": -118.112074, "elevation": 1495.0, "source": "osm", "_tags": {"ele": "1495", "gnis:feature_id": "845430", "name": "Dickey Peak", "natural": "peak"}}, {"name": "Eagles House", "latitude": 39.4204753, "longitude": -118.5693093, "elevation": 1373.0, "source": "osm", "_tags": {"ele": "1373", "gnis:feature_id": "845445", "name": "Eagles House", "natural": "peak"}}, {"name": "Granite Point", "latitude": 40.1040759, "longitude": -118.5965393, "elevation": 1336.0, "source": "osm", "_tags": {"ele": "1336", "gnis:feature_id": "845487", "name": "Granite Point", "natural": "peak"}}, {"name": "Queen Peak", "latitude": 39.4685321, "longitude": -118.0531833, "elevation": 1829.0, "source": "osm", "_tags": {"ele": "1829", "gnis:feature_id": "845607", "name": "Queen Peak", "natural": "peak"}}, {"name": "Round Mountain", "latitude": 39.4560325, "longitude": -118.026238, "elevation": 2112.0, "source": "osm", "_tags": {"ele": "2112", "gnis:feature_id": "845637", "name": "Round Mountain", "natural": "peak"}}, {"name": "Sou Hills", "latitude": 40.143247, "longitude": -117.72651, "elevation": 1611.0, "source": "osm", "_tags": {"ele": "1611", "gnis:feature_id": "845670", "name": "Sou Hills", "natural": "peak"}}, {"name": "Sunflower Hill", "latitude": 40.2824097, "longitude": -118.1615279, "elevation": 2117.0, "source": "osm", "_tags": {"ele": "2117", "gnis:feature_id": "845689", "name": "Sunflower Hill", "natural": "peak"}}, {"name": "Table Mountain", "latitude": 39.5413078, "longitude": -118.29958, "elevation": 2521.0, "source": "osm", "_tags": {"ele": "2521", "gnis:feature_id": "845692", "name": "Table Mountain", "natural": "peak"}}, {"name": "Pine Mountain", "latitude": 39.9893586, "longitude": -117.9792979, "elevation": 2248.0, "source": "osm", "_tags": {"ele": "2248", "gnis:feature_id": "846841", "name": "Pine Mountain", "natural": "peak"}}, {"name": "Star Peak", "latitude": 39.8632486, "longitude": -118.0659661, "elevation": 2280.0, "source": "osm", "_tags": {"ele": "2280", "gnis:feature_id": "847616", "name": "Star Peak", "natural": "peak"}}, {"name": "Carson Table Summit", "latitude": 39.5413078, "longitude": -118.2987467, "elevation": 2527.0, "source": "osm", "_tags": {"ele": "2527", "gnis:feature_id": "847660", "name": "Carson Table Summit", "natural": "peak"}}, {"name": "Black Butte", "latitude": 39.6132523, "longitude": -118.0017946, "elevation": 1755.0, "source": "osm", "_tags": {"ele": "1755", "gnis:feature_id": "848490", "name": "Black Butte", "natural": "peak"}}, {"name": "Grimes Point", "latitude": 39.4016979, "longitude": -118.639077, "elevation": 1266.0, "source": "osm", "_tags": {"ele": "1266", "gnis:feature_id": "848555", "name": "Grimes Point", "natural": "peak"}}, {"name": "Shaley Peak", "latitude": 39.6160305, "longitude": -117.8617888, "elevation": 2680.0, "source": "osm", "_tags": {"ele": "2680", "gnis:feature_id": "852244", "name": "Shaley Peak", "natural": "peak"}}, {"name": "Granite Mountain", "latitude": 40.2801895, "longitude": -117.8173476, "elevation": 2551.0, "source": "osm", "_tags": {"ele": "2551", "gnis:feature_id": "854472", "name": "Granite Mountain", "natural": "peak"}}, {"name": "Healy Peak", "latitude": 39.6851966, "longitude": -117.8067878, "elevation": 2696.0, "source": "osm", "_tags": {"ele": "2696", "gnis:feature_id": "856260", "name": "Healy Peak", "natural": "peak"}}, {"name": "Eetz Mountain", "latitude": 39.3960306, "longitude": -118.6265335, "elevation": 1338.0, "source": "osm", "_tags": {"ele": "1338", "gnis:feature_id": "857979", "name": "Eetz Mountain", "natural": "peak"}}, {"name": "Job Peak", "latitude": 39.5831441, "longitude": -118.2355192, "elevation": 2660.0, "source": "osm", "_tags": {"ele": "2660", "gnis:feature_id": "858038", "name": "Job Peak", "natural": "peak"}}, {"name": "Silver Hill", "latitude": 39.7038055, "longitude": -118.247358, "elevation": 2186.0, "source": "osm", "_tags": {"ele": "2186", "gnis:feature_id": "858186", "name": "Silver Hill", "natural": "peak"}}, {"name": "Desatoya North Twin", "latitude": 39.3693663, "longitude": -117.7596661, "elevation": 3027.0, "source": "osm", "_tags": {"ele": "3027", "gnis:feature_id": "863182", "name": "Desatoya North Twin", "natural": "peak"}}, {"name": "Fossil Hill", "latitude": 40.2810213, "longitude": -118.0870807, "elevation": 1595.0, "source": "osm", "_tags": {"ele": "1595", "gnis:feature_id": "863337", "name": "Fossil Hill", "natural": "peak"}}, {"name": "", "latitude": 39.3223634, "longitude": -117.696533, "elevation": 2490.0, "source": "osm", "_tags": {"ele": "2490", "natural": "peak"}}, {"name": "", "latitude": 39.3135153, "longitude": -117.695653, "elevation": 2522.0, "source": "osm", "_tags": {"ele": "2522", "natural": "peak"}}, {"name": "", "latitude": 39.3488512, "longitude": -117.708195, "elevation": 2327.0, "source": "osm", "_tags": {"ele": "2327", "natural": "peak"}}, {"name": "", "latitude": 39.3478141, "longitude": -117.720995, "elevation": 2463.0, "source": "osm", "_tags": {"ele": "2463", "natural": "peak"}}, {"name": "Pony Bob Peak", "latitude": 39.328378, "longitude": -118.462883, "elevation": null, "source": "osm", "_tags": {"gnis:feature_id": "2787897", "name": "Pony Bob Peak", "natural": "peak"}}, {"name": "Morrison Peak", "latitude": 39.42337, "longitude": -118.606738, "elevation": null, "source": "osm", "_tags": {"gnis:feature_id": "2778528", "name": "Morrison Peak", "natural": "peak"}}, {"name": "Wheat Peak", "latitude": 39.3010226, "longitude": -118.6115022, "elevation": null, "source": "osm", "_tags": {"gnis:feature_id": "2791108", "name": "Wheat Peak", "natural": "peak"}}]