[{"name": "The Sharkstooth", "latitude": 40.2807909, "longitude": -105.6740026, "elevation": 3802.0, "source": "osm", "_tags": {"ele": "3802", "gnis:feature_id": "177852", "name": "The Sharkstooth", "natural": "peak"}}, {"name": "Arrowhead", "latitude": 40.268318, "longitude": -105.6502822, "elevation": 3856.0, "source": "osm", "_tags": {"ele": "3856", "gnis:feature_id": "177866", "name": "Arrowhead", "natural": "peak"}}, {"name": "Powell Peak", "latitude": 40.2658181, "longitude": -105.6647273, "elevation": 4016.0, "source": "osm", "_tags": {"ele": "4016", "gnis:feature_id": "177878", "name": "Powell Peak", "natural": "peak", "wikidata": "Q20714939", "wikipedia": "en:Powell Peak"}}, {"name": "McHenrys Peak", "latitude": 40.2627626, "longitude": -105.6575047, "elevation": 4036.0, "source": "osm", "_tags": {"ele": "4036", "gnis:feature_id": "177879", "name": "McHenrys Peak", "natural": "peak"}}, {"name": "The Spearhead", "latitude": 40.2552626, "longitude": -105.6380596, "elevation": 3820.0, "source": "osm", "_tags": {"ele": "3820", "gnis:feature_id": "177881", "name": "The Spearhead", "natural": "peak"}}, {"name": "Mount Lady Washington", "latitude": 40.2634837, "longitude": -105.6071714, "elevation": 4037.0, "source": "osm", "_tags": {"ele": "4037", "gnis:feature_id": "177939", "name": "Mount Lady Washington", "natural": "peak"}}, {"name": "Battle Mountain", "latitude": 40.2781557, "longitude": -105.5987075, "elevation": 3670.0, "source": "osm", "_tags": {"ele": "3670", "gnis:feature_id": "177944", "name": "Battle Mountain", "natural": "peak"}}, {"name": "Popes Hill", "latitude": 40.2667347, "longitude": -105.4093343, "elevation": 2401.0, "source": "osm", "_tags": {"ele": "2401", "gnis:feature_id": "177984", "name": "Popes Hill", "natural": "peak"}}, {"name": "Pflum Hill", "latitude": 40.2602625, "longitude": -105.4166617, "elevation": 2382.0, "source": "osm", "_tags": {"ele": "2382", "gnis:feature_id": "177985", "name": "Pflum Hill", "natural": "peak"}}, {"name": "House Rock", "latitude": 40.2649844, "longitude": -105.4880535, "elevation": 2930.0, "source": "osm", "_tags": {"ele": "2930", "gnis:feature_id": "177994", "name": "House Rock", "natural": "peak"}}, {"name": "Beech Hill", "latitude": 40.2562966, "longitude": -105.2839305, "elevation": 2003.0, "source": "osm", "_tags": {"ele": "2003", "gnis:feature_id": "178033", "name": "Beech Hill", "natural": "peak"}}, {"name": "Rowell Hill", "latitude": 40.2613739, "longitude": -105.335825, "elevation": 2000.0, "source": "osm", "_tags": {"ele": "2000", "gnis:feature_id": "178035", "name": "Rowell Hill", "natural": "peak"}}, {"name": "Marten Peak", "latitude": 40.1433191, "longitude": -105.6830607, "elevation": 3668.0, "source": "osm", "_tags": {"ele": "3668", "gnis:feature_id": "178149", "name": "Marten Peak", "natural": "peak"}}, {"name": "Cooper Peak", "latitude": 40.150819, "longitude": -105.6730604, "elevation": 3738.0, "source": "osm", "_tags": {"ele": "3738", "gnis:feature_id": "178151", "name": "Cooper Peak", "natural": "peak"}}, {"name": "Ogalalla Peak", "latitude": 40.1702633, "longitude": -105.6666714, "elevation": 3987.0, "source": "osm", "_tags": {"ele": "3987", "gnis:feature_id": "178158", "name": "Ogalalla Peak", "natural": "peak"}}, {"name": "Mount Alice", "latitude": 40.2391516, "longitude": -105.6633384, "elevation": 4048.0, "source": "osm", "_tags": {"ele": "4048", "gnis:feature_id": "178171", "name": "Mount Alice", "natural": "peak", "wikidata": "Q6919356"}}, {"name": "Pilot Mountain", "latitude": 40.2313739, "longitude": -105.6583381, "elevation": 3692.0, "source": "osm", "_tags": {"ele": "3692", "gnis:feature_id": "178172", "name": "Pilot Mountain", "natural": "peak"}}, {"name": "The Cleaver", "latitude": 40.2172073, "longitude": -105.6711164, "elevation": 3712.0, "source": "osm", "_tags": {"ele": "3712", "gnis:feature_id": "178187", "name": "The Cleaver", "natural": "peak", "wikidata": "Q49082277"}}, {"name": "Isolation Peak", "latitude": 40.2027631, "longitude": -105.6772276, "elevation": 3983.0, "source": "osm", "_tags": {"ele": "3983", "gnis:feature_id": "178191", "name": "Isolation Peak", "natural": "peak"}}, {"name": "Mahana Peak", "latitude": 40.199152, "longitude": -105.6669494, "elevation": 3831.0, "source": "osm", "_tags": {"ele": "3831", "gnis:feature_id": "178199", "name": "Mahana Peak", "natural": "peak"}}, {"name": "Saint Vrain Mountain", "latitude": 40.1612637, "longitude": -105.5857285, "elevation": 3703.0, "source": "osm", "_tags": {"ele": "3703", "gnis:feature_id": "178214", "name": "Saint Vrain Mountain", "natural": "peak", "wikidata": "Q49070899"}}, {"name": "Meadow Mountain", "latitude": 40.1752782, "longitude": -105.57057, "elevation": 3546.0, "source": "osm", "_tags": {"ele": "3546", "gnis:feature_id": "178215", "name": "Meadow Mountain", "natural": "peak", "wikidata": "Q49049039"}}, {"name": "Mount Orton", "latitude": 40.2272071, "longitude": -105.6197255, "elevation": 3575.0, "source": "osm", "_tags": {"ele": "3575", "gnis:feature_id": "178229", "name": "Mount Orton", "natural": "peak", "wikidata": "Q49053907"}}, {"name": "Mount Meeker", "latitude": 40.2484361, "longitude": -105.6049383, "elevation": 4227.0, "source": "osm", "_tags": {"ele": "4227", "gnis:feature_id": "178233", "name": "Mount Meeker", "natural": "peak", "wikidata": "Q8526744"}}, {"name": "Porphyry Mountain", "latitude": 40.1269299, "longitude": -105.3880495, "elevation": 2543.0, "source": "osm", "_tags": {"ele": "2543", "gnis:feature_id": "178249", "name": "Porphyry Mountain", "natural": "peak", "wikidata": "Q49063457"}}, {"name": "Bald Mountain", "latitude": 40.1385966, "longitude": -105.4036057, "elevation": 2627.0, "source": "osm", "_tags": {"ele": "2627", "gnis:feature_id": "178257", "name": "Bald Mountain", "natural": "peak", "wikidata": "Q49010006"}}, {"name": "Cannon Mountain", "latitude": 40.1424855, "longitude": -105.42944, "elevation": 2624.0, "source": "osm", "_tags": {"ele": "2624", "ele:ft": "8615", "gnis:feature_id": "178259", "name": "Cannon Mountain", "natural": "peak", "wikidata": "Q49017919"}}, {"name": "Miller Rock", "latitude": 40.1488743, "longitude": -105.4502741, "elevation": 2633.0, "source": "osm", "_tags": {"ele": "2633", "gnis:feature_id": "178260", "name": "Miller Rock", "natural": "peak", "wikidata": "Q49050311"}}, {"name": "Big John Mountain", "latitude": 40.1958183, "longitude": -105.4569411, "elevation": 2765.0, "source": "osm", "_tags": {"ele": "2765", "gnis:feature_id": "178269", "name": "Big John Mountain", "natural": "peak", "wikidata": "Q49012563"}}, {"name": "South Sheep Mountain", "latitude": 40.2088739, "longitude": -105.4263843, "elevation": 2516.0, "source": "osm", "_tags": {"ele": "2516", "gnis:feature_id": "178270", "name": "South Sheep Mountain", "natural": "peak", "wikidata": "Q49076079"}}, {"name": "Smithy Mountain", "latitude": 40.2130407, "longitude": -105.3816603, "elevation": 2171.0, "source": "osm", "_tags": {"ele": "2171", "gnis:feature_id": "178271", "name": "Smithy Mountain", "natural": "peak", "wikidata": "Q49074878"}}, {"name": "Cook Mountain", "latitude": 40.2179323, "longitude": -105.4046441, "elevation": 2302.0, "source": "osm", "_tags": {"ele": "2302", "gnis:feature_id": "178272", "name": "Cook Mountain", "natural": "peak", "wikidata": "Q49021804"}}, {"name": "North Sheep Mountain", "latitude": 40.2224849, "longitude": -105.4299956, "elevation": 2523.0, "source": "osm", "_tags": {"ele": "2523", "gnis:feature_id": "178273", "name": "North Sheep Mountain", "natural": "peak", "wikidata": "Q49057523"}}, {"name": "Table Mountain", "latitude": 40.1274855, "longitude": -105.2563779, "elevation": 1713.0, "source": "osm", "_tags": {"ele": "1713", "gnis:feature_id": "178285", "name": "Table Mountain", "natural": "peak", "wikidata": "Q49080748"}}, {"name": "Fairview Peak", "latitude": 40.1358188, "longitude": -105.3499925, "elevation": 2600.0, "source": "osm", "_tags": {"ele": "2600", "gnis:feature_id": "178291", "name": "Fairview Peak", "natural": "peak", "wikidata": "Q49028444"}}, {"name": "Red Hill", "latitude": 40.1741521, "longitude": -105.283601, "elevation": 2002.0, "source": "osm", "_tags": {"ele": "2002", "gnis:feature_id": "178298", "name": "Red Hill", "natural": "peak", "wikidata": "Q49067317"}}, {"name": "Coffintop Mountain", "latitude": 40.1988741, "longitude": -105.355826, "elevation": 2448.0, "source": "osm", "_tags": {"ele": "2448", "ele:ft": "8049", "gnis:feature_id": "178302", "name": "Coffintop Mountain", "natural": "peak", "wikidata": "Q49021348"}}, {"name": "Indian Lookout Mountain", "latitude": 40.2205409, "longitude": -105.2952679, "elevation": 1993.0, "source": "osm", "_tags": {"ele": "1993", "ele:ft": "6538", "gnis:feature_id": "178308", "name": "Indian Lookout Mountain", "natural": "peak", "wikidata": "Q49038617"}}, {"name": "Steamboat Mountain", "latitude": 40.2360964, "longitude": -105.2841562, "elevation": 1864.0, "source": "osm", "_tags": {"ele": "1864", "gnis:feature_id": "178312", "name": "Steamboat Mountain", "natural": "peak", "wikidata": "Q49077821"}}, {"name": "Potato Hill", "latitude": 40.1658187, "longitude": -105.2408216, "elevation": 1641.0, "source": "osm", "_tags": {"ele": "1641", "gnis:feature_id": "178328", "name": "Potato Hill", "natural": "peak", "wikidata": "Q49063723"}}, {"name": "Table Top Mountain", "latitude": 40.2283183, "longitude": -105.1685963, "elevation": 1648.0, "source": "osm", "_tags": {"ele": "1648", "gnis:feature_id": "178341", "name": "Table Top Mountain", "natural": "peak", "wikidata": "Q49081072"}}, {"name": "Rabbit Mountain", "latitude": 40.2360962, "longitude": -105.197764, "elevation": 1827.0, "source": "osm", "_tags": {"ele": "1827", "gnis:feature_id": "178343", "name": "Rabbit Mountain", "natural": "peak", "wikidata": "Q49066271"}}, {"name": "Mount Neva", "latitude": 40.0069313, "longitude": -105.6883378, "elevation": 3908.0, "source": "osm", "_tags": {"ele": "3908", "gnis:feature_id": "178426", "name": "Mount Neva", "natural": "peak", "wikidata": "Q20714884"}}, {"name": "North Arapaho Peak", "latitude": 40.0266534, "longitude": -105.6500032, "elevation": 4100.0, "source": "osm", "_tags": {"ele": "4100", "gnis:feature_id": "178428", "name": "North Arapaho Peak", "natural": "peak", "wikidata": "Q7053957"}}, {"name": "Arikaree Peak", "latitude": 40.0467898, "longitude": -105.6385573, "elevation": 4008.0, "source": "osm", "_tags": {"ele": "4008", "gnis:feature_id": "178429", "name": "Arikaree Peak", "natural": "peak"}}, {"name": "Navajo Peak", "latitude": 40.0535975, "longitude": -105.6466699, "elevation": 4087.0, "source": "osm", "_tags": {"ele": "4087", "gnis:feature_id": "178430", "name": "Navajo Peak", "natural": "peak", "wikidata": "Q49056461"}}, {"name": "Apache Peak", "latitude": 40.0585288, "longitude": -105.6510884, "elevation": 4097.0, "source": "osm", "_tags": {"ele": "4097", "gnis:feature_id": "178431", "name": "Apache Peak", "natural": "peak"}}, {"name": "Shoshoni Peak", "latitude": 40.0668021, "longitude": -105.6386961, "elevation": 3949.0, "source": "osm", "_tags": {"ele": "3949", "gnis:feature_id": "178432", "name": "Shoshoni Peak", "natural": "peak"}}, {"name": "Pawnee Peak", "latitude": 40.0816262, "longitude": -105.6326959, "elevation": 3937.0, "source": "osm", "_tags": {"ele": "3937", "gnis:feature_id": "178433", "name": "Pawnee Peak", "natural": "peak"}}, {"name": "Mount Toll", "latitude": 40.0883194, "longitude": -105.6336141, "elevation": 3942.0, "source": "osm", "_tags": {"ele": "3942", "gnis:feature_id": "178435", "name": "Mount Toll", "natural": "peak"}}, {"name": "Paiute Peak", "latitude": 40.098228, "longitude": -105.6329605, "elevation": 3966.0, "source": "osm", "_tags": {"ele": "3966", "gnis:feature_id": "178436", "name": "Paiute Peak", "natural": "peak"}}, {"name": "Santanta Peak", "latitude": 40.0255423, "longitude": -105.6900046, "elevation": 3649.0, "source": "osm", "_tags": {"ele": "3649", "gnis:feature_id": "178440", "name": "Santanta Peak", "natural": "peak"}}, {"name": "Mount George", "latitude": 40.0569308, "longitude": -105.6608371, "elevation": 3815.0, "source": "osm", "_tags": {"ele": "3815", "gnis:feature_id": "178445", "name": "Mount George", "natural": "peak"}}, {"name": "Mount Achonee", "latitude": 40.0726604, "longitude": -105.6781544, "elevation": 3855.0, "source": "osm", "_tags": {"ele": "3855", "gnis:feature_id": "178447", "name": "Mount Achonee", "natural": "peak"}}, {"name": "Lone Eagle Peak", "latitude": 40.0693983, "longitude": -105.6606361, "elevation": 3660.0, "source": "osm", "_tags": {"ele": "3660", "gnis:feature_id": "178451", "name": "Lone Eagle Peak", "natural": "peak", "wikidata": "Q6671266"}}, {"name": "South Arapaho Peak", "latitude": 40.0196529, "longitude": -105.6495765, "elevation": 4067.0, "source": "osm", "_tags": {"ele": "4067", "gnis:feature_id": "178460", "name": "South Arapaho Peak", "natural": "peak"}}, {"name": "Niwot Mountain", "latitude": 40.0588752, "longitude": -105.5524998, "elevation": 3497.0, "source": "osm", "_tags": {"ele": "3497", "gnis:feature_id": "178482", "name": "Niwot Mountain", "natural": "peak", "wikidata": "Q49057067"}}, {"name": "Little Pawnee Peak", "latitude": 40.0824862, "longitude": -105.6213913, "elevation": 3753.0, "source": "osm", "_tags": {"ele": "3753", "gnis:feature_id": "178494", "name": "Little Pawnee Peak", "natural": "peak"}}, {"name": "Mount Audubon", "latitude": 40.0992296, "longitude": -105.6162598, "elevation": 4026.0, "source": "osm", "_tags": {"ele": "4026", "gnis:feature_id": "178497", "name": "Mount Audubon", "natural": "peak", "wikidata": "Q14684973"}}, {"name": "Monument Hill", "latitude": 40.0494304, "longitude": -105.396938, "elevation": 2451.0, "source": "osm", "_tags": {"ele": "2451", "gnis:feature_id": "178517", "name": "Monument Hill", "natural": "peak", "wikidata": "Q6906810", "wikipedia": "en:Monument Hill (Colorado)"}}, {"name": "Hoosier Hill", "latitude": 40.0541526, "longitude": -105.3941608, "elevation": 2370.0, "source": "osm", "_tags": {"ele": "2370", "gnis:feature_id": "178523", "name": "Hoosier Hill", "natural": "peak", "wikidata": "Q49037027"}}, {"name": "Bighorn Mountain", "latitude": 40.0627637, "longitude": -105.3874939, "elevation": 2555.0, "source": "osm", "_tags": {"ele": "2555", "gnis:feature_id": "178535", "name": "Bighorn Mountain", "natural": "peak"}}, {"name": "Burnt Mountain", "latitude": 40.0752638, "longitude": -105.4713858, "elevation": 2820.0, "source": "osm", "_tags": {"ele": "2820", "gnis:feature_id": "178550", "name": "Burnt Mountain", "natural": "peak"}}, {"name": "Nugget Hill", "latitude": 40.0910968, "longitude": -105.3813826, "elevation": 2609.0, "source": "osm", "_tags": {"ele": "2609", "gnis:feature_id": "178554", "name": "Nugget Hill", "natural": "peak", "wikidata": "Q49057701"}}, {"name": "Walker Mountain", "latitude": 40.0985968, "longitude": -105.4088836, "elevation": 2682.0, "source": "osm", "_tags": {"ele": "2682", "gnis:feature_id": "178556", "name": "Walker Mountain", "natural": "peak", "wikidata": "Q49087370"}}, {"name": "Bueno Mountain", "latitude": 40.1227634, "longitude": -105.4147172, "elevation": 2633.0, "source": "osm", "_tags": {"ele": "2633", "gnis:feature_id": "178564", "name": "Bueno Mountain", "natural": "peak", "wikidata": "Q49016400"}}, {"name": "Peewink Mountain", "latitude": 40.0038753, "longitude": -105.4402735, "elevation": 2527.0, "source": "osm", "_tags": {"ele": "2527", "gnis:feature_id": "178577", "name": "Peewink Mountain", "natural": "peak", "wikidata": "Q49060534"}}, {"name": "Comforter Mountain", "latitude": 40.0027642, "longitude": -105.4211062, "elevation": 2497.0, "source": "osm", "_tags": {"ele": "2497", "gnis:feature_id": "178579", "name": "Comforter Mountain", "natural": "peak", "wikidata": "Q49021597"}}, {"name": "Sugarloaf Mountain", "latitude": 40.0266529, "longitude": -105.4186062, "elevation": 2709.0, "source": "osm", "_tags": {"ele": "2709", "gnis:feature_id": "178591", "name": "Sugarloaf Mountain", "natural": "peak", "wikidata": "Q49079520"}}, {"name": "Bald Mountain", "latitude": 40.0258196, "longitude": -105.4522184, "elevation": 2782.0, "source": "osm", "_tags": {"ele": "2782", "gnis:feature_id": "178592", "name": "Bald Mountain", "natural": "peak", "wikidata": "Q49010003"}}, {"name": "Logan Hill", "latitude": 40.0316527, "longitude": -105.382216, "elevation": 2372.0, "source": "osm", "_tags": {"ele": "2372", "gnis:feature_id": "178594", "name": "Logan Hill", "natural": "peak", "wikidata": "Q49045884"}}, {"name": "Dirigo Hill", "latitude": 40.0355416, "longitude": -105.3794381, "elevation": 2252.0, "source": "osm", "_tags": {"ele": "2252", "gnis:feature_id": "178597", "name": "Dirigo Hill", "natural": "peak", "wikidata": "Q49024960"}}, {"name": "Golden Age Hill", "latitude": 40.1230411, "longitude": -105.3655487, "elevation": 2551.0, "source": "osm", "_tags": {"ele": "2551", "gnis:feature_id": "178611", "name": "Golden Age Hill", "natural": "peak", "wikidata": "Q49032206"}}, {"name": "Bald Mountain", "latitude": 40.0470714, "longitude": -105.3441039, "elevation": 2176.0, "source": "osm", "_tags": {"ele": "2176", "gnis:feature_id": "178612", "name": "Bald Mountain", "natural": "peak", "wikidata": "Q49010004"}}, {"name": "Lee Hill", "latitude": 40.0721916, "longitude": -105.3546799, "elevation": 2405.0, "source": "osm", "_tags": {"ele": "2405", "gnis:feature_id": "178614", "name": "Lee Hill", "natural": "peak", "wikidata": "Q49043847"}}, {"name": "Emancipation Hill", "latitude": 40.0547081, "longitude": -105.3649931, "elevation": 2237.0, "source": "osm", "_tags": {"ele": "2237", "gnis:feature_id": "178615", "name": "Emancipation Hill", "natural": "peak", "wikidata": "Q49027992"}}, {"name": "Flagstaff Mountain", "latitude": 40.0016525, "longitude": -105.3074913, "elevation": 2127.0, "source": "osm", "_tags": {"ele": "2127", "gnis:feature_id": "178631", "name": "Flagstaff Mountain", "natural": "peak", "wikidata": "Q5457029", "wikipedia": "en:Flagstaff Mountain (Boulder County, Colorado)"}}, {"name": "Arkansas Mountain", "latitude": 40.0297082, "longitude": -105.3694378, "elevation": 2351.0, "source": "osm", "_tags": {"ele": "2351", "gnis:feature_id": "178640", "name": "Arkansas Mountain", "natural": "peak", "wikidata": "Q49009049"}}, {"name": "Poorman Hill", "latitude": 40.0305415, "longitude": -105.3358256, "elevation": 1974.0, "source": "osm", "_tags": {"ele": "1974", "gnis:feature_id": "178641", "name": "Poorman Hill", "natural": "peak", "wikidata": "Q49063286"}}, {"name": "Alaska Hill", "latitude": 40.0355416, "longitude": -105.365271, "elevation": 2101.0, "source": "osm", "_tags": {"ele": "2101", "gnis:feature_id": "178644", "name": "Alaska Hill", "natural": "peak", "wikidata": "Q49008574"}}, {"name": "Hoover Hill", "latitude": 40.0038742, "longitude": -105.1991542, "elevation": 1649.0, "source": "osm", "_tags": {"ele": "1649", "gnis:feature_id": "178693", "name": "Hoover Hill", "natural": "peak", "wikidata": "Q49037034"}}, {"name": "Valmont Butte", "latitude": 40.0303129, "longitude": -105.2135332, "elevation": 1635.0, "source": "osm", "_tags": {"ele": "1635", "gnis:feature_id": "178699", "name": "Valmont Butte", "natural": "peak", "wikidata": "Q49086840"}}, {"name": "Haystack Mountain", "latitude": 40.1113743, "longitude": -105.2241546, "elevation": 1690.0, "source": "osm", "_tags": {"ele": "1690", "gnis:feature_id": "178711", "name": "Haystack Mountain", "natural": "peak", "wikidata": "Q49035601"}}, {"name": "Gun Barrel Hill", "latitude": 40.0628177, "longitude": -105.1604074, "elevation": 1653.0, "source": "osm", "_tags": {"ele": "1653", "gnis:feature_id": "178712", "name": "Gun Barrel Hill", "natural": "peak", "tourism": "viewpoint"}}, {"name": "Riley Mound", "latitude": 40.124705, "longitude": -104.7463578, "elevation": 1583.0, "source": "osm", "_tags": {"ele": "1583", "gnis:feature_id": "180876", "name": "Riley Mound", "natural": "peak"}}, {"name": "Nebraska Hill", "latitude": 39.8808205, "longitude": -105.6513915, "elevation": 3518.0, "source": "osm", "_tags": {"ele": "3518", "gnis:feature_id": "180983", "name": "Nebraska Hill", "natural": "peak"}}, {"name": "Guinn Mountain", "latitude": 39.9394314, "longitude": -105.6494472, "elevation": 3419.0, "source": "osm", "_tags": {"ele": "3419", "gnis:feature_id": "180987", "name": "Guinn Mountain", "natural": "peak", "wikidata": "Q49034275"}}, {"name": "Devils Thumb", "latitude": 39.9782974, "longitude": -105.685071, "elevation": 3688.0, "source": "osm", "_tags": {"ele": "3688", "gnis:feature_id": "181008", "name": "Devils Thumb", "natural": "peak"}}, {"name": "Jumbo Mountain", "latitude": 39.8969316, "longitude": -105.5544436, "elevation": 3038.0, "source": "osm", "_tags": {"ele": "3038", "gnis:feature_id": "181030", "name": "Jumbo Mountain", "natural": "peak"}}, {"name": "Park Hill", "latitude": 39.9572092, "longitude": -105.5366654, "elevation": 2688.0, "source": "osm", "_tags": {"ele": "2688", "gnis:feature_id": "181059", "name": "Park Hill", "natural": "peak", "wikidata": "Q49059879"}}, {"name": "Buckeye Mountain", "latitude": 39.9220041, "longitude": -105.5626621, "elevation": 3003.0, "source": "osm", "_tags": {"ele": "3003", "gnis:feature_id": "181060", "name": "Buckeye Mountain", "natural": "peak"}}, {"name": "Tennessee Mountain", "latitude": 39.9335982, "longitude": -105.5558327, "elevation": 3039.0, "source": "osm", "_tags": {"ele": "3039", "gnis:feature_id": "181062", "name": "Tennessee Mountain", "natural": "peak", "wikidata": "Q49081928"}}, {"name": "Spencer Mountain", "latitude": 39.9433203, "longitude": -105.5725, "elevation": 2941.0, "source": "osm", "_tags": {"ele": "2941", "gnis:feature_id": "181065", "name": "Spencer Mountain", "natural": "peak", "wikidata": "Q49076320"}}, {"name": "Eldorado Mountain", "latitude": 39.957487, "longitude": -105.5636109, "elevation": 2941.0, "source": "osm", "_tags": {"ele": "2941", "gnis:feature_id": "181071", "name": "Eldorado Mountain", "natural": "peak", "wikidata": "Q49027519"}}, {"name": "Bryan Mountain", "latitude": 39.9405426, "longitude": -105.6172239, "elevation": 3296.0, "source": "osm", "_tags": {"ele": "3296", "gnis:feature_id": "181074", "name": "Bryan Mountain", "natural": "peak", "wikidata": "Q49015922"}}, {"name": "Ute Mountain", "latitude": 39.9422092, "longitude": -105.5841671, "elevation": 2982.0, "source": "osm", "_tags": {"ele": "2982", "gnis:feature_id": "181075", "name": "Ute Mountain", "natural": "peak", "wikidata": "Q49086752"}}, {"name": "Bald Mountain", "latitude": 39.9944313, "longitude": -105.610835, "elevation": 3455.0, "source": "osm", "_tags": {"ele": "3455", "gnis:feature_id": "181078", "name": "Bald Mountain", "natural": "peak", "wikidata": "Q49010001"}}, {"name": "Caribou Hill", "latitude": 39.9783202, "longitude": -105.5886119, "elevation": 3187.0, "source": "osm", "_tags": {"ele": "3187", "gnis:feature_id": "181080", "name": "Caribou Hill", "natural": "peak", "wikidata": "Q49018130"}}, {"name": "Klondike Mountain", "latitude": 39.9797091, "longitude": -105.6036124, "elevation": 3277.0, "source": "osm", "_tags": {"ele": "3277", "gnis:feature_id": "181081", "name": "Klondike Mountain", "natural": "peak", "wikidata": "Q49042041"}}, {"name": "Mineral Mountain", "latitude": 39.9630426, "longitude": -105.5838894, "elevation": 3109.0, "source": "osm", "_tags": {"ele": "3109", "gnis:feature_id": "181083", "name": "Mineral Mountain", "natural": "peak", "wikidata": "Q49050502"}}, {"name": "Boulder County Hill", "latitude": 39.9813758, "longitude": -105.5658333, "elevation": 3109.0, "source": "osm", "_tags": {"ele": "3109", "gnis:feature_id": "181096", "name": "Boulder County Hill", "natural": "peak", "wikidata": "Q49014970"}}, {"name": "Pomeroy Mountain", "latitude": 39.9935979, "longitude": -105.5775004, "elevation": 3054.0, "source": "osm", "_tags": {"ele": "3054", "gnis:feature_id": "181105", "name": "Pomeroy Mountain", "natural": "peak", "wikidata": "Q49063135"}}, {"name": "Thorodin Mountain", "latitude": 39.8874871, "longitude": -105.4255504, "elevation": 3195.0, "source": "osm", "_tags": {"ele": "3195", "gnis:feature_id": "181127", "name": "Thorodin Mountain", "natural": "peak"}}, {"name": "Starr Peak", "latitude": 39.8935981, "longitude": -105.4194391, "elevation": 3198.0, "source": "osm", "_tags": {"ele": "3198", "gnis:feature_id": "181128", "name": "Starr Peak", "natural": "peak"}}, {"name": "Miramonte Mountain", "latitude": 39.8902648, "longitude": -105.4086055, "elevation": 2915.0, "source": "osm", "_tags": {"ele": "2915", "gnis:feature_id": "181131", "name": "Miramonte Mountain", "natural": "peak"}}, {"name": "Tungsten Mountain", "latitude": 39.9463759, "longitude": -105.4866636, "elevation": 2721.0, "source": "osm", "_tags": {"ele": "2721", "gnis:feature_id": "181143", "name": "Tungsten Mountain", "natural": "peak", "wikidata": "Q49085187"}}, {"name": "Hurricane Hill", "latitude": 39.9775588, "longitude": -105.490478, "elevation": 2669.0, "source": "osm", "_tags": {"ele": "2669", "gnis:feature_id": "181154", "name": "Hurricane Hill", "natural": "peak", "wikidata": "Q49038117"}}, {"name": "Twin Sisters Peak", "latitude": 39.9727642, "longitude": -105.3844383, "elevation": 2650.0, "source": "osm", "_tags": {"ele": "2650", "gnis:feature_id": "181160", "name": "Twin Sisters Peak", "natural": "peak", "wikidata": "Q49086344"}}, {"name": "Eldorado Mountain", "latitude": 39.9141531, "longitude": -105.2947131, "elevation": 2537.0, "source": "osm", "_tags": {"ele": "2537", "gnis:feature_id": "181169", "name": "Eldorado Mountain", "natural": "peak", "wikidata": "Q5354108"}}, {"name": "Scar Top Mountain", "latitude": 39.9097088, "longitude": -105.3269363, "elevation": 2675.0, "source": "osm", "_tags": {"ele": "2675", "gnis:feature_id": "181170", "name": "Scar Top Mountain", "natural": "peak"}}, {"name": "Crescent Mountain", "latitude": 39.8930422, "longitude": -105.3138803, "elevation": 2724.0, "source": "osm", "_tags": {"ele": "2724", "gnis:feature_id": "181171", "name": "Crescent Mountain", "natural": "peak"}}, {"name": "Coal Creek Peak", "latitude": 39.8883199, "longitude": -105.2913796, "elevation": 2594.0, "source": "osm", "_tags": {"ele": "2594", "gnis:feature_id": "181176", "name": "Coal Creek Peak", "natural": "peak"}}, {"name": "Shirttail Peak", "latitude": 39.9341529, "longitude": -105.2886018, "elevation": 2200.0, "source": "osm", "_tags": {"ele": "2200", "gnis:feature_id": "181179", "name": "Shirttail Peak", "natural": "peak", "wikidata": "Q49073393"}}, {"name": "South Boulder Peak", "latitude": 39.9537471, "longitude": -105.2994582, "elevation": 2598.0, "source": "osm", "_tags": {"ele": "2598", "gnis:feature_id": "181188", "name": "South Boulder Peak", "natural": "peak", "wikidata": "Q49075722"}}, {"name": "Langridge Dyke", "latitude": 39.9513752, "longitude": -105.3402701, "elevation": 2257.0, "source": "osm", "_tags": {"ele": "2257", "gnis:feature_id": "181195", "name": "Langridge Dyke", "natural": "peak", "wikidata": "Q49043465"}}, {"name": "Tram Hill", "latitude": 39.9983193, "longitude": -105.3330478, "elevation": 2161.0, "source": "osm", "_tags": {"ele": "2161", "gnis:feature_id": "181205", "name": "Tram Hill", "natural": "peak", "wikidata": "Q49084614"}}, {"name": "Green Mountain", "latitude": 39.9821525, "longitude": -105.301699, "elevation": 2484.0, "source": "osm", "_tags": {"ele": "2484", "gnis:feature_id": "181211", "name": "Green Mountain", "natural": "peak", "wikidata": "Q14684535"}}, {"name": "The Flatirons", "latitude": 39.9841526, "longitude": -105.2941576, "elevation": 2181.0, "source": "osm", "_tags": {"ele": "2181", "gnis:feature_id": "181212", "name": "The Flatirons", "natural": "peak", "wikidata": "Q1146256"}}, {"name": "Bear Peak", "latitude": 39.9602372, "longitude": -105.2952191, "elevation": 2578.0, "source": "osm", "_tags": {"ele": "2578", "gnis:feature_id": "181215", "name": "Bear Peak", "natural": "peak", "wikidata": "Q4876523"}}, {"name": "Table Mountain", "latitude": 39.9774859, "longitude": -105.2786016, "elevation": 1891.0, "source": "osm", "_tags": {"ele": "1891", "gnis:feature_id": "181225", "name": "Table Mountain", "natural": "peak", "wikidata": "Q49080746"}}, {"name": "Lake Mesa", "latitude": 39.9485968, "longitude": -105.1949875, "elevation": 1745.0, "source": "osm", "_tags": {"ele": "1745", "gnis:feature_id": "181242", "name": "Lake Mesa", "natural": "peak", "wikidata": "Q49043241"}}, {"name": "Davidson Mesa", "latitude": 39.9310969, "longitude": -105.1916541, "elevation": 1764.0, "source": "osm", "_tags": {"ele": "1764", "gnis:feature_id": "181258", "name": "Davidson Mesa", "natural": "peak", "wikidata": "Q49023677"}}, {"name": "Red Elephant Hill", "latitude": 39.7769319, "longitude": -105.6483355, "elevation": 3137.0, "source": "osm", "_tags": {"ele": "3137", "gnis:feature_id": "181365", "name": "Red Elephant Hill", "natural": "peak"}}, {"name": "Fox Mountain", "latitude": 39.8330429, "longitude": -105.6436133, "elevation": 3332.0, "source": "osm", "_tags": {"ele": "3332", "gnis:feature_id": "181374", "name": "Fox Mountain", "natural": "peak"}}, {"name": "James Peak", "latitude": 39.8522094, "longitude": -105.6900039, "elevation": 4056.0, "source": "osm", "_tags": {"ele": "4056", "gnis:feature_id": "181399", "name": "James Peak", "natural": "peak"}}, {"name": "Kingston Peak", "latitude": 39.8474873, "longitude": -105.6508358, "elevation": 3698.0, "source": "osm", "_tags": {"ele": "3698", "gnis:feature_id": "181407", "name": "Kingston Peak", "natural": "peak"}}, {"name": "Bellevue Mountain", "latitude": 39.763599, "longitude": -105.5422203, "elevation": 2954.0, "source": "osm", "_tags": {"ele": "2954", "gnis:feature_id": "181430", "name": "Bellevue Mountain", "natural": "peak"}}, {"name": "Alps Hill", "latitude": 39.78721, "longitude": -105.5419426, "elevation": 2971.0, "source": "osm", "_tags": {"ele": "2971", "gnis:feature_id": "181436", "name": "Alps Hill", "natural": "peak"}}, {"name": "Quartz Hill", "latitude": 39.7885989, "longitude": -105.5355535, "elevation": 2919.0, "source": "osm", "_tags": {"ele": "2919", "gnis:feature_id": "181440", "name": "Quartz Hill", "natural": "peak"}}, {"name": "Seaton Mountain", "latitude": 39.7602658, "longitude": -105.5127747, "elevation": 2772.0, "source": "osm", "_tags": {"ele": "2772", "gnis:feature_id": "181456", "name": "Seaton Mountain", "natural": "peak"}}, {"name": "Pewabic Mountain", "latitude": 39.7691546, "longitude": -105.5288865, "elevation": 3023.0, "source": "osm", "_tags": {"ele": "3023", "gnis:feature_id": "181465", "name": "Pewabic Mountain", "natural": "peak"}}, {"name": "Bobtail Hill", "latitude": 39.7926277, "longitude": -105.5065582, "elevation": 2725.0, "source": "osm", "_tags": {"ele": "2725", "gnis:feature_id": "181475", "name": "Bobtail Hill", "natural": "peak"}}, {"name": "Mammoth Hill", "latitude": 39.7958211, "longitude": -105.5074969, "elevation": 2701.0, "source": "osm", "_tags": {"ele": "2701", "gnis:feature_id": "181477", "name": "Mammoth Hill", "natural": "peak"}}, {"name": "Central Hill", "latitude": 39.7977656, "longitude": -105.5111082, "elevation": 2640.0, "source": "osm", "_tags": {"ele": "2640", "gnis:feature_id": "181480", "name": "Central Hill", "natural": "peak"}}, {"name": "Nevada Hill", "latitude": 39.7977655, "longitude": -105.5341646, "elevation": 2810.0, "source": "osm", "_tags": {"ele": "2810", "gnis:feature_id": "181481", "name": "Nevada Hill", "natural": "peak"}}, {"name": "Bates Hill", "latitude": 39.8030434, "longitude": -105.5055524, "elevation": 2596.0, "source": "osm", "_tags": {"ele": "2596", "gnis:feature_id": "181486", "name": "Bates Hill", "natural": "peak"}}, {"name": "Winnebago Hill", "latitude": 39.8052656, "longitude": -105.5119416, "elevation": 2675.0, "source": "osm", "_tags": {"ele": "2675", "gnis:feature_id": "181487", "name": "Winnebago Hill", "natural": "peak"}}, {"name": "Aunt Clara Brown Hill", "latitude": 39.8080433, "longitude": -105.5252754, "elevation": 2770.0, "source": "osm", "_tags": {"ele": "2770", "gnis:feature_id": "181489", "name": "Aunt Clara Brown Hill", "natural": "peak", "old_name": "Negro Hill", "source": "https://www.westword.com/news/gilpin-countys-negro-hill-is-renamed-aunt-clara-brown-hill-finally-5116639"}}, {"name": "Maryland Mountain", "latitude": 39.8124877, "longitude": -105.5058303, "elevation": 2807.0, "source": "osm", "_tags": {"ele": "2807", "gnis:feature_id": "181493", "name": "Maryland Mountain", "natural": "peak"}}, {"name": "Bald Mountain", "latitude": 39.7922099, "longitude": -105.5544431, "elevation": 3042.0, "source": "osm", "_tags": {"ele": "3042", "gnis:feature_id": "181503", "name": "Bald Mountain", "natural": "peak"}}, {"name": "Sheridan Hill", "latitude": 39.8202653, "longitude": -105.6027783, "elevation": 3270.0, "source": "osm", "_tags": {"ele": "3270", "gnis:feature_id": "181512", "name": "Sheridan Hill", "natural": "peak"}}, {"name": "California Mountain", "latitude": 39.8683206, "longitude": -105.5880558, "elevation": 3239.0, "source": "osm", "_tags": {"ele": "3239", "gnis:feature_id": "181518", "name": "California Mountain", "natural": "peak"}}, {"name": "Montana Mountain", "latitude": 39.8577651, "longitude": -105.5983339, "elevation": 3334.0, "source": "osm", "_tags": {"ele": "3334", "gnis:feature_id": "181523", "name": "Montana Mountain", "natural": "peak"}}, {"name": "Blackhawk Peak", "latitude": 39.8408208, "longitude": -105.5474986, "elevation": 3099.0, "source": "osm", "_tags": {"ele": "3099", "gnis:feature_id": "181531", "name": "Blackhawk Peak", "natural": "peak"}}, {"name": "Michigan Hill", "latitude": 39.8469318, "longitude": -105.5641659, "elevation": 3175.0, "source": "osm", "_tags": {"ele": "3175", "gnis:feature_id": "181532", "name": "Michigan Hill", "natural": "peak"}}, {"name": "Arizona Mountain", "latitude": 39.850543, "longitude": -105.5833333, "elevation": 3139.0, "source": "osm", "_tags": {"ele": "3139", "gnis:feature_id": "181533", "name": "Arizona Mountain", "natural": "peak"}}, {"name": "Idaho Hill", "latitude": 39.8613763, "longitude": -105.5830556, "elevation": 3211.0, "source": "osm", "_tags": {"ele": "3211", "gnis:feature_id": "181534", "name": "Idaho Hill", "natural": "peak"}}, {"name": "Utah Hill", "latitude": 39.8622096, "longitude": -105.5638882, "elevation": 3200.0, "source": "osm", "_tags": {"ele": "3200", "gnis:feature_id": "181537", "name": "Utah Hill", "natural": "peak"}}, {"name": "Oregon Hill", "latitude": 39.8591541, "longitude": -105.5577768, "elevation": 3320.0, "source": "osm", "_tags": {"ele": "3320", "gnis:feature_id": "181538", "name": "Oregon Hill", "natural": "peak"}}, {"name": "Dakota Hill", "latitude": 39.8691541, "longitude": -105.5536101, "elevation": 3330.0, "source": "osm", "_tags": {"ele": "3330", "gnis:feature_id": "181540", "name": "Dakota Hill", "natural": "peak"}}, {"name": "Fairburn Mountain", "latitude": 39.8594319, "longitude": -105.5055527, "elevation": 3165.0, "source": "osm", "_tags": {"ele": "3165", "gnis:feature_id": "181542", "name": "Fairburn Mountain", "natural": "peak"}}, {"name": "Banta Hill", "latitude": 39.7752657, "longitude": -105.4936075, "elevation": 2637.0, "source": "osm", "_tags": {"ele": "2637", "gnis:feature_id": "181551", "name": "Banta Hill", "natural": "peak"}}, {"name": "Justice Hill", "latitude": 39.7830435, "longitude": -105.4897185, "elevation": 2661.0, "source": "osm", "_tags": {"ele": "2661", "gnis:feature_id": "181553", "name": "Justice Hill", "natural": "peak"}}, {"name": "Signal Hill", "latitude": 39.7913767, "longitude": -105.4861074, "elevation": 2683.0, "source": "osm", "_tags": {"ele": "2683", "gnis:feature_id": "181555", "name": "Signal Hill", "natural": "peak"}}, {"name": "Douglas Mountain", "latitude": 39.786932, "longitude": -105.3766597, "elevation": 2927.0, "source": "osm", "_tags": {"ele": "2927", "gnis:feature_id": "181560", "name": "Douglas Mountain", "natural": "peak"}}, {"name": "Black Hawk Mountain", "latitude": 39.7999876, "longitude": -105.4130497, "elevation": 2855.0, "source": "osm", "_tags": {"ele": "2855", "gnis:feature_id": "181563", "name": "Black Hawk Mountain", "natural": "peak"}}, {"name": "Ely Hill", "latitude": 39.8047098, "longitude": -105.4202721, "elevation": 3048.0, "source": "osm", "_tags": {"ele": "3048", "gnis:feature_id": "181564", "name": "Ely Hill", "natural": "peak"}}, {"name": "Smith Hill", "latitude": 39.8024876, "longitude": -105.4419395, "elevation": 2663.0, "source": "osm", "_tags": {"ele": "2663", "gnis:feature_id": "181565", "name": "Smith Hill", "natural": "peak"}}, {"name": "Silver Hill", "latitude": 39.8169321, "longitude": -105.49583, "elevation": 2762.0, "source": "osm", "_tags": {"ele": "2762", "gnis:feature_id": "181569", "name": "Silver Hill", "natural": "peak"}}, {"name": "Dory Hill", "latitude": 39.8385987, "longitude": -105.4874964, "elevation": 2928.0, "source": "osm", "_tags": {"ele": "2928", "gnis:feature_id": "181576", "name": "Dory Hill", "natural": "peak"}}, {"name": "Tremont Mountain", "latitude": 39.8663761, "longitude": -105.4366617, "elevation": 3163.0, "source": "osm", "_tags": {"description": "Aka Bear Mountain", "ele": "3163", "gnis:feature_id": "181585", "name": "Tremont Mountain", "natural": "peak"}}, {"name": "Centennial Cone", "latitude": 39.7524877, "longitude": -105.3588813, "elevation": 2640.0, "source": "osm", "_tags": {"ele": "2640", "gnis:feature_id": "181597", "name": "Centennial Cone", "natural": "peak"}}, {"name": "Guy Hill", "latitude": 39.7772097, "longitude": -105.3286028, "elevation": 2468.0, "source": "osm", "_tags": {"ele": "2468", "gnis:feature_id": "181598", "name": "Guy Hill", "natural": "peak"}}, {"name": "Belcher Hill", "latitude": 39.8216538, "longitude": -105.3058244, "elevation": 2477.0, "source": "osm", "_tags": {"ele": "2477", "gnis:feature_id": "181601", "name": "Belcher Hill", "natural": "peak"}}, {"name": "Mount Tom", "latitude": 39.8163762, "longitude": -105.3513813, "elevation": 2969.0, "source": "osm", "_tags": {"ele": "2969", "gnis:feature_id": "181603", "name": "Mount Tom", "natural": "peak"}}, {"name": "Centralia Mountain", "latitude": 39.8283206, "longitude": -105.3702707, "elevation": 2982.0, "source": "osm", "_tags": {"ele": "2982", "gnis:feature_id": "181604", "name": "Centralia Mountain", "natural": "peak"}}, {"name": "Ralston Buttes", "latitude": 39.8499868, "longitude": -105.2672122, "elevation": 2222.0, "source": "osm", "_tags": {"ele": "2222", "gnis:feature_id": "181608", "name": "Ralston Buttes", "natural": "peak"}}, {"name": "North Table Mountain", "latitude": 39.791376, "longitude": -105.2008213, "elevation": 1999.0, "source": "osm", "_tags": {"ele": "1999", "gnis:feature_id": "181626", "name": "North Table Mountain", "natural": "peak", "wikidata": "Q7056922", "wikipedia": "en:North Table Mountain"}}, {"name": "Inspiration Point", "latitude": 39.786931, "longitude": -105.05915, "elevation": 1651.0, "source": "osm", "_tags": {"ele": "1651", "gnis:feature_id": "181699", "name": "Inspiration Point", "natural": "peak"}}, {"name": "Independence Mountain", "latitude": 39.6808207, "longitude": -105.6858372, "elevation": 3492.0, "source": "osm", "_tags": {"ele": "3492", "gnis:feature_id": "181881", "name": "Independence Mountain", "natural": "peak"}}, {"name": "Alpine Peak", "latitude": 39.6863763, "longitude": -105.6816704, "elevation": 3508.0, "source": "osm", "_tags": {"ele": "3508", "gnis:feature_id": "181882", "name": "Alpine Peak", "natural": "peak"}}, {"name": "Griffith Mountain", "latitude": 39.7016542, "longitude": -105.6738922, "elevation": 3528.0, "source": "osm", "_tags": {"ele": "3528", "gnis:feature_id": "181889", "name": "Griffith Mountain", "natural": "peak"}}, {"name": "Woodchuck Peak", "latitude": 39.7152653, "longitude": -105.6730587, "elevation": 3393.0, "source": "osm", "_tags": {"ele": "3393", "gnis:feature_id": "181930", "name": "Woodchuck Peak", "natural": "peak"}}, {"name": "Saxon Mountain", "latitude": 39.7233208, "longitude": -105.6694474, "elevation": 3515.0, "source": "osm", "_tags": {"ele": "3515", "gnis:feature_id": "181941", "name": "Saxon Mountain", "natural": "peak"}}, {"name": "Devils Nose", "latitude": 39.6597101, "longitude": -105.5955564, "elevation": 3365.0, "source": "osm", "_tags": {"ele": "3365", "gnis:feature_id": "181951", "name": "Devils Nose", "natural": "peak"}}, {"name": "Goliath Peak", "latitude": 39.6408212, "longitude": -105.59889, "elevation": 3724.0, "source": "osm", "_tags": {"ele": "3724", "gnis:feature_id": "181956", "name": "Goliath Peak", "natural": "peak"}}, {"name": "Porcupine Hill", "latitude": 39.6447104, "longitude": -105.549166, "elevation": 3112.0, "source": "osm", "_tags": {"ele": "3112", "gnis:feature_id": "181958", "name": "Porcupine Hill", "natural": "peak"}}, {"name": "Captain Mountain", "latitude": 39.6377661, "longitude": -105.5297209, "elevation": 3014.0, "source": "osm", "_tags": {"ele": "3014", "gnis:feature_id": "181961", "name": "Captain Mountain", "natural": "peak"}}, {"name": "Papoose Mountain", "latitude": 39.6802661, "longitude": -105.5130532, "elevation": 3407.0, "source": "osm", "_tags": {"ele": "3407", "gnis:feature_id": "181963", "name": "Papoose Mountain", "natural": "peak"}}, {"name": "Chief Mountain", "latitude": 39.6755438, "longitude": -105.5230536, "elevation": 3566.0, "source": "osm", "_tags": {"ele": "3566", "gnis:feature_id": "181964", "name": "Chief Mountain", "natural": "peak"}}, {"name": "Warrior Mountain", "latitude": 39.6755436, "longitude": -105.5566659, "elevation": 3436.0, "source": "osm", "_tags": {"ele": "3436", "gnis:feature_id": "181968", "name": "Warrior Mountain", "natural": "peak"}}, {"name": "Alps Mountain", "latitude": 39.7277656, "longitude": -105.5975002, "elevation": 3220.0, "source": "osm", "_tags": {"ele": "3220", "gnis:feature_id": "181978", "name": "Alps Mountain", "natural": "peak"}}, {"name": "Flirtation Peak", "latitude": 39.7347103, "longitude": -105.5202751, "elevation": 2515.0, "source": "osm", "_tags": {"ele": "2515", "gnis:feature_id": "182020", "name": "Flirtation Peak", "natural": "peak"}}, {"name": "Mount Susan", "latitude": 39.6366551, "longitude": -105.4730524, "elevation": 2577.0, "source": "osm", "_tags": {"ele": "2577", "gnis:feature_id": "182039", "name": "Mount Susan", "natural": "peak"}}, {"name": "Vance Peak", "latitude": 39.6644327, "longitude": -105.4791634, "elevation": 3126.0, "source": "osm", "_tags": {"ele": "3126", "gnis:feature_id": "182043", "name": "Vance Peak", "natural": "peak"}}, {"name": "Hicks Mountain", "latitude": 39.6485994, "longitude": -105.4391624, "elevation": 3073.0, "source": "osm", "_tags": {"ele": "3073", "gnis:feature_id": "182044", "name": "Hicks Mountain", "natural": "peak"}}, {"name": "Krinder Peak", "latitude": 39.6480438, "longitude": -105.3908277, "elevation": 2544.0, "source": "osm", "_tags": {"ele": "2544", "gnis:feature_id": "182052", "name": "Krinder Peak", "natural": "peak"}}, {"name": "Bergen Peak", "latitude": 39.6660992, "longitude": -105.3952721, "elevation": 2957.0, "source": "osm", "_tags": {"ele": "2957", "gnis:feature_id": "182053", "name": "Bergen Peak", "natural": "peak"}}, {"name": "Shaffer Hill", "latitude": 39.7044324, "longitude": -105.403327, "elevation": 2564.0, "source": "osm", "_tags": {"ele": "2564", "gnis:feature_id": "182055", "name": "Shaffer Hill", "natural": "peak", "wikidata": "Q49072500"}}, {"name": "Mount Pence", "latitude": 39.6763771, "longitude": -105.4261063, "elevation": 3014.0, "source": "osm", "_tags": {"ele": "3014", "gnis:feature_id": "182060", "name": "Mount Pence", "natural": "peak"}}, {"name": "Snyder Mountain", "latitude": 39.6713771, "longitude": -105.4319398, "elevation": 2996.0, "source": "osm", "_tags": {"ele": "2996", "gnis:feature_id": "182061", "name": "Snyder Mountain", "natural": "peak"}}, {"name": "Mount Judge", "latitude": 39.6674883, "longitude": -105.4563849, "elevation": 3132.0, "source": "osm", "_tags": {"ele": "3132", "gnis:feature_id": "182062", "name": "Mount Judge", "natural": "peak"}}, {"name": "Mestaa’ėhehe  Mountain", "latitude": 39.6794327, "longitude": -105.492774, "elevation": 3484.0, "source": "osm", "_tags": {"ele": "3484", "gnis:feature_id": "182066", "name": "Mestaa’ėhehe  Mountain", "natural": "peak", "note": "The U.S. Board of Geographic Names approved the name change on Thursday for what was formerly known as Squaw Mountain. The Colorado Geographic Naming Board voted in favor of the new name (pronounced mess-taw-HAY) in September.  The new name for the 11,459", "old_name": "Squaw Mountain"}}, {"name": "Saddleback Mountain", "latitude": 39.7160991, "longitude": -105.4316615, "elevation": 2906.0, "source": "osm", "_tags": {"ele": "2906", "gnis:feature_id": "182070", "name": "Saddleback Mountain", "natural": "peak"}}, {"name": "Elephant Butte", "latitude": 39.6349882, "longitude": -105.3669383, "elevation": 2561.0, "source": "osm", "_tags": {"ele": "2561", "gnis:feature_id": "182081", "name": "Elephant Butte", "natural": "peak"}}, {"name": "Jenkins Peak", "latitude": 39.6485992, "longitude": -105.3713827, "elevation": 2417.0, "source": "osm", "_tags": {"ele": "2417", "gnis:feature_id": "182084", "name": "Jenkins Peak", "natural": "peak"}}, {"name": "Independence Mountain", "latitude": 39.6330436, "longitude": -105.2958251, "elevation": 2539.0, "source": "osm", "_tags": {"ele": "2539", "gnis:feature_id": "182088", "name": "Independence Mountain", "natural": "peak"}}, {"name": "Lininger Mountain", "latitude": 39.6891544, "longitude": -105.2552679, "elevation": 2360.0, "source": "osm", "_tags": {"ele": "2360", "gnis:feature_id": "182104", "name": "Lininger Mountain", "natural": "peak"}}, {"name": "Genesee Mountain", "latitude": 39.7030434, "longitude": -105.2936022, "elevation": 2523.0, "source": "osm", "_tags": {"ele": "2523", "gnis:feature_id": "182105", "name": "Genesee Mountain", "natural": "peak"}}, {"name": "Bald Mountain", "latitude": 39.7244321, "longitude": -105.3094358, "elevation": 2436.0, "source": "osm", "_tags": {"ele": "2436", "gnis:feature_id": "182117", "name": "Bald Mountain", "natural": "peak"}}, {"name": "Mount Falcon", "latitude": 39.6294064, "longitude": -105.2305154, "elevation": 2390.0, "source": "osm", "_tags": {"ele": "2390", "gnis:feature_id": "182133", "name": "Mount Falcon", "natural": "peak"}}, {"name": "Mount Glennon", "latitude": 39.6434606, "longitude": -105.1843248, "elevation": 1963.0, "source": "osm", "_tags": {"ele": "1963", "gnis:feature_id": "182138", "name": "Mount Glennon", "natural": "peak"}}, {"name": "Mount Carbon", "latitude": 39.6488766, "longitude": -105.13582, "elevation": 1761.0, "source": "osm", "_tags": {"ele": "1761", "gnis:feature_id": "182146", "name": "Mount Carbon", "natural": "peak"}}, {"name": "Green Mountain", "latitude": 39.7010128, "longitude": -105.177821, "elevation": 2091.0, "source": "osm", "_tags": {"ele": "2091", "gnis:feature_id": "2557348", "name": "Green Mountain", "natural": "peak", "wikidata": "Q14684543", "wikipedia": "en:Green Mountain (Lakewood, Colorado)"}}, {"name": "Mount Morrison", "latitude": 39.6691544, "longitude": -105.2199891, "elevation": 2401.0, "source": "osm", "_tags": {"ele": "2401", "gnis:feature_id": "182161", "name": "Mount Morrison", "natural": "peak", "wikidata": "Q14684999"}}, {"name": "Mount Zion", "latitude": 39.7436821, "longitude": -105.2418881, "elevation": 2147.0, "source": "osm", "_tags": {"ele": "2147", "gnis:feature_id": "182168", "name": "Mount Zion", "natural": "peak", "wikidata": "Q6924738"}}, {"name": "Colorow Hill", "latitude": 39.7299876, "longitude": -105.249434, "elevation": 2306.0, "source": "osm", "_tags": {"ele": "2306", "gnis:feature_id": "182171", "name": "Colorow Hill", "natural": "peak"}}, {"name": "Lookout Mountain", "latitude": 39.7290321, "longitude": -105.2374315, "elevation": 2260.0, "source": "osm", "_tags": {"ele": "2260", "gnis:feature_id": "182173", "name": "Lookout Mountain", "natural": "peak", "wikidata": "Q6675490", "wikipedia": "en:Lookout Mountain (Colorado)"}}, {"name": "Ruby Hill", "latitude": 39.6835984, "longitude": -105.0072046, "elevation": 1644.0, "source": "osm", "_tags": {"ele": "1644", "gnis:feature_id": "182237", "name": "Ruby Hill", "natural": "peak", "wikidata": "Q49070266"}}, {"name": "Kataka Mountain", "latitude": 39.529432, "longitude": -105.6611153, "elevation": 3796.0, "source": "osm", "_tags": {"ele": "3796", "gnis:feature_id": "182459", "name": "Kataka Mountain", "natural": "peak"}}, {"name": "Spearhead Mountain", "latitude": 39.5108209, "longitude": -105.6652821, "elevation": 3429.0, "source": "osm", "_tags": {"ele": "3429", "gnis:feature_id": "182460", "name": "Spearhead Mountain", "natural": "peak"}}, {"name": "Epaulet Mountain", "latitude": 39.5705434, "longitude": -105.6319473, "elevation": 4126.0, "source": "osm", "_tags": {"ele": "4126", "gnis:feature_id": "182461", "name": "Epaulet Mountain", "natural": "peak"}}, {"name": "Tahana Mountain", "latitude": 39.5449877, "longitude": -105.645559, "elevation": 3651.0, "source": "osm", "_tags": {"ele": "3651", "gnis:feature_id": "182462", "name": "Tahana Mountain", "natural": "peak"}}, {"name": "Mount Bierstadt", "latitude": 39.5826232, "longitude": -105.6687744, "elevation": 4287.0, "source": "osm", "_tags": {"ele": "4287", "gnis:feature_id": "182467", "name": "Mount Bierstadt", "natural": "peak", "note": "Elevation 14,065 ft (for local usage, since this is one of the 53 \"fourteeners\" in Colorado). Elevation sourced from Wikipedia, which itself sources the data.", "wikidata": "Q1950397", "wikipedia": "en:Mount Bierstadt"}}, {"name": "Gray Wolf Mountain", "latitude": 39.6172098, "longitude": -105.6608368, "elevation": 4148.0, "source": "osm", "_tags": {"ele": "4148", "gnis:feature_id": "182475", "name": "Gray Wolf Mountain", "natural": "peak"}}, {"name": "Mount Warren", "latitude": 39.6052655, "longitude": -105.6336138, "elevation": 4052.0, "source": "osm", "_tags": {"ele": "4052", "gnis:feature_id": "182477", "name": "Mount Warren", "natural": "peak"}}, {"name": "Mount Spalding", "latitude": 39.5995765, "longitude": -105.6564393, "elevation": 4222.0, "source": "osm", "_tags": {"ele": "4222", "gnis:feature_id": "182480", "name": "Mount Spalding", "natural": "peak"}}, {"name": "Rosedale Peak", "latitude": 39.5585995, "longitude": -105.5405554, "elevation": 3597.0, "source": "osm", "_tags": {"ele": "3597", "gnis:feature_id": "182490", "name": "Rosedale Peak", "natural": "peak"}}, {"name": "Rosalie Peak", "latitude": 39.5560991, "longitude": -105.6063909, "elevation": 4138.0, "source": "osm", "_tags": {"ele": "4138", "gnis:feature_id": "182495", "name": "Rosalie Peak", "natural": "peak"}}, {"name": "Rogers Peak", "latitude": 39.6158211, "longitude": -105.6177797, "elevation": 4061.0, "source": "osm", "_tags": {"ele": "4061", "gnis:feature_id": "182499", "name": "Rogers Peak", "natural": "peak"}}, {"name": "Meridian Hill", "latitude": 39.5563776, "longitude": -105.486387, "elevation": 3503.0, "source": "osm", "_tags": {"ele": "3503", "gnis:feature_id": "182515", "name": "Meridian Hill", "natural": "peak"}}, {"name": "Shadow Mountain", "latitude": 39.5602664, "longitude": -105.4555527, "elevation": 3234.0, "source": "osm", "_tags": {"ele": "3234", "gnis:feature_id": "182517", "name": "Shadow Mountain", "natural": "peak"}}, {"name": "Black Mountain", "latitude": 39.5319295, "longitude": -105.3981899, "elevation": 3271.0, "source": "osm", "_tags": {"ele": "3271", "gnis:feature_id": "182528", "name": "Black Mountain", "natural": "peak"}}, {"name": "Lions Head", "latitude": 39.5027665, "longitude": -105.4205523, "elevation": 2795.0, "source": "osm", "_tags": {"ele": "2795", "gnis:feature_id": "182529", "name": "Lions Head", "natural": "peak"}}, {"name": "Legault Mountain", "latitude": 39.5335994, "longitude": -105.2649917, "elevation": 2757.0, "source": "osm", "_tags": {"ele": "2757", "gnis:feature_id": "182548", "name": "Legault Mountain", "natural": "peak"}}, {"name": "Berrian Mountain", "latitude": 39.5549883, "longitude": -105.2922146, "elevation": 2785.0, "source": "osm", "_tags": {"ele": "2785", "gnis:feature_id": "182549", "name": "Berrian Mountain", "natural": "peak", "wikidata": "Q4894686"}}, {"name": "Doublehead Mountain", "latitude": 39.5624882, "longitude": -105.2611025, "elevation": 2711.0, "source": "osm", "_tags": {"ele": "2711", "gnis:feature_id": "182550", "name": "Doublehead Mountain", "natural": "peak"}}, {"name": "Evergreen Mountain", "latitude": 39.6105438, "longitude": -105.3608272, "elevation": 2599.0, "source": "osm", "_tags": {"ele": "2599", "gnis:feature_id": "182553", "name": "Evergreen Mountain", "natural": "peak"}}, {"name": "Kinney Peak", "latitude": 39.6052659, "longitude": -105.3047145, "elevation": 2469.0, "source": "osm", "_tags": {"ele": "2469", "gnis:feature_id": "182557", "name": "Kinney Peak", "natural": "peak"}}, {"name": "Lone Peak", "latitude": 39.6044324, "longitude": -105.2636022, "elevation": 2518.0, "source": "osm", "_tags": {"ele": "2518", "gnis:feature_id": "182565", "name": "Lone Peak", "natural": "peak"}}, {"name": "Huebner Peak", "latitude": 39.5052661, "longitude": -105.2258241, "elevation": 2633.0, "source": "osm", "_tags": {"ele": "2633", "gnis:feature_id": "182571", "name": "Huebner Peak", "natural": "peak"}}, {"name": "Crow Hill", "latitude": 39.5244327, "longitude": -105.2447134, "elevation": 2638.0, "source": "osm", "_tags": {"ele": "2638", "gnis:feature_id": "182573", "name": "Crow Hill", "natural": "peak"}}, {"name": "High Peak", "latitude": 39.5269327, "longitude": -105.2302685, "elevation": 2611.0, "source": "osm", "_tags": {"ele": "2611", "gnis:feature_id": "182574", "name": "High Peak", "natural": "peak"}}, {"name": "Yegge Peak", "latitude": 39.5408215, "longitude": -105.2280461, "elevation": 2452.0, "source": "osm", "_tags": {"ele": "2452", "gnis:feature_id": "182575", "name": "Yegge Peak", "natural": "peak"}}, {"name": "Sampson Mountain", "latitude": 39.5022106, "longitude": -105.2041567, "elevation": 2524.0, "source": "osm", "_tags": {"ele": "2524", "gnis:feature_id": "182576", "name": "Sampson Mountain", "natural": "peak"}}, {"name": "Pyramid Peak", "latitude": 39.5299883, "longitude": -105.1913783, "elevation": 2248.0, "source": "osm", "_tags": {"ele": "2248", "gnis:feature_id": "182580", "name": "Pyramid Peak", "natural": "peak"}}, {"name": "Wilds Peak", "latitude": 39.5288772, "longitude": -105.1788779, "elevation": 2282.0, "source": "osm", "_tags": {"ele": "2282", "gnis:feature_id": "182581", "name": "Wilds Peak", "natural": "peak"}}, {"name": "Fourth of July Mountain", "latitude": 39.5363771, "longitude": -105.2091566, "elevation": 2302.0, "source": "osm", "_tags": {"ele": "2302", "gnis:feature_id": "182583", "name": "Fourth of July Mountain", "natural": "peak"}}, {"name": "Plymouth Mountain", "latitude": 39.5297105, "longitude": -105.1572106, "elevation": 2217.0, "source": "osm", "_tags": {"ele": "2217", "gnis:feature_id": "182585", "name": "Plymouth Mountain", "natural": "peak"}}, {"name": "Warren Peak", "latitude": 39.5052662, "longitude": -105.151655, "elevation": 2429.0, "source": "osm", "_tags": {"ele": "2429", "gnis:feature_id": "182586", "name": "Warren Peak", "natural": "peak"}}, {"name": "Deer Mountain", "latitude": 39.542766, "longitude": -105.1927671, "elevation": 2223.0, "source": "osm", "_tags": {"ele": "2223", "gnis:feature_id": "182592", "name": "Deer Mountain", "natural": "peak"}}, {"name": "Bald Mountain", "latitude": 39.5505438, "longitude": -105.2169345, "elevation": 2356.0, "source": "osm", "_tags": {"ele": "2356", "gnis:feature_id": "182603", "name": "Bald Mountain", "natural": "peak"}}, {"name": "Mount Lindo", "latitude": 39.6094323, "longitude": -105.2108227, "elevation": 2378.0, "source": "osm", "_tags": {"ele": "2378", "gnis:feature_id": "182608", "name": "Mount Lindo", "natural": "peak"}}, {"name": "Mount Logan", "latitude": 39.4958212, "longitude": -105.6313923, "elevation": 3922.0, "source": "osm", "_tags": {"ele": "3922", "gnis:feature_id": "183200", "name": "Mount Logan", "natural": "peak"}}, {"name": "Mount Blaine", "latitude": 39.4299879, "longitude": -105.6805615, "elevation": 3748.0, "source": "osm", "_tags": {"ele": "3748", "gnis:feature_id": "183211", "name": "Mount Blaine", "natural": "peak"}}, {"name": "South Twin Cone Peak", "latitude": 39.4152658, "longitude": -105.6825061, "elevation": 3750.0, "source": "osm", "_tags": {"ele": "3750", "gnis:feature_id": "183215", "name": "South Twin Cone Peak", "natural": "peak"}}, {"name": "Kenosha Mountains", "latitude": 39.3680444, "longitude": -105.6052819, "elevation": 3787.0, "source": "osm", "_tags": {"ele": "3787", "gnis:feature_id": "183221", "name": "Kenosha Mountains", "natural": "peak"}}, {"name": "Derringer Peak", "latitude": 39.4516553, "longitude": -105.5644463, "elevation": 2828.0, "source": "osm", "_tags": {"ele": "2828", "gnis:feature_id": "183230", "name": "Derringer Peak", "natural": "peak"}}, {"name": "Split Rock", "latitude": 39.4394334, "longitude": -105.5247229, "elevation": 3006.0, "source": "osm", "_tags": {"ele": "3006", "gnis:feature_id": "183234", "name": "Split Rock", "natural": "peak"}}, {"name": "Shawnee Peak", "latitude": 39.3966554, "longitude": -105.596948, "elevation": 3624.0, "source": "osm", "_tags": {"ele": "3624", "gnis:feature_id": "183240", "name": "Shawnee Peak", "natural": "peak", "wikidata": "Q7491556"}}, {"name": "Insmont Hill", "latitude": 39.3869338, "longitude": -105.4522212, "elevation": 2491.0, "source": "osm", "_tags": {"ele": "2491", "gnis:feature_id": "183272", "name": "Insmont Hill", "natural": "peak"}}, {"name": "Mount Bailey", "latitude": 39.415267, "longitude": -105.4597211, "elevation": 2767.0, "source": "osm", "_tags": {"ele": "2767", "gnis:feature_id": "183276", "name": "Mount Bailey", "natural": "peak", "wikidata": "Q6919557"}}, {"name": "Lone Rock", "latitude": 39.4572112, "longitude": -105.4308309, "elevation": 2800.0, "source": "osm", "_tags": {"ele": "2800", "gnis:feature_id": "183284", "name": "Lone Rock", "natural": "peak"}}, {"name": "Crow Hill", "latitude": 39.431378, "longitude": -105.4566653, "elevation": 2648.0, "source": "osm", "_tags": {"ele": "2648", "gnis:feature_id": "183289", "name": "Crow Hill", "natural": "peak"}}, {"name": "Riley Peak", "latitude": 39.4841552, "longitude": -105.2808261, "elevation": 2854.0, "source": "osm", "_tags": {"ele": "2854", "gnis:feature_id": "183301", "name": "Riley Peak", "natural": "peak"}}, {"name": "Cathedral Spires", "latitude": 39.4224889, "longitude": -105.2561039, "elevation": 2602.0, "source": "osm", "_tags": {"ele": "2602", "gnis:feature_id": "183310", "name": "Cathedral Spires", "natural": "peak"}}, {"name": "Banner Peak", "latitude": 39.4197112, "longitude": -105.2955495, "elevation": 2574.0, "source": "osm", "_tags": {"ele": "2574", "gnis:feature_id": "183311", "name": "Banner Peak", "natural": "peak"}}, {"name": "Sheep Mountain", "latitude": 39.4241557, "longitude": -105.1713787, "elevation": 2415.0, "source": "osm", "_tags": {"ele": "2415", "gnis:feature_id": "183328", "name": "Sheep Mountain", "natural": "peak"}}, {"name": "Turkshead Peak", "latitude": 39.4424889, "longitude": -105.1363773, "elevation": 2356.0, "source": "osm", "_tags": {"ele": "2356", "gnis:feature_id": "183330", "name": "Turkshead Peak", "natural": "peak"}}, {"name": "Raleigh Peak", "latitude": 39.395267, "longitude": -105.2152694, "elevation": 2487.0, "source": "osm", "_tags": {"ele": "2487", "gnis:feature_id": "183338", "name": "Raleigh Peak", "natural": "peak"}}, {"name": "Cann Hill", "latitude": 39.4236003, "longitude": -105.0152621, "elevation": 1858.0, "source": "osm", "_tags": {"ele": "1858", "gnis:feature_id": "183354", "name": "Cann Hill", "natural": "peak"}}, {"name": "Carpenter Peak", "latitude": 39.4302501, "longitude": -105.0847879, "elevation": 2173.0, "source": "osm", "_tags": {"ele": "2173", "gnis:feature_id": "183360", "name": "Carpenter Peak", "natural": "peak"}}, {"name": "Wildcat Mountain", "latitude": 39.4047116, "longitude": -105.0216514, "elevation": 2010.0, "source": "osm", "_tags": {"ele": "2010", "gnis:feature_id": "183364", "name": "Wildcat Mountain", "natural": "peak"}}, {"name": "Thomas Hill", "latitude": 39.3922116, "longitude": -105.0663752, "elevation": 2359.0, "source": "osm", "_tags": {"ele": "2359", "gnis:feature_id": "183367", "name": "Thomas Hill", "natural": "peak"}}, {"name": "Bennett Mountain", "latitude": 39.3863783, "longitude": -105.1241551, "elevation": 2445.0, "source": "osm", "_tags": {"ele": "2445", "gnis:feature_id": "183377", "name": "Bennett Mountain", "natural": "peak"}}, {"name": "North Tarryall Peak", "latitude": 39.3119335, "longitude": -105.6105606, "elevation": 3629.0, "source": "osm", "_tags": {"ele": "3629", "gnis:feature_id": "183480", "name": "North Tarryall Peak", "natural": "peak"}}, {"name": "Windy Peak", "latitude": 39.3024898, "longitude": -105.4397218, "elevation": 3636.0, "source": "osm", "_tags": {"ele": "3636", "gnis:feature_id": "183506", "name": "Windy Peak", "natural": "peak", "wikidata": "Q14685199"}}, {"name": "Little Scraggy Peak", "latitude": 39.314712, "longitude": -105.2752724, "elevation": 2798.0, "source": "osm", "_tags": {"ele": "2798", "gnis:feature_id": "183527", "name": "Little Scraggy Peak", "natural": "peak"}}, {"name": "Green Mountain", "latitude": 39.3052676, "longitude": -105.3002732, "elevation": 3174.0, "source": "osm", "_tags": {"ele": "3174", "gnis:feature_id": "183528", "name": "Green Mountain", "natural": "peak", "wikidata": "Q14684539"}}, {"name": "Redskin Mountain", "latitude": 39.3588784, "longitude": -105.3638856, "elevation": 2670.0, "source": "osm", "_tags": {"ele": "2670", "gnis:feature_id": "183534", "name": "Redskin Mountain", "natural": "peak"}}, {"name": "Noddle Heads", "latitude": 39.3336009, "longitude": -105.1533234, "elevation": 2463.0, "source": "osm", "_tags": {"ele": "2463", "gnis:feature_id": "183550", "name": "Noddle Heads", "natural": "peak"}}, {"name": "Long Scraggy Peak", "latitude": 39.3434447, "longitude": -105.2020563, "elevation": 2681.0, "source": "osm", "_tags": {"ele": "2681", "gnis:feature_id": "183555", "name": "Long Scraggy Peak", "natural": "peak"}}, {"name": "Nighthawk Hill", "latitude": 39.3530453, "longitude": -105.1455451, "elevation": 2135.0, "source": "osm", "_tags": {"ele": "2135", "gnis:feature_id": "183559", "name": "Nighthawk Hill", "natural": "peak"}}, {"name": "Bear Mountain", "latitude": 39.3688784, "longitude": -105.1444338, "elevation": 2345.0, "source": "osm", "_tags": {"ele": "2345", "gnis:feature_id": "183560", "name": "Bear Mountain", "natural": "peak"}}, {"name": "Elephant Rock", "latitude": 39.3661008, "longitude": -105.0419301, "elevation": 2362.0, "source": "osm", "_tags": {"ele": "2362", "gnis:feature_id": "183568", "name": "Elephant Rock", "natural": "peak"}}, {"name": "Bee Rock", "latitude": 39.3722119, "longitude": -105.0222072, "elevation": 2046.0, "source": "osm", "_tags": {"ele": "2046", "gnis:feature_id": "183569", "name": "Bee Rock", "natural": "peak"}}, {"name": "Gott Mountain", "latitude": 39.3330456, "longitude": -105.0280409, "elevation": 2268.0, "source": "osm", "_tags": {"ele": "2268", "gnis:feature_id": "183580", "name": "Gott Mountain", "natural": "peak"}}, {"name": "Sunset Point", "latitude": 39.3486009, "longitude": -105.0877652, "elevation": 2440.0, "source": "osm", "_tags": {"ele": "2440", "gnis:feature_id": "183593", "name": "Sunset Point", "natural": "peak"}}, {"name": "Racoon Knob", "latitude": 39.4527669, "longitude": -104.9308146, "elevation": 2021.0, "source": "osm", "_tags": {"ele": "2021", "gnis:feature_id": "185076", "name": "Racoon Knob", "natural": "peak"}}, {"name": "Cherokee Mountain", "latitude": 39.4499891, "longitude": -104.9366481, "elevation": 2026.0, "source": "osm", "_tags": {"ele": "2026", "gnis:feature_id": "185077", "name": "Cherokee Mountain", "natural": "peak"}}, {"name": "Dawson Butte", "latitude": 39.3002682, "longitude": -104.9374823, "elevation": 2278.0, "source": "osm", "_tags": {"ele": "2278", "gnis:feature_id": "185106", "name": "Dawson Butte", "natural": "peak", "wikidata": "Q28912631"}}, {"name": "Mount Thomas", "latitude": 39.8669317, "longitude": -105.448051, "elevation": 2845.0, "source": "osm", "_tags": {"ele": "2845", "gnis:feature_id": "196482", "name": "Mount Thomas", "natural": "peak"}}, {"name": "Mount Galbraith", "latitude": 39.7647096, "longitude": -105.2552673, "elevation": 2209.0, "source": "osm", "_tags": {"ele": "2209", "gnis:feature_id": "196506", "name": "Mount Galbraith", "natural": "peak"}}, {"name": "Royal Mountain", "latitude": 39.5374883, "longitude": -105.5663898, "elevation": 3500.0, "source": "osm", "_tags": {"ele": "3500", "gnis:feature_id": "196507", "name": "Royal Mountain", "natural": "peak"}}, {"name": "Kiowa Peak", "latitude": 40.0480421, "longitude": -105.624169, "elevation": 4010.0, "source": "osm", "_tags": {"ele": "4010", "gnis:feature_id": "196532", "name": "Kiowa Peak", "natural": "peak"}}, {"name": "Big Owl Hill", "latitude": 40.25694, "longitude": -105.03194, "elevation": 1549.0, "source": "osm", "_tags": {"ele": "1549", "gnis:feature_id": "196575", "name": "Big Owl Hill", "natural": "peak"}}, {"name": "Highlands Point", "latitude": 39.5116548, "longitude": -104.9562426, "elevation": 1925.0, "source": "osm", "_tags": {"ele": "1925", "gnis:feature_id": "196609", "name": "Highlands Point", "natural": "peak", "tourism": "viewpoint"}}, {"name": "Bill Couch Mountain", "latitude": 39.5369671, "longitude": -105.1598454, "elevation": 2151.0, "source": "osm", "_tags": {"ele": "2151", "gnis:feature_id": "198115", "name": "Bill Couch Mountain", "natural": "peak"}}, {"name": "Pagoda Mountain", "latitude": 40.2494693, "longitude": -105.6264524, "elevation": 4082.0, "source": "osm", "_tags": {"ele": "4082", "gnis:feature_id": "202508", "name": "Pagoda Mountain", "natural": "peak", "wikidata": "Q49059367"}}, {"name": "Button Rock Mountain", "latitude": 40.253596, "longitude": -105.3855493, "elevation": 2574.0, "source": "osm", "_tags": {"ele": "2574", "gnis:feature_id": "202515", "name": "Button Rock Mountain", "natural": "peak", "wikidata": "Q49017308"}}, {"name": "Indian Mountain", "latitude": 40.2622075, "longitude": -105.2508214, "elevation": 2000.0, "source": "osm", "_tags": {"ele": "2000", "gnis:feature_id": "202518", "name": "Indian Mountain", "natural": "peak", "wikidata": "Q49038636"}}, {"name": "Sawtooth Mountain", "latitude": 40.1266525, "longitude": -105.6247251, "elevation": 3739.0, "source": "osm", "_tags": {"ele": "3739", "gnis:feature_id": "202539", "name": "Sawtooth Mountain", "natural": "peak"}}, {"name": "Overland Mountain", "latitude": 40.1227634, "longitude": -105.4236064, "elevation": 2651.0, "source": "osm", "_tags": {"ele": "2651", "gnis:feature_id": "202550", "name": "Overland Mountain", "natural": "peak", "wikidata": "Q49059103"}}, {"name": "Butzel Hill", "latitude": 40.0741525, "longitude": -105.3747157, "elevation": 2505.0, "source": "osm", "_tags": {"ele": "2505", "gnis:feature_id": "202584", "name": "Butzel Hill", "natural": "peak", "wikidata": "Q49017315"}}, {"name": "Standley Hill", "latitude": 40.1238736, "longitude": -105.0883161, "elevation": 1562.0, "source": "osm", "_tags": {"ele": "1562", "gnis:feature_id": "202594", "name": "Standley Hill", "natural": "peak", "wikidata": "Q49077556"}}, {"name": "Smith Mound", "latitude": 40.057761, "longitude": -104.7516362, "elevation": 1583.0, "source": "osm", "_tags": {"ele": "1583", "gnis:feature_id": "202765", "name": "Smith Mound", "natural": "peak"}}, {"name": "Chittenden Mountain", "latitude": 39.9683203, "longitude": -105.6225019, "elevation": 3309.0, "source": "osm", "_tags": {"ele": "3309", "gnis:feature_id": "202782", "name": "Chittenden Mountain", "natural": "peak", "wikidata": "Q49020490"}}, {"name": "Colorado Mountain", "latitude": 39.8755429, "longitude": -105.5880558, "elevation": 3312.0, "source": "osm", "_tags": {"ele": "3312", "gnis:feature_id": "202788", "name": "Colorado Mountain", "natural": "peak"}}, {"name": "Shanahan Hill", "latitude": 39.9674859, "longitude": -105.2566564, "elevation": 1748.0, "source": "osm", "_tags": {"ele": "1748", "gnis:feature_id": "202795", "name": "Shanahan Hill", "natural": "peak", "wikidata": "Q49072563"}}, {"name": "Blue Mountain", "latitude": 39.8769312, "longitude": -105.3377699, "elevation": 2846.0, "source": "osm", "_tags": {"ele": "2846", "gnis:feature_id": "202800", "name": "Blue Mountain", "natural": "peak"}}, {"name": "Pile Hill", "latitude": 39.8610984, "longitude": -105.624446, "elevation": 3318.0, "source": "osm", "_tags": {"ele": "3318", "gnis:feature_id": "202825", "name": "Pile Hill", "natural": "peak"}}, {"name": "Douglas Mountain", "latitude": 39.7522096, "longitude": -105.6758364, "elevation": 2901.0, "source": "osm", "_tags": {"ele": "2901", "gnis:feature_id": "202826", "name": "Douglas Mountain", "natural": "peak"}}, {"name": "Gregory Hill", "latitude": 39.7933212, "longitude": -105.5013855, "elevation": 2707.0, "source": "osm", "_tags": {"ele": "2707", "gnis:feature_id": "202828", "name": "Gregory Hill", "natural": "peak"}}, {"name": "South Table Mountain", "latitude": 39.755445, "longitude": -105.2106296, "elevation": 1925.0, "source": "osm", "_tags": {"ele": "1925", "gnis:feature_id": "202838", "name": "South Table Mountain", "natural": "peak", "wikidata": "Q7568606", "wikipedia": "en:South Table Mountain (Colorado)"}}, {"name": "Santa Fe Mountain", "latitude": 39.7102659, "longitude": -105.4716627, "elevation": 3209.0, "source": "osm", "_tags": {"ele": "3209", "gnis:feature_id": "202862", "name": "Santa Fe Mountain", "natural": "peak"}}, {"name": "Bald Mountain", "latitude": 39.6266551, "longitude": -105.4536076, "elevation": 2562.0, "source": "osm", "_tags": {"ele": "2562", "gnis:feature_id": "202863", "name": "Bald Mountain", "natural": "peak"}}, {"name": "Crooked Top Mountain", "latitude": 39.4593118, "longitude": -105.5120586, "elevation": 3179.0, "source": "osm", "_tags": {"ele": "3179", "gnis:feature_id": "202930", "name": "Crooked Top Mountain", "natural": "peak"}}, {"name": "Grouse Mountain", "latitude": 39.4299892, "longitude": -105.5069446, "elevation": 3014.0, "source": "osm", "_tags": {"ele": "3014", "gnis:feature_id": "202932", "name": "Grouse Mountain", "natural": "peak"}}, {"name": "Baldy Peak", "latitude": 39.3744337, "longitude": -105.308606, "elevation": 2388.0, "source": "osm", "_tags": {"ele": "2388", "gnis:feature_id": "202934", "name": "Baldy Peak", "natural": "peak"}}, {"name": "Mount Pisgah", "latitude": 39.8063765, "longitude": -105.5780552, "elevation": 3067.0, "source": "osm", "_tags": {"ele": "3067", "gnis:feature_id": "204708", "name": "Mount Pisgah", "natural": "peak"}}, {"name": "Mount Blue Sky", "latitude": 39.5883492, "longitude": -105.643699, "elevation": 4350.0, "source": "osm", "_tags": {"ele": "4350", "ele:ft": "14271", "gnis:feature_id": "204716", "name": "Mount Blue Sky", "name:en": "Mount Blue Sky", "natural": "peak", "note": "Elevation 14,271 ft (for local usage, since this is one of the 53 \"fourteeners\" in Colorado). Elevation sourced from Wikipedia, which itself sources the data.", "old_name:-2023-09-14": "Mount Evans", "prominence": "836", "source:name": "https://content.govdelivery.com/accounts/USDOI/bulletins/370a3a7", "wikidata": "Q1950460", "wikipedia": "en:Mount Blue Sky"}}, {"name": "Thatchtop", "latitude": 40.2791513, "longitude": -105.6530601, "elevation": 3857.0, "source": "osm", "_tags": {"ele": "3857", "gnis:feature_id": "204964", "name": "Thatchtop", "natural": "peak"}}, {"name": "Taylor Peak", "latitude": 40.2747806, "longitude": -105.6808525, "elevation": 4006.0, "source": "osm", "_tags": {"ele": "4006", "gnis:feature_id": "204967", "name": "Taylor Peak", "natural": "peak", "wikidata": "Q7690099"}}, {"name": "Longs Peak", "latitude": 40.2548911, "longitude": -105.6152347, "elevation": 4346.0, "source": "osm", "_tags": {"ele": "4346", "ele:ft": "14259", "gnis:feature_id": "204979", "name": "Longs Peak", "natural": "peak", "note": "Elevation 14,259 ft (for local usage, since this is one of the 53 \"fourteeners\" in Colorado). Elevation sourced from Wikipedia, which itself sources the data.", "wikidata": "Q1317383", "wikipedia": "en:Longs Peak"}}, {"name": "Storm Peak", "latitude": 40.2656622, "longitude": -105.6204846, "elevation": 4060.0, "source": "osm", "_tags": {"ele": "4060", "gnis:feature_id": "204981", "name": "Storm Peak", "natural": "peak"}}, {"name": "Chiefs Head Peak", "latitude": 40.2494292, "longitude": -105.6413931, "elevation": 4121.0, "source": "osm", "_tags": {"ele": "4121", "gnis:feature_id": "204996", "name": "Chiefs Head Peak", "natural": "peak"}}, {"name": "Tanima Peak", "latitude": 40.2194295, "longitude": -105.6608382, "elevation": 3790.0, "source": "osm", "_tags": {"ele": "3790", "gnis:feature_id": "204998", "name": "Tanima Peak", "natural": "peak", "wikidata": "Q49081324"}}, {"name": "Ouzel Peak", "latitude": 40.185541, "longitude": -105.6711161, "elevation": 3864.0, "source": "osm", "_tags": {"ele": "3864", "gnis:feature_id": "205006", "name": "Ouzel Peak", "natural": "peak"}}, {"name": "Copeland Mountain", "latitude": 40.1819298, "longitude": -105.6463929, "elevation": 4013.0, "source": "osm", "_tags": {"ele": "4013", "gnis:feature_id": "205007", "name": "Copeland Mountain", "natural": "peak", "wikidata": "Q49021950"}}, {"name": "Lookout Mountain", "latitude": 40.2266515, "longitude": -105.5647233, "elevation": 3262.0, "source": "osm", "_tags": {"ele": "3262", "gnis:feature_id": "205010", "name": "Lookout Mountain", "natural": "peak", "wikidata": "Q49046602"}}, {"name": "Horsetooth Peak", "latitude": 40.2319292, "longitude": -105.5600007, "elevation": 3152.0, "source": "osm", "_tags": {"ele": "3152", "gnis:feature_id": "205011", "name": "Horsetooth Peak", "natural": "peak", "wikidata": "Q49037541"}}, {"name": "Thunderbolt Peak", "latitude": 40.1075229, "longitude": -105.6686078, "elevation": 3638.7, "source": "osm", "_tags": {"ele": "3638.7", "gnis:feature_id": "205014", "name": "Thunderbolt Peak", "natural": "peak"}}, {"name": "Mount Albion", "latitude": 40.0388862, "longitude": -105.6169185, "elevation": 3833.0, "source": "osm", "_tags": {"ele": "3833", "gnis:feature_id": "205016", "name": "Mount Albion", "natural": "peak"}}, {"name": "Mount Sanitas", "latitude": 40.0343681, "longitude": -105.3052847, "elevation": 2079.0, "source": "osm", "_tags": {"ele": "2079", "gnis:feature_id": "1669464", "name": "Mount Sanitas", "natural": "peak"}}, {"name": "Fritz Peak", "latitude": 39.9094316, "longitude": -105.4905525, "elevation": 2729.0, "source": "osm", "_tags": {"ele": "2729", "gnis:feature_id": "1986972", "name": "Fritz Peak", "natural": "peak"}}, {"name": "Jasper Peak", "latitude": 39.9944313, "longitude": -105.6830598, "elevation": 3923.0, "source": "osm", "_tags": {"alt_name": "Mount Jasper", "ele": "3923", "gnis:feature_id": "1989291", "name": "Jasper Peak", "natural": "peak", "wikidata": "Q49053212"}}, {"name": "Grannys Head", "latitude": 39.8261111, "longitude": -105.3297222, "elevation": 2686.0, "source": "osm", "_tags": {"ele": "2686", "gnis:feature_id": "2100382", "name": "Grannys Head", "natural": "peak"}}, {"name": "", "latitude": 39.8293863, "longitude": -105.2823418, "elevation": 2306.0, "source": "osm", "_tags": {"ele": "2306", "natural": "peak"}}, {"name": "Ralston Roost", "latitude": 39.8382151, "longitude": -105.4244632, "elevation": 2845.0, "source": "osm", "_tags": {"ele": "2845", "name": "Ralston Roost", "natural": "peak"}}, {"name": "Windy Peak", "latitude": 39.8618217, "longitude": -105.3798, "elevation": 2779.776, "source": "osm", "_tags": {"ele": "2779.7760000", "name": "Windy Peak", "natural": "peak"}}, {"name": "Indian Mountain", "latitude": 39.7182088, "longitude": -105.2285046, "elevation": 2219.0, "source": "osm", "_tags": {"ele": "2219", "name": "Indian Mountain", "natural": "peak"}}, {"name": "", "latitude": 39.8395829, "longitude": -105.4242572, "elevation": 2844.0, "source": "osm", "_tags": {"ele": "2844", "natural": "peak"}}, {"name": "Button Rock", "latitude": 40.2606293, "longitude": -105.3708423, "elevation": 2449.0, "source": "osm", "_tags": {"ele": "2449", "name": "Button Rock", "natural": "peak"}}, {"name": "Queens Chair", "latitude": 39.8166743, "longitude": -105.5186176, "elevation": null, "source": "osm", "_tags": {"name": "Queens Chair", "natural": "peak"}}, {"name": "", "latitude": 40.0175904, "longitude": -105.2965161, "elevation": 1770.0, "source": "osm", "_tags": {"ele": "1770", "natural": "peak"}}, {"name": "The Castle", "latitude": 39.3106632, "longitude": -105.382802, "elevation": 2954.0, "source": "osm", "_tags": {"ele": "2954", "name": "The Castle", "natural": "peak"}}, {"name": "Yankee Hill", "latitude": 39.8295186, "longitude": -105.6231419, "elevation": 3425.0, "source": "osm", "_tags": {"ele": "3425", "gnis:feature_id": "202824", "name": "Yankee Hill", "natural": "peak"}}, {"name": "", "latitude": 39.4991276, "longitude": -105.13161, "elevation": 2204.0, "source": "osm", "_tags": {"ele": "2204", "natural": "peak"}}, {"name": "Two Tree Hill", "latitude": 39.9744979, "longitude": -105.273159, "elevation": 1823.0, "source": "osm", "_tags": {"ele": "1823", "name": "Two Tree Hill", "natural": "peak"}}, {"name": "Bandit Peak", "latitude": 39.5396603, "longitude": -105.6035104, "elevation": 3793.0, "source": "osm", "_tags": {"ele": "3793", "name": "Bandit Peak", "natural": "peak"}}, {"name": "", "latitude": 40.0566812, "longitude": -105.5958875, "elevation": 3560.0, "source": "osm", "_tags": {"ele": "3560", "man_made": "cairn", "natural": "peak"}}, {"name": "Lichen Peak", "latitude": 39.7789094, "longitude": -105.220474, "elevation": 1998.0, "source": "osm", "_tags": {"ele": "1998", "name": "Lichen Peak", "natural": "peak"}}, {"name": "Forsythe Rock", "latitude": 39.9664639, "longitude": -105.4089798, "elevation": 2548.0, "source": "osm", "_tags": {"ele": "2548", "name": "Forsythe Rock", "natural": "peak"}}, {"name": "Nebel Horn", "latitude": 39.9669206, "longitude": -105.2907975, "elevation": 2310.0, "source": "osm", "_tags": {"ele": "2310", "name": "Nebel Horn", "natural": "peak"}}, {"name": "Dinosaur Mountain", "latitude": 39.9749113, "longitude": -105.2924234, "elevation": 2249.0, "source": "osm", "_tags": {"ele": "2249", "name": "Dinosaur Mountain", "natural": "peak"}}, {"name": "Hopi", "latitude": 40.0654528, "longitude": -105.67694, "elevation": 3895.3, "source": "osm", "_tags": {"ele": "3895.3", "name": "Hopi", "natural": "peak"}}, {"name": "Iroquois", "latitude": 40.0632869, "longitude": -105.6623536, "elevation": 3901.1, "source": "osm", "_tags": {"ele": "3901.1", "name": "Iroquois", "natural": "peak"}}, {"name": "Deshawa", "latitude": 40.0342093, "longitude": -105.6414062, "elevation": 3907.0, "source": "osm", "_tags": {"ele": "3907", "name": "Deshawa", "natural": "peak"}}, {"name": "Cherokee", "latitude": 40.083574, "longitude": -105.6901997, "elevation": 3625.0, "source": "osm", "_tags": {"ele": "3625", "name": "Cherokee", "natural": "peak"}}, {"name": "Bummers Rock", "latitude": 40.0102235, "longitude": -105.3432462, "elevation": 2033.0, "source": "osm", "_tags": {"ele": "2033", "name": "Bummers Rock", "natural": "peak", "source:ele": "USGS Topo"}}, {"name": "7948", "latitude": 39.3414286, "longitude": -105.2647045, "elevation": 2423.0, "source": "osm", "_tags": {"ele": "2423", "name": "7948", "natural": "peak"}}, {"name": "8005", "latitude": 39.327587, "longitude": -105.2921596, "elevation": 2440.0, "source": "osm", "_tags": {"ele": "2440", "name": "8005", "natural": "peak"}}, {"name": "", "latitude": 40.1566239, "longitude": -105.3182879, "elevation": 2017.0, "source": "osm", "_tags": {"ele": "2017", "ele:ft": "6617", "natural": "peak"}}, {"name": "", "latitude": 40.1622488, "longitude": -105.3107563, "elevation": 2090.0, "source": "osm", "_tags": {"ele": "2090", "ele:ft": "6856", "natural": "peak"}}, {"name": "", "latitude": 40.1549118, "longitude": -105.2933756, "elevation": 2007.0, "source": "osm", "_tags": {"ele": "2007", "ele:ft": "6548", "natural": "peak"}}, {"name": "Old Baldy", "latitude": 40.0171241, "longitude": -105.6375093, "elevation": 3974.0, "source": "osm", "_tags": {"ele": "3974", "name": "Old Baldy", "natural": "peak", "source": "Colorados Indian Peaks Classic Hikes and Climbs"}}, {"name": "Skyscraper Peak", "latitude": 39.9597754, "longitude": -105.6808985, "elevation": 3774.0, "source": "osm", "_tags": {"ele": "3774", "name": "Skyscraper Peak", "natural": "peak", "source": "Colorados Indian Peaks Classic Hikes and Climbs"}}, {"name": "Ooh La La", "latitude": 40.1614237, "longitude": -105.6676762, "elevation": 3946.0, "source": "osm", "_tags": {"ele": "3946", "name": "Ooh La La", "natural": "peak"}}, {"name": "Elk Tooth", "latitude": 40.1678388, "longitude": -105.6547039, "elevation": 3916.0, "source": "osm", "_tags": {"ele": "3916", "name": "Elk Tooth", "natural": "peak"}}, {"name": "", "latitude": 40.1465695, "longitude": -105.6352989, "elevation": 3727.0, "source": "osm", "_tags": {"ele": "3727", "natural": "peak"}}, {"name": "Red Deer Mountain", "latitude": 40.1381054, "longitude": -105.6299315, "elevation": 3776.8, "source": "osm", "_tags": {"ele": "3776.8", "name": "Red Deer Mountain", "natural": "peak"}}, {"name": "", "latitude": 40.1383446, "longitude": -105.4697028, "elevation": 2723.0, "source": "osm", "_tags": {"ele": "2723", "natural": "peak"}}, {"name": "", "latitude": 40.2263747, "longitude": -105.3132681, "elevation": 1942.0, "source": "osm", "_tags": {"ele": "1942", "ele:ft": "6371", "natural": "peak"}}, {"name": "", "latitude": 40.2232127, "longitude": -105.3387383, "elevation": 2083.0, "source": "osm", "_tags": {"ele": "2083", "ele:ft": "6833", "natural": "peak"}}, {"name": "", "latitude": 40.2065649, "longitude": -105.3492526, "elevation": 2283.0, "source": "osm", "_tags": {"ele": "2283", "ele:ft": "7488", "natural": "peak"}}, {"name": "", "latitude": 40.2443385, "longitude": -105.4063746, "elevation": 2433.0, "source": "osm", "_tags": {"ele": "2433", "natural": "peak"}}, {"name": "Danny Boy Peak", "latitude": 40.2491149, "longitude": -105.3621378, "elevation": 2374.0, "source": "osm", "_tags": {"ele": "2374", "name": "Danny Boy Peak", "natural": "peak"}}, {"name": "", "latitude": 40.2531384, "longitude": -105.3662784, "elevation": 2289.0, "source": "osm", "_tags": {"ele": "2289", "natural": "peak"}}, {"name": "", "latitude": 40.2536461, "longitude": -105.3492807, "elevation": 2156.0, "source": "osm", "_tags": {"ele": "2156", "natural": "peak"}}, {"name": "", "latitude": 40.2612727, "longitude": -105.3910326, "elevation": 2518.0, "source": "osm", "_tags": {"ele": "2518", "natural": "peak"}}, {"name": "", "latitude": 40.2296406, "longitude": -105.4337313, "elevation": 2605.0, "source": "osm", "_tags": {"ele": "2605", "natural": "peak"}}, {"name": "", "latitude": 40.249246, "longitude": -105.4220833, "elevation": 2526.0, "source": "osm", "_tags": {"ele": "2526", "natural": "peak"}}, {"name": "", "latitude": 40.2535468, "longitude": -105.4231712, "elevation": 2449.0, "source": "osm", "_tags": {"ele": "2449", "natural": "peak"}}, {"name": "", "latitude": 40.2437421, "longitude": -105.4314277, "elevation": 2613.0, "source": "osm", "_tags": {"ele": "2613", "natural": "peak"}}, {"name": "", "latitude": 40.2723474, "longitude": -105.3834361, "elevation": 2467.0, "source": "osm", "_tags": {"ele": "2467", "natural": "peak"}}, {"name": "", "latitude": 40.2781154, "longitude": -105.3663752, "elevation": 2102.0, "source": "osm", "_tags": {"ele": "2102", "natural": "peak"}}, {"name": "Seal Rock", "latitude": 39.9683791, "longitude": -105.2879976, "elevation": 2260.0, "source": "osm", "_tags": {"ele": "2260", "name": "Seal Rock", "natural": "peak"}}, {"name": "Goat Mountain", "latitude": 39.4922037, "longitude": -105.146835, "elevation": 2373.0, "source": "osm", "_tags": {"ele": "2373", "gnis:feature_id": "183323", "name": "Goat Mountain", "natural": "peak"}}, {"name": "Coney Island", "latitude": 40.122125, "longitude": -105.6166792, "elevation": 3530.0, "source": "osm", "_tags": {"ele": "3530", "name": "Coney Island", "natural": "peak"}}, {"name": "Algonquin", "latitude": 40.1112374, "longitude": -105.6353152, "elevation": 3833.0, "source": "osm", "_tags": {"ele": "3833", "name": "Algonquin", "natural": "peak"}}, {"name": "City Lights Ridge", "latitude": 39.8519364, "longitude": -105.3852844, "elevation": null, "source": "osm", "_tags": {"name": "City Lights Ridge", "natural": "peak"}}, {"name": "Andrews Tower", "latitude": 40.2864981, "longitude": -105.6798142, "elevation": 3700.0, "source": "osm", "_tags": {"ele": "3700", "name": "Andrews Tower", "natural": "peak"}}, {"name": "The Stiletto", "latitude": 40.2796869, "longitude": -105.676969, "elevation": 3740.0, "source": "osm", "_tags": {"ele": "3740", "name": "The Stiletto", "natural": "peak"}}, {"name": "Question Mark Peak", "latitude": 39.5644781, "longitude": -105.1833247, "elevation": 2260.0, "source": "osm", "_tags": {"ele": "2260", "name": "Question Mark Peak", "natural": "peak"}}, {"name": "Mount Notabon", "latitude": 40.1059775, "longitude": -105.6089974, "elevation": 3872.8, "source": "osm", "_tags": {"ele": "3872.8", "name": "Mount Notabon", "natural": "peak"}}, {"name": "Hiamovi Tower", "latitude": 40.1564913, "longitude": -105.6888628, "elevation": 3727.7, "source": "osm", "_tags": {"ele": "3727.7", "name": "Hiamovi Tower", "natural": "peak"}}, {"name": "Blackfoot", "latitude": 40.0985056, "longitude": -105.6563544, "elevation": 3692.0, "source": "osm", "_tags": {"ele": "3692", "name": "Blackfoot", "natural": "peak"}}, {"name": "Limbo", "latitude": 40.0667703, "longitude": -105.6613433, "elevation": 3785.6, "source": "osm", "_tags": {"ele": "3785.6", "name": "Limbo", "natural": "peak"}}, {"name": "Achonee Tower", "latitude": 40.0749682, "longitude": -105.6749904, "elevation": 3675.9, "source": "osm", "_tags": {"ele": "3675.9", "name": "Achonee Tower", "natural": "peak"}}, {"name": "Cherokee", "latitude": 40.0807805, "longitude": -105.6718898, "elevation": 3697.2, "source": "osm", "_tags": {"ele": "3697.2", "name": "Cherokee", "natural": "peak"}}, {"name": "Beacon Peak", "latitude": 39.9174716, "longitude": -105.6822968, "elevation": 3679.5, "source": "osm", "_tags": {"ele": "3679.5", "name": "Beacon Peak", "natural": "peak"}}, {"name": "Quarter to 5 Peak", "latitude": 40.0164939, "longitude": -105.663591, "elevation": 3749.0, "source": "osm", "_tags": {"ele": "3749", "name": "Quarter to 5 Peak", "natural": "peak"}}, {"name": "Spirit Peak", "latitude": 39.9039711, "longitude": -105.6873715, "elevation": 3691.1, "source": "osm", "_tags": {"ele": "3691.1", "name": "Spirit Peak", "natural": "peak"}}, {"name": "Silver Cliff", "latitude": 39.5901981, "longitude": -105.1932571, "elevation": 2217.0, "source": "osm", "_tags": {"ele": "2217", "name": "Silver Cliff", "natural": "peak"}}, {"name": "Beacon Hill", "latitude": 39.5885175, "longitude": -105.2004675, "elevation": 2304.0, "source": "osm", "_tags": {"ele": "2304", "name": "Beacon Hill", "natural": "peak"}}, {"name": "Tin Cup", "latitude": 39.5936998, "longitude": -105.2028405, "elevation": 2394.0, "source": "osm", "_tags": {"ele": "2394", "name": "Tin Cup", "natural": "peak"}}, {"name": "", "latitude": 39.5948934, "longitude": -105.1858655, "elevation": 2052.0, "source": "osm", "_tags": {"ele": "2052", "natural": "peak"}}, {"name": "", "latitude": 39.6027475, "longitude": -105.1974781, "elevation": 2222.0, "source": "osm", "_tags": {"ele": "2222", "natural": "peak"}}, {"name": "", "latitude": 39.5767916, "longitude": -105.1891431, "elevation": 2296.0, "source": "osm", "_tags": {"ele": "2296", "natural": "peak"}}, {"name": "", "latitude": 39.5679341, "longitude": -105.1929648, "elevation": 2336.0, "source": "osm", "_tags": {"ele": "2336", "natural": "peak"}}, {"name": "", "latitude": 39.5605222, "longitude": -105.1820898, "elevation": 2313.0, "source": "osm", "_tags": {"ele": "2313", "natural": "peak"}}, {"name": "", "latitude": 39.5525599, "longitude": -105.1858609, "elevation": 2271.0, "source": "osm", "_tags": {"ele": "2271", "natural": "peak"}}, {"name": "", "latitude": 39.5718038, "longitude": -105.1434515, "elevation": 1960.0, "source": "osm", "_tags": {"ele": "1960", "natural": "peak"}}, {"name": "", "latitude": 39.5617169, "longitude": -105.135276, "elevation": 1921.0, "source": "osm", "_tags": {"ele": "1921", "natural": "peak"}}, {"name": "", "latitude": 39.556581, "longitude": -105.1302392, "elevation": 1937.0, "source": "osm", "_tags": {"ele": "1937", "natural": "peak"}}, {"name": "", "latitude": 39.5910289, "longitude": -105.1554594, "elevation": 1992.0, "source": "osm", "_tags": {"ele": "1992", "natural": "peak"}}, {"name": "Stafford Hogback", "latitude": 39.6052794, "longitude": -105.160518, "elevation": 1976.0, "source": "osm", "_tags": {"ele": "1976", "name": "Stafford Hogback", "natural": "peak"}}, {"name": "", "latitude": 39.6158372, "longitude": -105.162528, "elevation": 1931.0, "source": "osm", "_tags": {"ele": "1931", "natural": "peak"}}, {"name": "", "latitude": 39.5747281, "longitude": -105.2061348, "elevation": 2425.0, "source": "osm", "_tags": {"ele": "2425", "natural": "peak"}}, {"name": "", "latitude": 39.5954449, "longitude": -105.1966722, "elevation": null, "source": "osm", "_tags": {"natural": "peak"}}, {"name": "", "latitude": 39.6304346, "longitude": -105.2233395, "elevation": 2371.0, "source": "osm", "_tags": {"ele": "2371", "natural": "peak"}}, {"name": "", "latitude": 39.640118, "longitude": -105.2177728, "elevation": 2320.0, "source": "osm", "_tags": {"ele": "2320", "natural": "peak"}}, {"name": "", "latitude": 39.6352416, "longitude": -105.1976447, "elevation": 1936.0, "source": "osm", "_tags": {"ele": "1936", "natural": "peak"}}, {"name": "", "latitude": 39.6509194, "longitude": -105.2295619, "elevation": 2153.0, "source": "osm", "_tags": {"ele": "2153", "natural": "peak"}}, {"name": "Rebel Hill", "latitude": 39.6049578, "longitude": -105.0791831, "elevation": null, "source": "osm", "_tags": {"name": "Rebel Hill", "natural": "peak"}}, {"name": "Bear Mountain", "latitude": 39.6228736, "longitude": -105.2898898, "elevation": 2630.0, "source": "osm", "_tags": {"ele": "2630", "gnis:feature_id": "182564", "name": "Bear Mountain", "natural": "peak"}}, {"name": "", "latitude": 39.5354356, "longitude": -105.3940781, "elevation": 3270.0, "source": "osm", "_tags": {"ele": "3270", "natural": "peak"}}, {"name": "Waterton", "latitude": 39.5177585, "longitude": -105.0953189, "elevation": 1730.0, "source": "osm", "_tags": {"ele": "1730", "name": "Waterton", "natural": "peak"}}, {"name": "Lost Arrow Point", "latitude": 39.7280057, "longitude": -105.2728677, "elevation": null, "source": "osm", "_tags": {"name": "Lost Arrow Point", "natural": "peak"}}, {"name": "Noddle", "latitude": 39.3256914, "longitude": -105.1560851, "elevation": 2461.0, "source": "osm", "_tags": {"ele": "2461", "name": "Noddle", "natural": "peak"}}, {"name": "", "latitude": 39.5108716, "longitude": -105.1433347, "elevation": 2211.0, "source": "osm", "_tags": {"ele": "2211", "natural": "peak"}}, {"name": "", "latitude": 39.5114526, "longitude": -105.1487364, "elevation": 2327.0, "source": "osm", "_tags": {"ele": "2327", "natural": "peak"}}, {"name": "", "latitude": 39.5175541, "longitude": -105.1460323, "elevation": 2244.0, "source": "osm", "_tags": {"ele": "2244", "natural": "peak"}}, {"name": "", "latitude": 39.5191553, "longitude": -105.1550901, "elevation": 2148.0, "source": "osm", "_tags": {"ele": "2148", "natural": "peak"}}, {"name": "Big Owl Hill", "latitude": 40.2576494, "longitude": -105.5282372, "elevation": null, "source": "osm", "_tags": {"gnis:feature_id": "196575", "name": "Big Owl Hill", "natural": "peak"}}, {"name": "Melvina Hill", "latitude": 40.0493104, "longitude": -105.3848763, "elevation": 2272.0, "source": "osm", "_tags": {"ele": "2272", "gnis:feature_id": "178518", "name": "Melvina Hill", "natural": "peak"}}, {"name": "Wood Mountain", "latitude": 40.0485971, "longitude": -105.4042131, "elevation": 2458.0, "source": "osm", "_tags": {"ele": "2458", "gnis:feature_id": "178512", "name": "Wood Mountain", "natural": "peak"}}, {"name": "Taylor Mountain", "latitude": 40.1958446, "longitude": -105.4677838, "elevation": null, "source": "osm", "_tags": {"gnis:feature_id": "178268", "name": "Taylor Mountain", "natural": "peak"}}, {"name": "The Ironclads", "latitude": 40.1686738, "longitude": -105.4883424, "elevation": null, "source": "osm", "_tags": {"gnis:feature_id": "178263", "name": "The Ironclads", "natural": "peak"}}, {"name": "Ships Prow Tower", "latitude": 40.2526656, "longitude": -105.6068461, "elevation": 4073.56, "source": "osm", "_tags": {"ele": "4073.56", "name": "Ships Prow Tower", "natural": "peak"}}, {"name": "", "latitude": 39.7402067, "longitude": -105.2451262, "elevation": null, "source": "osm", "_tags": {"natural": "peak"}}, {"name": "", "latitude": 40.0045703, "longitude": -105.3165561, "elevation": 2005.0, "source": "osm", "_tags": {"ele": "2005", "natural": "peak"}}]