[{"name": "Flattop Mountain", "latitude": 40.308939, "longitude": -105.690209, "elevation": 3757.0, "source": "osm", "_tags": {"description": "Flattop Mountain is a mountain (natural=peak), albeit not a very prominent peak. In all directions from the peak, it is downhill.", "ele": "3757", "gnis:feature_id": "204966", "name": "Flattop Mountain", "natural": "peak"}}, {"name": "Mesa Mountain", "latitude": 41.2685915, "longitude": -105.2113679, "elevation": 2318.0, "source": "osm", "_tags": {"ele": "2318", "gnis:feature_id": "1591479", "name": "Mesa Mountain", "natural": "peak", "wikidata": "Q49049501"}}, {"name": "Natural Fort", "latitude": 41.0877619, "longitude": -105.4430438, "elevation": 2440.0, "source": "osm", "_tags": {"ele": "2440", "gnis:feature_id": "1591965", "name": "Natural Fort", "natural": "peak", "wikidata": "Q49056444"}}, {"name": "Red Buttes", "latitude": 41.1852597, "longitude": -105.5169335, "elevation": 2360.0, "source": "osm", "_tags": {"ele": "2360", "gnis:feature_id": "1593245", "name": "Red Buttes", "natural": "peak", "wikidata": "Q49067150"}}, {"name": "Saddleback Mountain", "latitude": 41.0760945, "longitude": -105.2049793, "elevation": 2416.0, "source": "osm", "_tags": {"ele": "2416", "gnis:feature_id": "1593743", "name": "Saddleback Mountain", "natural": "peak", "wikidata": "Q49070767"}}, {"name": "Table Mountain", "latitude": 41.2383141, "longitude": -105.1944231, "elevation": 2301.0, "source": "osm", "_tags": {"ele": "2301", "gnis:feature_id": "1595275", "name": "Table Mountain", "natural": "peak", "wikidata": "Q49080944"}}, {"name": "Terry Anticline", "latitude": 41.0199835, "longitude": -104.8694135, "elevation": 1967.0, "source": "osm", "_tags": {"ele": "1967", "gnis:feature_id": "1595377", "name": "Terry Anticline", "natural": "peak", "wikidata": "Q49082027"}}, {"name": "Terry Peak", "latitude": 41.0258168, "longitude": -104.8730246, "elevation": 1962.0, "source": "osm", "_tags": {"ele": "1962", "gnis:feature_id": "1595380", "name": "Terry Peak", "natural": "peak", "wikidata": "Q49082028"}}, {"name": "Bennet Hill", "latitude": 41.2001541, "longitude": -105.3968093, "elevation": 2519.0, "source": "osm", "_tags": {"ele": "2519", "gnis:feature_id": "1598110", "name": "Bennet Hill", "natural": "peak", "wikidata": "Q49474384"}}, {"name": "Bisbee Hill", "latitude": 41.2458141, "longitude": -105.3769285, "elevation": 2556.0, "source": "osm", "_tags": {"ele": "2556", "gnis:feature_id": "1598195", "name": "Bisbee Hill", "natural": "peak", "wikidata": "Q49013009"}}, {"name": "Egbert Hill", "latitude": 41.1808153, "longitude": -105.3558175, "elevation": 2584.0, "source": "osm", "_tags": {"ele": "2584", "gnis:feature_id": "1599545", "name": "Egbert Hill", "natural": "peak", "wikidata": "Q49027299"}}, {"name": "Green Mountain", "latitude": 41.1895225, "longitude": -105.368972, "elevation": 2651.0, "source": "osm", "_tags": {"ele": "2651", "name": "Green Mountain", "natural": "peak"}}, {"name": "Markley Hill", "latitude": 41.2391477, "longitude": -105.376373, "elevation": 2537.0, "source": "osm", "_tags": {"ele": "2537", "gnis:feature_id": "1601259", "name": "Markley Hill", "natural": "peak", "wikidata": "Q49047999"}}, {"name": "Pitcher Hill", "latitude": 41.2644249, "longitude": -105.3060931, "elevation": 2359.0, "source": "osm", "_tags": {"ele": "2359", "gnis:feature_id": "1602197", "name": "Pitcher Hill", "natural": "peak", "wikidata": "Q49062417"}}, {"name": "Point Crawford", "latitude": 41.2113628, "longitude": -105.3944709, "elevation": 2673.0, "source": "osm", "_tags": {"ele": "2673", "gnis:feature_id": "1602220", "name": "Point Crawford", "natural": "peak", "wikidata": "Q49062841"}}, {"name": "Poland Hill", "latitude": 41.1672412, "longitude": -105.3973555, "elevation": 2558.0, "source": "osm", "_tags": {"ele": "2558", "gnis:feature_id": "1602235", "name": "Poland Hill", "natural": "peak", "wikidata": "Q49063003"}}, {"name": "Reynolds Hill", "latitude": 41.1741488, "longitude": -105.3549841, "elevation": 2461.0, "source": "osm", "_tags": {"ele": "2461", "gnis:feature_id": "1602513", "name": "Reynolds Hill", "natural": "peak", "wikidata": "Q49068308"}}, {"name": "Vedauwoo", "latitude": 41.1660934, "longitude": -105.3755405, "elevation": 2604.0, "source": "osm", "_tags": {"alt_name": "Turtle Rock", "ele": "2604", "gnis:feature_id": "1603811", "name": "Vedauwoo", "natural": "peak", "wikidata": "Q49085682"}}, {"name": "Twin Mountain", "latitude": 41.1927596, "longitude": -105.3608175, "elevation": 2632.0, "source": "osm", "_tags": {"ele": "2632", "gnis:feature_id": "1603832", "name": "Twin Mountain", "natural": "peak", "wikidata": "Q49086091"}}, {"name": "Augur Hill", "latitude": 41.1880365, "longitude": -104.8480245, "elevation": 1910.0, "source": "osm", "_tags": {"ele": "1910", "gnis:feature_id": "1608484", "name": "Augur Hill", "natural": "peak", "wikidata": "Q49009287"}}, {"name": "Dodge Hill", "latitude": 41.1822032, "longitude": -104.8488578, "elevation": 1913.0, "source": "osm", "_tags": {"ele": "1913", "gnis:feature_id": "1608531", "name": "Dodge Hill", "natural": "peak", "wikidata": "Q49025146"}}, {"name": "Gilbert Hill", "latitude": 41.1866477, "longitude": -104.8635804, "elevation": 1923.0, "source": "osm", "_tags": {"ele": "1923", "gnis:feature_id": "1608542", "name": "Gilbert Hill", "natural": "peak", "wikidata": "Q49031456"}}, {"name": "Nob Hill", "latitude": 41.132739, "longitude": -104.8490005, "elevation": 1879.0, "source": "osm", "_tags": {"ele": "1879", "gnis:feature_id": "1608580", "name": "Nob Hill", "natural": "peak", "wikidata": "Q49057124"}}, {"name": "Round Top", "latitude": 41.1874811, "longitude": -104.8935809, "elevation": 1937.0, "source": "osm", "_tags": {"ele": "1937", "gnis:feature_id": "1608590", "name": "Round Top", "natural": "peak", "wikidata": "Q49070104"}}, {"name": "Stevenson Hill", "latitude": 41.2024808, "longitude": -104.8744139, "elevation": 1943.0, "source": "osm", "_tags": {"ele": "1943", "gnis:feature_id": "1608629", "name": "Stevenson Hill", "natural": "peak", "wikidata": "Q49078113"}}, {"name": "Pole Mountain", "latitude": 41.2319255, "longitude": -105.3902624, "elevation": 2751.0, "source": "osm", "_tags": {"ele": "2751", "gnis:feature_id": "1940332", "name": "Pole Mountain", "natural": "peak", "wikidata": "Q49063060"}}, {"name": "Bald Mountain", "latitude": 40.9955417, "longitude": -105.5033252, "elevation": 2442.0, "source": "osm", "_tags": {"ele": "2442", "gnis:feature_id": "170107", "name": "Bald Mountain", "natural": "peak"}}, {"name": "Diamond Peak", "latitude": 40.9791508, "longitude": -105.5599932, "elevation": 2621.0, "source": "osm", "_tags": {"ele": "2621", "gnis:feature_id": "170108", "name": "Diamond Peak", "natural": "peak"}}, {"name": "Iron Mountain", "latitude": 40.9438723, "longitude": -105.5669382, "elevation": 2649.0, "source": "osm", "_tags": {"ele": "2649", "gnis:feature_id": "170110", "name": "Iron Mountain", "natural": "peak"}}, {"name": "Deadhorse Mountain", "latitude": 40.9538718, "longitude": -105.5927721, "elevation": 2762.0, "source": "osm", "_tags": {"ele": "2762", "gnis:feature_id": "170111", "name": "Deadhorse Mountain", "natural": "peak"}}, {"name": "Turkey Roost", "latitude": 40.902206, "longitude": -105.4230445, "elevation": 2357.0, "source": "osm", "_tags": {"ele": "2357", "gnis:feature_id": "170119", "name": "Turkey Roost", "natural": "peak"}}, {"name": "Mount Evelyn", "latitude": 40.894706, "longitude": -105.4624905, "elevation": 2295.0, "source": "osm", "_tags": {"ele": "2295", "gnis:feature_id": "170120", "name": "Mount Evelyn", "natural": "peak"}}, {"name": "Goat Mountain", "latitude": 40.9005397, "longitude": -105.4949918, "elevation": 2370.0, "source": "osm", "_tags": {"ele": "2370", "gnis:feature_id": "170122", "name": "Goat Mountain", "natural": "peak"}}, {"name": "Red Mountain", "latitude": 40.9072055, "longitude": -105.2777608, "elevation": 2163.0, "source": "osm", "_tags": {"ele": "2163", "gnis:feature_id": "170129", "name": "Red Mountain", "natural": "peak"}}, {"name": "Little Twins", "latitude": 40.9591507, "longitude": -105.2755383, "elevation": 2268.0, "source": "osm", "_tags": {"ele": "2268", "gnis:feature_id": "170136", "name": "Little Twins", "natural": "peak"}}, {"name": "Table Mountain", "latitude": 40.9887077, "longitude": -105.3310776, "elevation": 2409.0, "source": "osm", "_tags": {"ele": "2409", "gnis:feature_id": "170137", "name": "Table Mountain", "natural": "peak"}}, {"name": "Little Bald Mountain", "latitude": 40.975262, "longitude": -105.2683158, "elevation": 2295.0, "source": "osm", "_tags": {"ele": "2295", "gnis:feature_id": "170138", "name": "Little Bald Mountain", "natural": "peak"}}, {"name": "Table Mountain", "latitude": 40.9408172, "longitude": -105.1755342, "elevation": 2150.0, "source": "osm", "_tags": {"ele": "2150", "gnis:feature_id": "170144", "name": "Table Mountain", "natural": "peak"}}, {"name": "Sheep Mountain", "latitude": 40.9266502, "longitude": -105.2394259, "elevation": 2224.0, "source": "osm", "_tags": {"ele": "2224", "gnis:feature_id": "170145", "name": "Sheep Mountain", "natural": "peak"}}, {"name": "Mount Kimball", "latitude": 40.8947061, "longitude": -105.4877693, "elevation": 2306.0, "source": "osm", "_tags": {"ele": "2306", "gnis:feature_id": "170161", "name": "Mount Kimball", "natural": "peak"}}, {"name": "Gage Hill", "latitude": 40.7885929, "longitude": -105.1910914, "elevation": 1839.0, "source": "osm", "_tags": {"ele": "1839", "gnis:feature_id": "170176", "name": "Gage Hill", "natural": "peak"}}, {"name": "Bobcat Mountain", "latitude": 40.8680387, "longitude": -105.1510893, "elevation": 1913.0, "source": "osm", "_tags": {"ele": "1913", "gnis:feature_id": "170182", "name": "Bobcat Mountain", "natural": "peak"}}, {"name": "Deadman Butte", "latitude": 40.8144263, "longitude": -105.2341484, "elevation": 1852.0, "source": "osm", "_tags": {"ele": "1852", "gnis:feature_id": "170183", "name": "Deadman Butte", "natural": "peak"}}, {"name": "Table Rock", "latitude": 40.8413712, "longitude": -105.2360928, "elevation": 1943.0, "source": "osm", "_tags": {"ele": "1943", "gnis:feature_id": "170184", "name": "Table Rock", "natural": "peak"}}, {"name": "Eagles Nest", "latitude": 40.7714239, "longitude": -105.2237465, "elevation": 1916.0, "source": "osm", "_tags": {"ele": "1916", "gnis:feature_id": "170186", "name": "Eagles Nest", "natural": "peak"}}, {"name": "Campbell Mountain", "latitude": 40.8227601, "longitude": -105.1883133, "elevation": 1947.0, "source": "osm", "_tags": {"ele": "1947", "gnis:feature_id": "170188", "name": "Campbell Mountain", "natural": "peak"}}, {"name": "Calloway Hill", "latitude": 40.8305378, "longitude": -105.3094291, "elevation": 1917.0, "source": "osm", "_tags": {"ele": "1917", "gnis:feature_id": "170193", "name": "Calloway Hill", "natural": "peak"}}, {"name": "Livermore Mountain", "latitude": 40.7569254, "longitude": -105.2924842, "elevation": 2281.0, "source": "osm", "_tags": {"ele": "2281", "gnis:feature_id": "170194", "name": "Livermore Mountain", "natural": "peak"}}, {"name": "Haystack Butte", "latitude": 40.7577588, "longitude": -105.4377677, "elevation": 2371.0, "source": "osm", "_tags": {"ele": "2371", "gnis:feature_id": "170198", "name": "Haystack Butte", "natural": "peak"}}, {"name": "Sheep Mountain", "latitude": 40.8027597, "longitude": -105.4397122, "elevation": 2425.0, "source": "osm", "_tags": {"ele": "2425", "gnis:feature_id": "170201", "name": "Sheep Mountain", "natural": "peak"}}, {"name": "Blacktail Point", "latitude": 40.8530384, "longitude": -105.423878, "elevation": 2266.0, "source": "osm", "_tags": {"ele": "2266", "gnis:feature_id": "170205", "name": "Blacktail Point", "natural": "peak"}}, {"name": "Many Thunders Mountain", "latitude": 40.837321, "longitude": -105.5638909, "elevation": 2473.0, "source": "osm", "_tags": {"ele": "2473", "gnis:feature_id": "170215", "name": "Many Thunders Mountain", "natural": "peak"}}, {"name": "Mount Margaret", "latitude": 40.8177597, "longitude": -105.5277712, "elevation": 2422.0, "source": "osm", "_tags": {"ele": "2422", "gnis:feature_id": "170217", "name": "Mount Margaret", "natural": "peak"}}, {"name": "Black Mountain", "latitude": 40.8716478, "longitude": -105.6391637, "elevation": 3030.0, "source": "osm", "_tags": {"ele": "3030", "gnis:feature_id": "170242", "name": "Black Mountain", "natural": "peak"}}, {"name": "Round Butte", "latitude": 40.9152619, "longitude": -105.0488624, "elevation": 1844.0, "source": "osm", "_tags": {"ele": "1844", "gnis:feature_id": "171105", "name": "Round Butte", "natural": "peak"}}, {"name": "Crown Point", "latitude": 40.6292395, "longitude": -105.6842832, "elevation": 3478.0, "source": "osm", "_tags": {"ele": "3478", "ele:ft": "11463", "gnis:feature_id": "177109", "name": "Crown Point", "natural": "peak"}}, {"name": "Quigley Mountain", "latitude": 40.6380373, "longitude": -105.5124948, "elevation": 2610.0, "source": "osm", "_tags": {"ele": "2610", "gnis:feature_id": "177119", "name": "Quigley Mountain", "natural": "peak"}}, {"name": "Pingree Hill", "latitude": 40.7269885, "longitude": -105.5712676, "elevation": 2609.0, "source": "osm", "_tags": {"ele": "2609", "gnis:feature_id": "177132", "name": "Pingree Hill", "natural": "peak"}}, {"name": "Prohibition Mountain", "latitude": 40.7394248, "longitude": -105.6072201, "elevation": 2769.0, "source": "osm", "_tags": {"ele": "2769", "gnis:feature_id": "177138", "name": "Prohibition Mountain", "natural": "peak"}}, {"name": "Bear Mountain", "latitude": 40.6602594, "longitude": -105.3983231, "elevation": 2314.0, "source": "osm", "_tags": {"ele": "2314", "gnis:feature_id": "177152", "name": "Bear Mountain", "natural": "peak"}}, {"name": "Mount Simon", "latitude": 40.7399809, "longitude": -105.3927661, "elevation": 2308.0, "source": "osm", "_tags": {"ele": "2308", "gnis:feature_id": "177153", "name": "Mount Simon", "natural": "peak"}}, {"name": "Mount Morian", "latitude": 40.734981, "longitude": -105.4122115, "elevation": 2321.0, "source": "osm", "_tags": {"ele": "2321", "gnis:feature_id": "177154", "name": "Mount Morian", "natural": "peak"}}, {"name": "Manhead Mountain", "latitude": 40.7372031, "longitude": -105.4422126, "elevation": 2431.0, "source": "osm", "_tags": {"ele": "2431", "gnis:feature_id": "177155", "name": "Manhead Mountain", "natural": "peak"}}, {"name": "Lonetree Mountain", "latitude": 40.7215487, "longitude": -105.4912852, "elevation": 2436.0, "source": "osm", "_tags": {"ele": "2436", "gnis:feature_id": "177156", "name": "Lonetree Mountain", "natural": "peak"}}, {"name": "Sheep Mountain", "latitude": 40.6822036, "longitude": -105.4247128, "elevation": 2291.0, "source": "osm", "_tags": {"ele": "2291", "gnis:feature_id": "177157", "name": "Sheep Mountain", "natural": "peak"}}, {"name": "Red Mountain", "latitude": 40.6917439, "longitude": -105.3920837, "elevation": 2227.0, "source": "osm", "_tags": {"ele": "2227", "gnis:feature_id": "177159", "name": "Red Mountain", "natural": "peak"}}, {"name": "Mount McConnel", "latitude": 40.6720451, "longitude": -105.4645843, "elevation": 2440.0, "source": "osm", "_tags": {"ele": "2440", "gnis:feature_id": "177160", "name": "Mount McConnel", "natural": "peak", "wikidata": "Q14684992"}}, {"name": "Mount Ethel", "latitude": 40.6355375, "longitude": -105.352766, "elevation": 2578.0, "source": "osm", "_tags": {"ele": "2578", "gnis:feature_id": "177177", "name": "Mount Ethel", "natural": "peak"}}, {"name": "Greyrock Mountain", "latitude": 40.7155369, "longitude": -105.2924848, "elevation": 2320.0, "source": "osm", "_tags": {"ele": "2320", "gnis:feature_id": "177183", "name": "Greyrock Mountain", "natural": "peak", "wikidata": "Q14684547"}}, {"name": "Goat Hill", "latitude": 40.642482, "longitude": -105.1699809, "elevation": 1708.0, "source": "osm", "_tags": {"ele": "1708", "gnis:feature_id": "177196", "name": "Goat Hill", "natural": "peak", "wikidata": "Q39074876", "wikipedia": "en:Goat Hill (Larimer County, Colorado)"}}, {"name": "Bonner Peak", "latitude": 40.7394257, "longitude": -105.2047033, "elevation": 2113.0, "source": "osm", "_tags": {"ele": "2113", "gnis:feature_id": "177207", "name": "Bonner Peak", "natural": "peak"}}, {"name": "Fall Mountain", "latitude": 40.5285941, "longitude": -105.661392, "elevation": 3736.0, "source": "osm", "_tags": {"ele": "3736", "gnis:feature_id": "177284", "name": "Fall Mountain", "natural": "peak"}}, {"name": "Comanche Peak", "latitude": 40.5471519, "longitude": -105.6789129, "elevation": 3868.0, "source": "osm", "_tags": {"ele": "3868", "gnis:feature_id": "177298", "name": "Comanche Peak", "natural": "peak"}}, {"name": "Skull Point", "latitude": 40.5135942, "longitude": -105.6308353, "elevation": 3675.0, "source": "osm", "_tags": {"ele": "3675", "gnis:feature_id": "177301", "name": "Skull Point", "natural": "peak"}}, {"name": "Ramsey Peak", "latitude": 40.5249829, "longitude": -105.61389, "elevation": 3524.0, "source": "osm", "_tags": {"ele": "3524", "gnis:feature_id": "177315", "name": "Ramsey Peak", "natural": "peak"}}, {"name": "Stormy Peaks", "latitude": 40.5199829, "longitude": -105.5869445, "elevation": 3692.0, "source": "osm", "_tags": {"ele": "3692", "gnis:feature_id": "177317", "name": "Stormy Peaks", "natural": "peak"}}, {"name": "Sugarloaf Mountain", "latitude": 40.5166497, "longitude": -105.6172236, "elevation": 3701.0, "source": "osm", "_tags": {"ele": "3701", "gnis:feature_id": "177318", "name": "Sugarloaf Mountain", "natural": "peak"}}, {"name": "South Signal Mountain", "latitude": 40.5185939, "longitude": -105.5186082, "elevation": 3426.0, "source": "osm", "_tags": {"ele": "3426", "gnis:feature_id": "177324", "name": "South Signal Mountain", "natural": "peak"}}, {"name": "East White Pine Mountain", "latitude": 40.6047043, "longitude": -105.4458259, "elevation": 3111.0, "source": "osm", "_tags": {"ele": "3111", "gnis:feature_id": "177329", "name": "East White Pine Mountain", "natural": "peak"}}, {"name": "West White Pine Mountain", "latitude": 40.6052598, "longitude": -105.4716603, "elevation": 3140.0, "source": "osm", "_tags": {"ele": "3140", "gnis:feature_id": "177330", "name": "West White Pine Mountain", "natural": "peak"}}, {"name": "Boiler Hill", "latitude": 40.5294271, "longitude": -105.3913803, "elevation": 2697.0, "source": "osm", "_tags": {"ele": "2697", "gnis:feature_id": "177331", "name": "Boiler Hill", "natural": "peak"}}, {"name": "Turner Hill", "latitude": 40.5622046, "longitude": -105.4244368, "elevation": 2517.0, "source": "osm", "_tags": {"ele": "2517", "gnis:feature_id": "177332", "name": "Turner Hill", "natural": "peak"}}, {"name": "Crystal Mountain", "latitude": 40.5391493, "longitude": -105.432493, "elevation": 3029.0, "source": "osm", "_tags": {"ele": "3029", "gnis:feature_id": "177333", "name": "Crystal Mountain", "natural": "peak"}}, {"name": "Lookout Mountain", "latitude": 40.5344271, "longitude": -105.4597165, "elevation": 3230.0, "source": "osm", "_tags": {"ele": "3230", "gnis:feature_id": "177334", "name": "Lookout Mountain", "natural": "peak"}}, {"name": "Hyatt Hill", "latitude": 40.516094, "longitude": -105.3527677, "elevation": 2361.0, "source": "osm", "_tags": {"ele": "2361", "gnis:feature_id": "177347", "name": "Hyatt Hill", "natural": "peak"}}, {"name": "Buckhorn Mountain", "latitude": 40.6110932, "longitude": -105.324154, "elevation": 2524.0, "source": "osm", "_tags": {"ele": "2524", "gnis:feature_id": "177357", "name": "Buckhorn Mountain", "natural": "peak"}}, {"name": "Deadman Hill", "latitude": 40.5660936, "longitude": -105.3069317, "elevation": 1991.0, "source": "osm", "_tags": {"ele": "1991", "gnis:feature_id": "177361", "name": "Deadman Hill", "natural": "peak"}}, {"name": "Fletcher Hill", "latitude": 40.5294272, "longitude": -105.274153, "elevation": 1882.0, "source": "osm", "_tags": {"ele": "1882", "gnis:feature_id": "177363", "name": "Fletcher Hill", "natural": "peak"}}, {"name": "Parks Hill", "latitude": 40.5263717, "longitude": -105.3602679, "elevation": 2442.0, "source": "osm", "_tags": {"ele": "2442", "gnis:feature_id": "177366", "name": "Parks Hill", "natural": "peak"}}, {"name": "Christ Mountain", "latitude": 40.575538, "longitude": -105.2849862, "elevation": 2406.0, "source": "osm", "_tags": {"ele": "2406", "gnis:feature_id": "177369", "name": "Christ Mountain", "natural": "peak"}}, {"name": "Bingham Hill", "latitude": 40.6230378, "longitude": -105.1583141, "elevation": 1633.0, "source": "osm", "_tags": {"ele": "1633", "gnis:feature_id": "177386", "name": "Bingham Hill", "natural": "peak"}}, {"name": "Horsetooth Mountain", "latitude": 40.5397049, "longitude": -105.1969277, "elevation": 2197.0, "source": "osm", "_tags": {"ele": "2197", "gnis:feature_id": "177409", "name": "Horsetooth Mountain", "natural": "peak", "wikidata": "Q8518702", "wikipedia": "en:Horsetooth Mountain"}}, {"name": "Mount Dickinson", "latitude": 40.4874832, "longitude": -105.5658328, "elevation": 3601.0, "source": "osm", "_tags": {"ele": "3601", "gnis:feature_id": "177538", "name": "Mount Dickinson", "natural": "peak"}}, {"name": "Mount Dunraven", "latitude": 40.48915, "longitude": -105.6080568, "elevation": 3829.0, "source": "osm", "_tags": {"ele": "3829", "gnis:feature_id": "177539", "name": "Mount Dunraven", "natural": "peak"}}, {"name": "Mount Tileston", "latitude": 40.4474835, "longitude": -105.6202798, "elevation": 3422.0, "source": "osm", "_tags": {"ele": "3422", "gnis:feature_id": "177544", "name": "Mount Tileston", "natural": "peak"}}, {"name": "Dark Mountain", "latitude": 40.4326566, "longitude": -105.5736509, "elevation": 3308.0, "source": "osm", "_tags": {"ele": "3308", "gnis:feature_id": "177547", "name": "Dark Mountain", "natural": "peak"}}, {"name": "Castle Mountain", "latitude": 40.3897059, "longitude": -105.5505551, "elevation": 2676.0, "source": "osm", "_tags": {"ele": "2676", "gnis:feature_id": "177561", "name": "Castle Mountain", "natural": "peak", "wikidata": "Q49018447"}}, {"name": "MacGregor Mountain", "latitude": 40.4135947, "longitude": -105.5769449, "elevation": 3195.0, "source": "osm", "_tags": {"ele": "3195", "gnis:feature_id": "177573", "name": "MacGregor Mountain", "natural": "peak"}}, {"name": "Oldman Mountain", "latitude": 40.3788727, "longitude": -105.5433327, "elevation": 2531.0, "source": "osm", "_tags": {"ele": "2531", "gnis:feature_id": "177575", "name": "Oldman Mountain", "natural": "peak", "wikidata": "Q49058552"}}, {"name": "Mount Chiquita", "latitude": 40.4437525, "longitude": -105.6887988, "elevation": 3978.0, "source": "osm", "_tags": {"ele": "3978", "gnis:feature_id": "177599", "name": "Mount Chiquita", "natural": "peak", "wikidata": "Q6920134"}}, {"name": "Ypsilon Mountain", "latitude": 40.4573698, "longitude": -105.6812123, "elevation": 4098.0, "source": "osm", "_tags": {"ele": "4098", "gnis:feature_id": "177605", "name": "Ypsilon Mountain", "natural": "peak", "wikidata": "Q8537019"}}, {"name": "Fairchild Mountain", "latitude": 40.4683331, "longitude": -105.664267, "elevation": 4116.18, "source": "osm", "_tags": {"ele": "4116.18", "gnis:feature_id": "177606", "name": "Fairchild Mountain", "natural": "peak", "source:ele": "USGS 3D Elevation Program Data", "source:geometry": "USGS 3D Elevation Program Data (countours)", "wikidata": "Q5430083"}}, {"name": "Hagues Peak", "latitude": 40.4845827, "longitude": -105.6463815, "elevation": 4133.0, "source": "osm", "_tags": {"ele": "4133", "gnis:feature_id": "177613", "name": "Hagues Peak", "natural": "peak", "wikidata": "Q5638837"}}, {"name": "Rowe Mountain", "latitude": 40.49665, "longitude": -105.6483363, "elevation": 4018.0, "source": "osm", "_tags": {"ele": "4018", "gnis:feature_id": "177615", "name": "Rowe Mountain", "natural": "peak"}}, {"name": "Storm Mountain", "latitude": 40.4855387, "longitude": -105.3858251, "elevation": 3015.0, "source": "osm", "_tags": {"ele": "3015", "gnis:feature_id": "177623", "name": "Storm Mountain", "natural": "peak"}}, {"name": "Triangle Mountain", "latitude": 40.4647054, "longitude": -105.4516614, "elevation": 2560.0, "source": "osm", "_tags": {"ele": "2560", "gnis:feature_id": "177626", "name": "Triangle Mountain", "natural": "peak"}}, {"name": "Crosier Mountain", "latitude": 40.4323017, "longitude": -105.424983, "elevation": 2809.0, "source": "osm", "_tags": {"ele": "2809", "gnis:feature_id": "177633", "name": "Crosier Mountain", "natural": "peak"}}, {"name": "Spruce Mountain", "latitude": 40.4883164, "longitude": -105.3002657, "elevation": 2371.0, "source": "osm", "_tags": {"ele": "2371", "gnis:feature_id": "177654", "name": "Spruce Mountain", "natural": "peak"}}, {"name": "Palisade Mountain", "latitude": 40.4402613, "longitude": -105.3111001, "elevation": 2507.0, "source": "osm", "_tags": {"ele": "2507", "gnis:feature_id": "177657", "name": "Palisade Mountain", "natural": "peak"}}, {"name": "Sheep Mountain", "latitude": 40.4122847, "longitude": -105.3109487, "elevation": 2575.6, "source": "osm", "_tags": {"alt_name": "Round Mountain", "ele": "2575.6", "gnis:feature_id": "177669", "name": "Sheep Mountain", "natural": "peak"}}, {"name": "Pole Hill", "latitude": 40.3766507, "longitude": -105.3683253, "elevation": 2647.0, "source": "osm", "_tags": {"ele": "2647", "gnis:feature_id": "177675", "name": "Pole Hill", "natural": "peak"}}, {"name": "Milner Mountain", "latitude": 40.4974829, "longitude": -105.1824831, "elevation": 2101.0, "source": "osm", "_tags": {"ele": "2101", "gnis:feature_id": "177685", "name": "Milner Mountain", "natural": "peak"}}, {"name": "Mariana Butte", "latitude": 40.3980392, "longitude": -105.1402603, "elevation": 1602.0, "source": "osm", "_tags": {"ele": "1602", "gnis:feature_id": "177702", "name": "Mariana Butte", "natural": "peak"}}, {"name": "Cherry Hill", "latitude": 40.3785947, "longitude": -105.0933144, "elevation": 1540.0, "source": "osm", "_tags": {"ele": "1540", "gnis:feature_id": "177723", "name": "Cherry Hill", "natural": "peak"}}, {"name": "Joe Mills Mountain", "latitude": 40.3260913, "longitude": -105.6798196, "elevation": 3298.0, "source": "osm", "_tags": {"ele": "3298", "gnis:feature_id": "177826", "name": "Joe Mills Mountain", "natural": "peak"}}, {"name": "Glacier Knobs (East)", "latitude": 40.2989543, "longitude": -105.6429539, "elevation": 2985.0, "source": "osm", "_tags": {"ele": "2985", "gnis:feature_id": "177845", "name": "Glacier Knobs (East)", "natural": "peak"}}, {"name": "Half Mountain", "latitude": 40.2899845, "longitude": -105.6327814, "elevation": 3486.0, "source": "osm", "_tags": {"ele": "3486", "gnis:feature_id": "177853", "name": "Half Mountain", "natural": "peak"}}, {"name": "Hallett Peak", "latitude": 40.3030289, "longitude": -105.6859636, "elevation": 3877.0, "source": "osm", "_tags": {"ele": "3877", "gnis:feature_id": "177875", "name": "Hallett Peak", "natural": "peak", "wikidata": "Q5642925", "wikipedia": "en:Hallett Peak"}}, {"name": "Otis Peak", "latitude": 40.2922068, "longitude": -105.6805611, "elevation": 3805.0, "source": "osm", "_tags": {"ele": "3805", "gnis:feature_id": "177876", "name": "Otis Peak", "natural": "peak"}}, {"name": "Eagle Cliff Mountain", "latitude": 40.3583173, "longitude": -105.5755564, "elevation": 2700.0, "source": "osm", "_tags": {"ele": "2700", "gnis:feature_id": "177917", "name": "Eagle Cliff Mountain", "natural": "peak"}}, {"name": "Twin Sisters Mountain", "latitude": 40.2888867, "longitude": -105.5185818, "elevation": 3325.0, "source": "osm", "_tags": {"ele": "3325", "gnis:feature_id": "177951", "name": "Twin Sisters Mountain", "natural": "peak"}}, {"name": "Twin Sisters Peaks", "latitude": 40.2888732, "longitude": -105.5183324, "elevation": 3454.0, "source": "osm", "_tags": {"ele": "3454", "gnis:feature_id": "177952", "name": "Twin Sisters Peaks", "natural": "peak", "wikidata": "Q7858300"}}, {"name": "Kruger Rock", "latitude": 40.3384026, "longitude": -105.4856077, "elevation": 2842.0, "source": "osm", "_tags": {"ele": "2842", "gnis:feature_id": "177968", "name": "Kruger Rock", "natural": "peak", "wikimedia_commons": "File:Kruger_Rock.jpg"}}, {"name": "Panorama Peak", "latitude": 40.3519285, "longitude": -105.4088827, "elevation": 2829.0, "source": "osm", "_tags": {"ele": "2829", "ele:ft": "9284", "gnis:feature_id": "177974", "name": "Panorama Peak", "natural": "peak"}}, {"name": "Mount Pisgah", "latitude": 40.3647061, "longitude": -105.4583292, "elevation": 2629.0, "source": "osm", "_tags": {"ele": "2629", "gnis:feature_id": "177976", "name": "Mount Pisgah", "natural": "peak"}}, {"name": "The Notch", "latitude": 40.3683172, "longitude": -105.4338837, "elevation": 2578.0, "source": "osm", "_tags": {"ele": "2578", "gnis:feature_id": "177977", "name": "The Notch", "natural": "peak"}}, {"name": "Lion Head", "latitude": 40.3094868, "longitude": -105.4680619, "elevation": 2968.0, "source": "osm", "_tags": {"ele": "2968", "gnis:feature_id": "177980", "name": "Lion Head", "natural": "peak"}}, {"name": "Lowdermilk Hill", "latitude": 40.3089363, "longitude": -105.3931736, "elevation": 2226.0, "source": "osm", "_tags": {"ele": "2226", "gnis:feature_id": "177981", "name": "Lowdermilk Hill", "natural": "peak"}}, {"name": "Kenny Mountain", "latitude": 40.2916512, "longitude": -105.417217, "elevation": 2830.0, "source": "osm", "_tags": {"ele": "2830", "gnis:feature_id": "177982", "name": "Kenny Mountain", "natural": "peak"}}, {"name": "Pierson Mountain", "latitude": 40.3024842, "longitude": -105.4747194, "elevation": 2987.0, "source": "osm", "_tags": {"ele": "2987", "gnis:feature_id": "177991", "name": "Pierson Mountain", "natural": "peak"}}, {"name": "Moose Mountain", "latitude": 40.2949846, "longitude": -105.3633258, "elevation": 2456.0, "source": "osm", "_tags": {"ele": "2456", "gnis:feature_id": "178006", "name": "Moose Mountain", "natural": "peak"}}, {"name": "Round Mountain", "latitude": 40.300818, "longitude": -105.335269, "elevation": 2270.0, "source": "osm", "_tags": {"ele": "2270", "gnis:feature_id": "178007", "name": "Round Mountain", "natural": "peak"}}, {"name": "Gray Mountain", "latitude": 40.3035959, "longitude": -105.2852668, "elevation": 1992.0, "source": "osm", "_tags": {"ele": "1992", "gnis:feature_id": "178010", "name": "Gray Mountain", "natural": "peak"}}, {"name": "Blue Mountain", "latitude": 40.3352623, "longitude": -105.2810997, "elevation": 2406.0, "source": "osm", "_tags": {"ele": "2406", "ele:ft": "7888", "gnis:feature_id": "178013", "name": "Blue Mountain", "natural": "peak"}}, {"name": "Bald Mountain", "latitude": 40.3558177, "longitude": -105.2638765, "elevation": 2162.0, "source": "osm", "_tags": {"ele": "2162", "gnis:feature_id": "178021", "name": "Bald Mountain", "natural": "peak"}}, {"name": "Flatiron Mountain", "latitude": 40.366888, "longitude": -105.226096, "elevation": 1885.0, "source": "osm", "_tags": {"ele": "1885", "ele:ft": "6129", "gnis:feature_id": "178050", "name": "Flatiron Mountain", "natural": "peak"}}, {"name": "Twin Mounds", "latitude": 40.3452613, "longitude": -105.0033113, "elevation": 1571.0, "source": "osm", "_tags": {"ele": "1571", "gnis:feature_id": "178072", "name": "Twin Mounds", "natural": "peak"}}, {"name": "Antelope Hill", "latitude": 40.4922034, "longitude": -104.8444151, "elevation": 1507.0, "source": "osm", "_tags": {"ele": "1507", "gnis:feature_id": "180594", "name": "Antelope Hill", "natural": "peak"}}, {"name": "Wildcat Mound", "latitude": 40.2899828, "longitude": -104.8599727, "elevation": 1502.0, "source": "osm", "_tags": {"ele": "1502", "gnis:feature_id": "180710", "name": "Wildcat Mound", "natural": "peak"}}, {"name": "Green Mountain", "latitude": 40.9599819, "longitude": -105.6316619, "elevation": 2818.0, "source": "osm", "_tags": {"ele": "2818", "gnis:feature_id": "201895", "name": "Green Mountain", "natural": "peak"}}, {"name": "Steamboat Rock", "latitude": 40.8755144, "longitude": -105.2300555, "elevation": 2075.0, "source": "osm", "_tags": {"ele": "2075", "gnis:feature_id": "201898", "name": "Steamboat Rock", "natural": "peak"}}, {"name": "Simpson Mesa", "latitude": 40.9750043, "longitude": -104.7591017, "elevation": 1895.0, "source": "osm", "_tags": {"ele": "1895", "gnis:feature_id": "201970", "name": "Simpson Mesa", "natural": "peak"}}, {"name": "Gilman Mountain", "latitude": 40.8735944, "longitude": -105.1174767, "elevation": 1904.0, "source": "osm", "_tags": {"ele": "1904", "gnis:feature_id": "201972", "name": "Gilman Mountain", "natural": "peak"}}, {"name": "White Rock", "latitude": 40.6233152, "longitude": -105.4991612, "elevation": 2673.0, "source": "osm", "_tags": {"ele": "2673", "ele:ft": "8770", "gnis:feature_id": "202450", "name": "White Rock", "natural": "peak"}}, {"name": "Moody Hill", "latitude": 40.5613714, "longitude": -105.3686011, "elevation": 2405.0, "source": "osm", "_tags": {"ele": "2405", "ele:ft": "7891", "gnis:feature_id": "202455", "name": "Moody Hill", "natural": "peak"}}, {"name": "Mummy Mountain", "latitude": 40.4749834, "longitude": -105.6236132, "elevation": 4079.0, "source": "osm", "_tags": {"ele": "4079", "gnis:feature_id": "202467", "name": "Mummy Mountain", "natural": "peak", "wikidata": "Q6935458"}}, {"name": "Deer Mountain", "latitude": 40.3792597, "longitude": -105.5844095, "elevation": 3050.0, "source": "osm", "_tags": {"ele": "3050", "gnis:feature_id": "202475", "name": "Deer Mountain", "natural": "peak"}}, {"name": "Sugarloaf Mountain", "latitude": 40.3752617, "longitude": -105.3836038, "elevation": 2722.0, "source": "osm", "_tags": {"ele": "2722", "gnis:feature_id": "202483", "name": "Sugarloaf Mountain", "natural": "peak"}}, {"name": "Alexander Mountain", "latitude": 40.4274837, "longitude": -105.2513753, "elevation": 2156.0, "source": "osm", "_tags": {"ele": "2156", "gnis:feature_id": "202488", "name": "Alexander Mountain", "natural": "peak"}}, {"name": "Rowe Peak", "latitude": 40.4902612, "longitude": -105.6455584, "elevation": 4084.0, "source": "osm", "_tags": {"ele": "4084", "gnis:feature_id": "204675", "name": "Rowe Peak", "natural": "peak"}}, {"name": "Signal Mountain", "latitude": 40.5255383, "longitude": -105.5116633, "elevation": 3430.0, "source": "osm", "_tags": {"ele": "3430", "gnis:feature_id": "204926", "name": "Signal Mountain", "natural": "peak"}}, {"name": "Bighorn Mountain", "latitude": 40.4294108, "longitude": -105.6197306, "elevation": 3488.0, "source": "osm", "_tags": {"ele": "3488", "gnis:feature_id": "204944", "name": "Bighorn Mountain", "natural": "peak"}}, {"name": "Mount Olympus", "latitude": 40.374888, "longitude": -105.4620321, "elevation": 2620.0, "source": "osm", "_tags": {"ele": "2620", "gnis:feature_id": "204946", "name": "Mount Olympus", "natural": "peak"}}, {"name": "Stone Mountain", "latitude": 40.3995985, "longitude": -105.2874136, "elevation": 2301.0, "source": "osm", "_tags": {"ele": "2301", "gnis:feature_id": "204947", "name": "Stone Mountain", "natural": "peak"}}, {"name": "Beaver Mountain", "latitude": 40.3683174, "longitude": -105.6450036, "elevation": 3200.0, "source": "osm", "_tags": {"ele": "3200", "gnis:feature_id": "204955", "name": "Beaver Mountain", "natural": "peak"}}, {"name": "Mount Wuh", "latitude": 40.3338732, "longitude": -105.66056, "elevation": 3269.0, "source": "osm", "_tags": {"ele": "3269", "gnis:feature_id": "204960", "name": "Mount Wuh", "natural": "peak"}}, {"name": "Steep Mountain", "latitude": 40.3430398, "longitude": -105.6241696, "elevation": 2908.0, "source": "osm", "_tags": {"ele": "2908", "gnis:feature_id": "204972", "name": "Steep Mountain", "natural": "peak"}}, {"name": "Rams Horn Mountain", "latitude": 40.3344285, "longitude": -105.5461109, "elevation": 2903.0, "source": "osm", "_tags": {"ele": "2903", "gnis:feature_id": "204974", "name": "Rams Horn Mountain", "natural": "peak"}}, {"name": "Gianttrack Mountain", "latitude": 40.3477845, "longitude": -105.5513922, "elevation": 2657.0, "source": "osm", "_tags": {"ele": "2657", "gnis:feature_id": "204975", "name": "Gianttrack Mountain", "natural": "peak"}}, {"name": "Prospect Mountain", "latitude": 40.3594282, "longitude": -105.5219431, "elevation": 2699.0, "source": "osm", "_tags": {"ele": "2699", "gnis:feature_id": "204976", "name": "Prospect Mountain", "natural": "peak", "wikidata": "Q49064248"}}, {"name": "Emerald Mountain", "latitude": 40.3305398, "longitude": -105.5872238, "elevation": 2807.0, "source": "osm", "_tags": {"ele": "2807", "gnis:feature_id": "204977", "name": "Emerald Mountain", "natural": "peak"}}, {"name": "Estes Cone", "latitude": 40.2952549, "longitude": -105.5671852, "elevation": 3356.0, "source": "osm", "_tags": {"ele": "3356", "gnis:feature_id": "204983", "name": "Estes Cone", "natural": "peak"}}, {"name": "Lily Mountain", "latitude": 40.3192287, "longitude": -105.5412759, "elevation": 2967.0, "source": "osm", "_tags": {"ele": "2967", "gnis:feature_id": "204986", "name": "Lily Mountain", "natural": "peak"}}, {"name": "Hill Mine", "latitude": 40.8353898, "longitude": -105.6771272, "elevation": 2708.0, "source": "osm", "_tags": {"addr:state": "CO", "ele": "2708", "gnis:feature_id": "1735397", "landuse": "quarry", "name": "Hill Mine", "natural": "peak"}}, {"name": "Glacier Knobs (West)", "latitude": 40.2982486, "longitude": -105.6506213, "elevation": null, "source": "osm", "_tags": {"name": "Glacier Knobs (West)", "natural": "peak"}}, {"name": "Sherman Mountain", "latitude": 41.1923582, "longitude": -105.3691809, "elevation": 2577.0, "source": "osm", "_tags": {"ele": "2577", "gnis:feature_id": "1600075", "name": "Sherman Mountain", "natural": "peak"}}, {"name": "", "latitude": 40.6983122, "longitude": -105.242395, "elevation": 1775.0, "source": "osm", "_tags": {"ele": "1775", "natural": "peak"}}, {"name": "Gibraltar Peak", "latitude": 40.4929721, "longitude": -105.6364714, "elevation": 4084.0, "source": "osm", "_tags": {"ele": "4084", "name": "Gibraltar Peak", "natural": "peak", "source": "Foster guidebook"}}, {"name": "Crown Benchmark", "latitude": 40.6153894, "longitude": -105.6629248, "elevation": 3547.0, "source": "osm", "_tags": {"alt_name": "Crown Peak", "ele": "3547", "name": "Crown Benchmark", "natural": "peak"}}, {"name": "", "latitude": 40.3544842, "longitude": -105.422298, "elevation": 2746.0, "source": "osm", "_tags": {"ele": "2746", "natural": "peak"}}, {"name": "Namaqua Hill", "latitude": 40.4148219, "longitude": -105.1415678, "elevation": 1651.0, "source": "osm", "_tags": {"ele": "1651", "name": "Namaqua Hill", "natural": "peak"}}, {"name": "", "latitude": 40.8360217, "longitude": -105.6651731, "elevation": 2751.0, "source": "osm", "_tags": {"ele": "2751", "natural": "peak"}}, {"name": "", "latitude": 40.3682722, "longitude": -105.301517, "elevation": 2176.0, "source": "osm", "_tags": {"ele": "2176", "ele:ft": "7140", "natural": "peak"}}, {"name": "", "latitude": 40.3688607, "longitude": -105.2752743, "elevation": 2236.0, "source": "osm", "_tags": {"ele": "2236", "natural": "peak"}}, {"name": "", "latitude": 40.362272, "longitude": -105.3027616, "elevation": 2210.0, "source": "osm", "_tags": {"ele": "2210", "ele:ft": "7251", "natural": "peak"}}, {"name": "", "latitude": 40.3490599, "longitude": -105.2695451, "elevation": 2183.0, "source": "osm", "_tags": {"ele": "2183", "ele:ft": "7161", "natural": "peak"}}, {"name": "Knapp's Knob", "latitude": 40.4500125, "longitude": -105.4446842, "elevation": 2374.0, "source": "osm", "_tags": {"ele": "2374", "name": "Knapp's Knob", "natural": "peak"}}, {"name": "", "latitude": 40.6462695, "longitude": -105.5740661, "elevation": 2782.0, "source": "osm", "_tags": {"ele": "2782", "natural": "peak"}}, {"name": "Bennett", "latitude": 40.6437133, "longitude": -105.5630369, "elevation": 2761.0, "source": "osm", "_tags": {"ele": "2761", "name": "Bennett", "natural": "peak"}}, {"name": "", "latitude": 40.6381774, "longitude": -105.5968542, "elevation": 2969.0, "source": "osm", "_tags": {"ele": "2969", "natural": "peak"}}, {"name": "", "latitude": 40.6111423, "longitude": -105.6330962, "elevation": 3315.0, "source": "osm", "_tags": {"ele": "3315", "natural": "peak"}}, {"name": "", "latitude": 40.6107188, "longitude": -105.6472153, "elevation": 3419.0, "source": "osm", "_tags": {"ele": "3419", "ele:ft": "11217", "natural": "peak"}}, {"name": "", "latitude": 40.6463099, "longitude": -105.6357279, "elevation": null, "source": "osm", "_tags": {"ele:ft": "10209", "natural": "peak"}}, {"name": "", "latitude": 40.5443417, "longitude": -105.6294112, "elevation": 3232.0, "source": "osm", "_tags": {"ele": "3232", "natural": "peak"}}, {"name": "", "latitude": 40.5174074, "longitude": -105.6638937, "elevation": 3455.0, "source": "osm", "_tags": {"ele": "3455", "natural": "peak"}}, {"name": "", "latitude": 40.5512469, "longitude": -105.5797152, "elevation": 3055.0, "source": "osm", "_tags": {"ele": "3055", "natural": "peak"}}, {"name": "", "latitude": 40.5287475, "longitude": -105.5721836, "elevation": 3423.0, "source": "osm", "_tags": {"ele": "3423", "natural": "peak"}}, {"name": "", "latitude": 40.5311776, "longitude": -105.5821185, "elevation": 3463.0, "source": "osm", "_tags": {"ele": "3463", "natural": "peak"}}, {"name": "", "latitude": 40.515301, "longitude": -105.5901681, "elevation": 3603.0, "source": "osm", "_tags": {"ele": "3603", "natural": "peak"}}, {"name": "", "latitude": 40.5365703, "longitude": -105.491173, "elevation": 3141.0, "source": "osm", "_tags": {"ele": "3141", "natural": "peak"}}, {"name": "", "latitude": 40.5412452, "longitude": -105.4990636, "elevation": 3226.0, "source": "osm", "_tags": {"ele": "3226", "natural": "peak"}}, {"name": "", "latitude": 40.5263809, "longitude": -105.4732505, "elevation": 3225.0, "source": "osm", "_tags": {"ele": "3225", "natural": "peak"}}, {"name": "", "latitude": 40.5383682, "longitude": -105.5072449, "elevation": 3229.0, "source": "osm", "_tags": {"ele": "3229", "natural": "peak"}}, {"name": "", "latitude": 40.5620981, "longitude": -105.5282438, "elevation": 3075.0, "source": "osm", "_tags": {"ele": "3075", "natural": "peak"}}, {"name": "", "latitude": 40.5902852, "longitude": -105.4639913, "elevation": 2787.0, "source": "osm", "_tags": {"ele": "2787", "natural": "peak"}}, {"name": "", "latitude": 40.6966889, "longitude": -105.4817319, "elevation": 2315.0, "source": "osm", "_tags": {"ele": "2315", "natural": "peak"}}, {"name": "", "latitude": 40.7059126, "longitude": -105.4735995, "elevation": 2391.0, "source": "osm", "_tags": {"ele": "2391", "natural": "peak"}}, {"name": "", "latitude": 40.7116218, "longitude": -105.4905081, "elevation": 2508.0, "source": "osm", "_tags": {"ele": "2508", "natural": "peak"}}, {"name": "", "latitude": 40.7164849, "longitude": -105.5445815, "elevation": 2595.0, "source": "osm", "_tags": {"ele": "2595", "natural": "peak"}}, {"name": "", "latitude": 40.7205019, "longitude": -105.5789566, "elevation": 2654.0, "source": "osm", "_tags": {"ele": "2654", "natural": "peak"}}, {"name": "Thunder Peak", "latitude": 40.3134195, "longitude": -105.5674124, "elevation": 3089.0, "source": "osm", "_tags": {"ele": "3089", "name": "Thunder Peak", "natural": "peak"}}, {"name": "Lightning Peak", "latitude": 40.3043217, "longitude": -105.5710709, "elevation": 3221.0, "source": "osm", "_tags": {"ele": "3221", "name": "Lightning Peak", "natural": "peak"}}, {"name": "", "latitude": 40.7034745, "longitude": -105.2629245, "elevation": 2046.0, "source": "osm", "_tags": {"description": "Ranked Peak, Class 2", "ele": "2046", "natural": "peak"}}, {"name": "Arthurs Rock", "latitude": 40.5683192, "longitude": -105.1880331, "elevation": 2066.5, "source": "osm", "_tags": {"description": "True Summit 6780'", "ele": "2066.5", "name": "Arthurs Rock", "natural": "peak"}}, {"name": "", "latitude": 40.7669654, "longitude": -105.531021, "elevation": 2658.5, "source": "osm", "_tags": {"description": "Ranked Peak 8722", "ele": "2658.5", "natural": "peak"}}, {"name": "Comanche Spire", "latitude": 40.5442952, "longitude": -105.6741045, "elevation": 3743.0, "source": "osm", "_tags": {"description": "A spire like summit on a ridgeline extending out from the peneplane SE of Comanche Peak.", "ele": "3743", "name": "Comanche Spire", "natural": "peak"}}, {"name": "", "latitude": 40.5616127, "longitude": -105.151802, "elevation": 1760.0, "source": "osm", "_tags": {"ele": "1760", "natural": "peak"}}, {"name": "BM AS-P41", "latitude": 40.9718114, "longitude": -105.1477063, "elevation": 2179.0, "source": "osm", "_tags": {"description": "USDA Forest Service 1938 Benchmark", "ele": "2179", "name": "BM AS-P41", "natural": "peak"}}, {"name": "", "latitude": 40.6694125, "longitude": -105.6895679, "elevation": 3082.0, "source": "osm", "_tags": {"ele": "3082", "natural": "peak"}}, {"name": "", "latitude": 40.6619339, "longitude": -105.602738, "elevation": 2877.0, "source": "osm", "_tags": {"ele": "2877", "natural": "peak"}}, {"name": "", "latitude": 40.6494489, "longitude": -105.6161378, "elevation": 2969.0, "source": "osm", "_tags": {"ele": "2969", "natural": "peak"}}, {"name": "", "latitude": 40.671225, "longitude": -105.6073319, "elevation": 2751.0, "source": "osm", "_tags": {"ele": "2751", "natural": "peak"}}, {"name": "Prospect", "latitude": 40.6776517, "longitude": -105.6156337, "elevation": 2784.0, "source": "osm", "_tags": {"ele": "2784", "name": "Prospect", "natural": "peak"}}, {"name": "", "latitude": 40.6741058, "longitude": -105.5471652, "elevation": 2578.0, "source": "osm", "_tags": {"ele": "2578", "natural": "peak"}}, {"name": "", "latitude": 40.6648446, "longitude": -105.5926583, "elevation": 2760.0, "source": "osm", "_tags": {"ele": "2760", "natural": "peak"}}, {"name": "", "latitude": 40.5883143, "longitude": -105.3971512, "elevation": 2420.0, "source": "osm", "_tags": {"ele": "2420", "natural": "peak"}}, {"name": "", "latitude": 40.5817181, "longitude": -105.3913469, "elevation": 2320.0, "source": "osm", "_tags": {"ele": "2320", "natural": "peak"}}, {"name": "", "latitude": 40.5940552, "longitude": -105.3846796, "elevation": 2496.0, "source": "osm", "_tags": {"ele": "2496", "natural": "peak"}}, {"name": "", "latitude": 40.6128389, "longitude": -105.4007217, "elevation": 2641.0, "source": "osm", "_tags": {"ele": "2641", "natural": "peak"}}, {"name": "", "latitude": 40.601596, "longitude": -105.3920263, "elevation": 2515.0, "source": "osm", "_tags": {"ele": "2515", "natural": "peak"}}, {"name": "", "latitude": 40.6031926, "longitude": -105.3821451, "elevation": 2502.0, "source": "osm", "_tags": {"ele": "2502", "natural": "peak"}}, {"name": "", "latitude": 40.6162031, "longitude": -105.3864096, "elevation": 2326.0, "source": "osm", "_tags": {"ele": "2326", "natural": "peak"}}, {"name": "", "latitude": 40.6050246, "longitude": -105.3685436, "elevation": 2345.0, "source": "osm", "_tags": {"ele": "2345", "natural": "peak"}}, {"name": "", "latitude": 40.6209049, "longitude": -105.4172921, "elevation": 2794.0, "source": "osm", "_tags": {"ele": "2794", "natural": "peak"}}, {"name": "", "latitude": 40.5829736, "longitude": -105.4238638, "elevation": 2470.0, "source": "osm", "_tags": {"ele": "2470", "natural": "peak"}}, {"name": "", "latitude": 40.5997827, "longitude": -105.4121958, "elevation": 2601.0, "source": "osm", "_tags": {"ele": "2601", "natural": "peak"}}, {"name": "", "latitude": 40.5692198, "longitude": -105.3627787, "elevation": 2300.0, "source": "osm", "_tags": {"ele": "2300", "natural": "peak"}}, {"name": "", "latitude": 40.5759789, "longitude": -105.344659, "elevation": 2237.0, "source": "osm", "_tags": {"ele": "2237", "natural": "peak"}}, {"name": "", "latitude": 40.5758614, "longitude": -105.3384624, "elevation": 2159.0, "source": "osm", "_tags": {"ele": "2159", "natural": "peak"}}, {"name": "", "latitude": 40.5635914, "longitude": -105.3481173, "elevation": 2307.0, "source": "osm", "_tags": {"ele": "2307", "natural": "peak"}}, {"name": "", "latitude": 40.5732692, "longitude": -105.3144947, "elevation": 2112.0, "source": "osm", "_tags": {"ele": "2112", "natural": "peak"}}, {"name": "", "latitude": 40.5743334, "longitude": -105.3029318, "elevation": 2280.0, "source": "osm", "_tags": {"ele": "2280", "natural": "peak"}}, {"name": "", "latitude": 40.550654, "longitude": -105.3776468, "elevation": 2557.0, "source": "osm", "_tags": {"ele": "2557", "natural": "peak"}}, {"name": "", "latitude": 40.5467979, "longitude": -105.35589, "elevation": 2408.0, "source": "osm", "_tags": {"ele": "2408", "natural": "peak"}}, {"name": "", "latitude": 40.5284636, "longitude": -105.3174249, "elevation": 2181.0, "source": "osm", "_tags": {"ele": "2181", "natural": "peak"}}, {"name": "", "latitude": 40.5236684, "longitude": -105.3208474, "elevation": 2301.0, "source": "osm", "_tags": {"ele": "2301", "natural": "peak"}}, {"name": "", "latitude": 40.5134423, "longitude": -105.306403, "elevation": 2213.0, "source": "osm", "_tags": {"ele": "2213", "natural": "peak"}}, {"name": "", "latitude": 40.5315368, "longitude": -105.3102671, "elevation": 2151.0, "source": "osm", "_tags": {"ele": "2151", "natural": "peak"}}, {"name": "", "latitude": 40.5289327, "longitude": -105.3004077, "elevation": 2117.0, "source": "osm", "_tags": {"ele": "2117", "natural": "peak"}}, {"name": "", "latitude": 40.5079996, "longitude": -105.3270876, "elevation": 2418.0, "source": "osm", "_tags": {"ele": "2418", "natural": "peak"}}, {"name": "", "latitude": 40.5172792, "longitude": -105.3220517, "elevation": 2306.0, "source": "osm", "_tags": {"ele": "2306", "natural": "peak"}}, {"name": "", "latitude": 40.5563946, "longitude": -105.4311638, "elevation": 2647.0, "source": "osm", "_tags": {"ele": "2647", "natural": "peak"}}, {"name": "", "latitude": 40.5485371, "longitude": -105.4380767, "elevation": 2818.0, "source": "osm", "_tags": {"ele": "2818", "natural": "peak"}}, {"name": "", "latitude": 40.5013828, "longitude": -105.3872943, "elevation": 2598.0, "source": "osm", "_tags": {"ele": "2598", "natural": "peak"}}, {"name": "", "latitude": 40.5217015, "longitude": -105.4201938, "elevation": 2746.0, "source": "osm", "_tags": {"ele": "2746", "natural": "peak"}}, {"name": "", "latitude": 40.5465533, "longitude": -105.4633871, "elevation": 2930.0, "source": "osm", "_tags": {"ele": "2930", "natural": "peak"}}, {"name": "", "latitude": 40.7252703, "longitude": -105.6907549, "elevation": 3086.0, "source": "osm", "_tags": {"ele": "3086", "natural": "peak"}}, {"name": "", "latitude": 40.7454351, "longitude": -105.6907599, "elevation": 3284.0, "source": "osm", "_tags": {"ele": "3284", "natural": "peak"}}, {"name": "", "latitude": 40.4884419, "longitude": -105.5933047, "elevation": 3750.0, "source": "osm", "_tags": {"ele": "3750", "natural": "peak"}}, {"name": "", "latitude": 40.489883, "longitude": -105.5787609, "elevation": 3651.0, "source": "osm", "_tags": {"ele": "3651", "natural": "peak"}}, {"name": "", "latitude": 40.4840687, "longitude": -105.6338672, "elevation": 4054.0, "source": "osm", "_tags": {"ele": "4054", "natural": "peak"}}, {"name": "", "latitude": 40.51397, "longitude": -105.4464132, "elevation": 3267.0, "source": "osm", "_tags": {"ele": "3267", "natural": "peak"}}, {"name": "", "latitude": 40.5109263, "longitude": -105.4221366, "elevation": 3055.0, "source": "osm", "_tags": {"ele": "3055", "natural": "peak"}}, {"name": "", "latitude": 40.5062239, "longitude": -105.4185794, "elevation": 3010.0, "source": "osm", "_tags": {"ele": "3010", "natural": "peak"}}, {"name": "", "latitude": 40.5019329, "longitude": -105.4187725, "elevation": 3027.0, "source": "osm", "_tags": {"ele": "3027", "natural": "peak"}}, {"name": "", "latitude": 40.4995833, "longitude": -105.4355095, "elevation": 2867.0, "source": "osm", "_tags": {"ele": "2867", "natural": "peak"}}, {"name": "", "latitude": 40.5049513, "longitude": -105.4529761, "elevation": 2886.0, "source": "osm", "_tags": {"ele": "2886", "natural": "peak"}}, {"name": "", "latitude": 40.5059628, "longitude": -105.4600356, "elevation": 2787.0, "source": "osm", "_tags": {"ele": "2787", "natural": "peak"}}, {"name": "", "latitude": 40.4980659, "longitude": -105.4111765, "elevation": 2931.0, "source": "osm", "_tags": {"ele": "2931", "natural": "peak"}}, {"name": "", "latitude": 40.4851488, "longitude": -105.3726787, "elevation": 2880.0, "source": "osm", "_tags": {"ele": "2880", "natural": "peak"}}, {"name": "", "latitude": 40.4881354, "longitude": -105.3618426, "elevation": 2819.0, "source": "osm", "_tags": {"ele": "2819", "natural": "peak"}}, {"name": "", "latitude": 40.4915787, "longitude": -105.3524441, "elevation": 2690.0, "source": "osm", "_tags": {"ele": "2690", "natural": "peak"}}, {"name": "", "latitude": 40.4926883, "longitude": -105.3447408, "elevation": 2508.0, "source": "osm", "_tags": {"ele": "2508", "natural": "peak"}}, {"name": "", "latitude": 40.4896001, "longitude": -105.3182365, "elevation": 2295.0, "source": "osm", "_tags": {"ele": "2295", "natural": "peak"}}, {"name": "", "latitude": 40.4852428, "longitude": -105.3131296, "elevation": 2188.0, "source": "osm", "_tags": {"ele": "2188", "natural": "peak"}}, {"name": "", "latitude": 40.480265, "longitude": -105.3190519, "elevation": 2280.0, "source": "osm", "_tags": {"ele": "2280", "natural": "peak"}}, {"name": "", "latitude": 40.4742421, "longitude": -105.3289439, "elevation": 2461.0, "source": "osm", "_tags": {"ele": "2461", "natural": "peak"}}, {"name": "", "latitude": 40.4605351, "longitude": -105.2950072, "elevation": 2081.0, "source": "osm", "_tags": {"ele": "2081", "natural": "peak"}}, {"name": "", "latitude": 40.4523309, "longitude": -105.3023676, "elevation": 2183.0, "source": "osm", "_tags": {"ele": "2183", "natural": "peak"}}, {"name": "", "latitude": 40.4502379, "longitude": -105.2734734, "elevation": 1917.0, "source": "osm", "_tags": {"ele": "1917", "natural": "peak"}}, {"name": "", "latitude": 40.4621664, "longitude": -105.2619388, "elevation": 1992.0, "source": "osm", "_tags": {"ele": "1992", "natural": "peak"}}, {"name": "", "latitude": 40.4584669, "longitude": -105.2512872, "elevation": 2091.0, "source": "osm", "_tags": {"ele": "2091", "natural": "peak"}}, {"name": "", "latitude": 40.4721711, "longitude": -105.2624413, "elevation": 2152.0, "source": "osm", "_tags": {"ele": "2152", "natural": "peak"}}, {"name": "Hazels Cone", "latitude": 40.40668, "longitude": -105.61208, "elevation": 2776.0, "source": "osm", "_tags": {"ele": "2776", "name": "Hazels Cone", "natural": "peak"}}, {"name": "Emma's Tiara", "latitude": 40.8951528, "longitude": -105.2629601, "elevation": 2013.0, "source": "osm", "_tags": {"ele": "2013", "name": "Emma's Tiara", "natural": "peak"}}, {"name": "", "latitude": 41.1576099, "longitude": -105.1948033, "elevation": 2203.0, "source": "osm", "_tags": {"ele": "2203", "natural": "peak"}}, {"name": "", "latitude": 41.1710498, "longitude": -105.246818, "elevation": 2304.0, "source": "osm", "_tags": {"ele": "2304", "natural": "peak"}}, {"name": "", "latitude": 41.1770178, "longitude": -105.2696972, "elevation": 2322.0, "source": "osm", "_tags": {"ele": "2322", "natural": "peak"}}, {"name": "", "latitude": 41.172387, "longitude": -105.2175472, "elevation": 2269.0, "source": "osm", "_tags": {"ele": "2269", "natural": "peak"}}, {"name": "", "latitude": 41.1730457, "longitude": -105.2077598, "elevation": 2287.0, "source": "osm", "_tags": {"ele": "2287", "natural": "peak"}}, {"name": "", "latitude": 41.1752591, "longitude": -105.2504667, "elevation": 2267.0, "source": "osm", "_tags": {"ele": "2267", "natural": "peak"}}, {"name": "East Gemstone", "latitude": 40.4102449, "longitude": -105.5030034, "elevation": null, "source": "osm", "_tags": {"name": "East Gemstone", "natural": "peak"}}, {"name": "West Gemstone", "latitude": 40.4129676, "longitude": -105.5058524, "elevation": null, "source": "osm", "_tags": {"alt_name": "Gem Peak", "name": "West Gemstone", "natural": "peak"}}, {"name": "Middle Gemstone", "latitude": 40.4119013, "longitude": -105.5046716, "elevation": null, "source": "osm", "_tags": {"name": "Middle Gemstone", "natural": "peak"}}, {"name": "", "latitude": 40.4165077, "longitude": -105.55516, "elevation": 3056.23, "source": "osm", "_tags": {"ele": "3056.23", "natural": "peak"}}, {"name": "Double Dome", "latitude": 40.4105879, "longitude": -105.5323184, "elevation": null, "source": "osm", "_tags": {"name": "Double Dome", "natural": "peak"}}, {"name": "The Needle", "latitude": 40.4155076, "longitude": -105.5514045, "elevation": 3068.73, "source": "osm", "_tags": {"ele": "3068.73", "name": "The Needle", "natural": "peak"}}, {"name": "Leg Benchmark", "latitude": 41.2329901, "longitude": -105.3955603, "elevation": 2749.0, "source": "osm", "_tags": {"ele": "2749", "man_made": "survey_point", "name": "Leg Benchmark", "natural": "peak", "ref": "MO1231"}}, {"name": "Eagle Rock", "latitude": 41.2826501, "longitude": -105.3623736, "elevation": 2540.0, "source": "osm", "_tags": {"ele": "2540", "name": "Eagle Rock", "natural": "peak"}}, {"name": "Russell Benchmark", "latitude": 41.2365294, "longitude": -105.3184994, "elevation": 2508.0, "source": "osm", "_tags": {"ele": "2508", "man_made": "survey_point", "name": "Russell Benchmark", "natural": "peak", "ref": "MO1220"}}, {"name": "Crow Benchmark", "latitude": 41.233059, "longitude": -105.4423142, "elevation": 2708.0, "source": "osm", "_tags": {"ele": "2708", "man_made": "survey_point", "name": "Crow Benchmark", "natural": "peak", "ref": "MO1234"}}, {"name": "", "latitude": 41.2305809, "longitude": -105.3218266, "elevation": 2479.0, "source": "osm", "_tags": {"ele": "2479", "natural": "peak"}}, {"name": "", "latitude": 41.1626834, "longitude": -105.1847363, "elevation": 2262.0, "source": "osm", "_tags": {"ele": "2262", "natural": "peak"}}, {"name": "", "latitude": 40.9908641, "longitude": -105.3685521, "elevation": 2215.0, "source": "osm", "_tags": {"ele": "2215", "natural": "peak"}}, {"name": "", "latitude": 40.9069044, "longitude": -105.3857142, "elevation": 2201.0, "source": "osm", "_tags": {"ele": "2201", "natural": "peak"}}, {"name": "", "latitude": 40.9022357, "longitude": -105.5565038, "elevation": 2664.0, "source": "osm", "_tags": {"ele": "2664", "natural": "peak"}}, {"name": "Mushroom Rock", "latitude": 40.744408, "longitude": -105.4959932, "elevation": 2368.0, "source": "osm", "_tags": {"ele": "2368", "name": "Mushroom Rock", "natural": "peak"}}, {"name": "Spy Glass Hill", "latitude": 40.7371326, "longitude": -105.5028208, "elevation": 2354.0, "source": "osm", "_tags": {"ele": "2354", "name": "Spy Glass Hill", "natural": "peak"}}, {"name": "Monster Mountain", "latitude": 40.7306004, "longitude": -105.5175072, "elevation": 2456.0, "source": "osm", "_tags": {"ele": "2456", "name": "Monster Mountain", "natural": "peak"}}, {"name": "Rainbow Rock", "latitude": 40.7302304, "longitude": -105.5084252, "elevation": 2530.0, "source": "osm", "_tags": {"ele": "2530", "name": "Rainbow Rock", "natural": "peak"}}, {"name": "Coral Rock", "latitude": 40.7331959, "longitude": -105.5129233, "elevation": 2452.0, "source": "osm", "_tags": {"ele": "2452", "name": "Coral Rock", "natural": "peak"}}, {"name": "Pancake Rock", "latitude": 40.7429489, "longitude": -105.5125934, "elevation": 2368.0, "source": "osm", "_tags": {"ele": "2368", "name": "Pancake Rock", "natural": "peak"}}, {"name": "Whydontutaka Peak", "latitude": 40.740368, "longitude": -105.5224264, "elevation": 2403.0, "source": "osm", "_tags": {"ele": "2403", "name": "Whydontutaka Peak", "natural": "peak", "note": "this is the actual name"}}, {"name": "", "latitude": 40.7816026, "longitude": -105.4154424, "elevation": 2388.0, "source": "osm", "_tags": {"ele": "2388", "natural": "peak"}}, {"name": "", "latitude": 40.8145624, "longitude": -105.4739079, "elevation": 2487.0, "source": "osm", "_tags": {"ele": "2487", "natural": "peak"}}, {"name": "", "latitude": 40.8362247, "longitude": -105.5473146, "elevation": 2608.0, "source": "osm", "_tags": {"ele": "2608", "natural": "peak"}}, {"name": "", "latitude": 40.697782, "longitude": -105.6375065, "elevation": 2587.0, "source": "osm", "_tags": {"ele": "2587", "natural": "peak"}}, {"name": "Stone Temple", "latitude": 41.183082, "longitude": -105.2655244, "elevation": 2341.0, "source": "osm", "_tags": {"ele": "2341", "name": "Stone Temple", "natural": "peak"}}, {"name": "Firebreak Hill", "latitude": 40.6999323, "longitude": -105.4264464, "elevation": null, "source": "osm", "_tags": {"name": "Firebreak Hill", "natural": "peak"}}, {"name": "", "latitude": 40.4161367, "longitude": -105.5438145, "elevation": 2993.441, "source": "osm", "_tags": {"ele": "2993.441", "natural": "peak"}}, {"name": "", "latitude": 40.4090043, "longitude": -105.5390844, "elevation": 2775.204, "source": "osm", "_tags": {"ele": "2775.204", "natural": "peak"}}, {"name": "", "latitude": 40.4034913, "longitude": -105.5176337, "elevation": 2678.887, "source": "osm", "_tags": {"ele": "2678.887", "natural": "peak"}}]