[{"name": "Braceville Ridge", "latitude": 41.2363247, "longitude": -80.9752939, "elevation": 311.0, "source": "osm", "_tags": {"admin_level": "10", "ele": "311", "gnis:feature_id": "1050747", "name": "Braceville Ridge", "natural": "peak"}}, {"name": "Blackburn Hill", "latitude": 40.8997811, "longitude": -80.8884187, "elevation": 384.0, "source": "osm", "_tags": {"ele": "384", "gnis:feature_id": "1048526", "name": "Blackburn Hill", "natural": "peak", "wikidata": "Q35728075"}}, {"name": "Norton Hill", "latitude": 40.4014561, "longitude": -80.7311905, "elevation": 408.0, "source": "osm", "_tags": {"ele": "408", "gnis:feature_id": "1049028", "name": "Norton Hill", "natural": "peak"}}, {"name": "Tunnel Hill", "latitude": 40.5345082, "longitude": -80.8792528, "elevation": 380.0, "source": "osm", "_tags": {"ele": "380", "gnis:feature_id": "1049253", "name": "Tunnel Hill", "natural": "peak"}}, {"name": "Elephant Knob", "latitude": 40.3128465, "longitude": -81.5087281, "elevation": 376.0, "source": "osm", "_tags": {"ele": "376", "gnis:feature_id": "1056274", "name": "Elephant Knob", "natural": "peak"}}, {"name": "Indian Hill", "latitude": 40.4117328, "longitude": -81.3798344, "elevation": 304.0, "source": "osm", "_tags": {"ele": "304", "gnis:feature_id": "1056351", "name": "Indian Hill", "natural": "peak"}}, {"name": "Weimers Hill", "latitude": 40.6656152, "longitude": -81.6176249, "elevation": 353.0, "source": "osm", "_tags": {"ele": "353", "gnis:feature_id": "1057609", "name": "Weimers Hill", "natural": "peak"}}, {"name": "Knob Hill", "latitude": 40.502009, "longitude": -81.5562315, "elevation": 376.0, "source": "osm", "_tags": {"ele": "376", "gnis:feature_id": "1060562", "name": "Knob Hill", "natural": "peak"}}, {"name": "Ridge Hill", "latitude": 41.236723, "longitude": -80.9762024, "elevation": 317.0, "source": "osm", "_tags": {"ele": "317", "gnis:feature_id": "1063505", "name": "Ridge Hill", "natural": "peak"}}, {"name": "Sponsellers Hill", "latitude": 40.7492257, "longitude": -81.3167784, "elevation": 385.0, "source": "osm", "_tags": {"ele": "385", "gnis:feature_id": "1066343", "name": "Sponsellers Hill", "natural": "peak"}}, {"name": "Sherbondy Hill", "latitude": 41.0675556, "longitude": -81.5537297, "elevation": 348.0, "source": "osm", "_tags": {"ele": "348", "gnis:feature_id": "1066346", "name": "Sherbondy Hill", "natural": "peak"}}, {"name": "Bacon Hill", "latitude": 41.0033907, "longitude": -81.2912169, "elevation": 371.0, "source": "osm", "_tags": {"ele": "371", "gnis:feature_id": "1067182", "name": "Bacon Hill", "natural": "peak", "wikidata": "Q35724711"}}, {"name": "Shulls Hill", "latitude": 40.4639544, "longitude": -81.5095621, "elevation": 322.0, "source": "osm", "_tags": {"ele": "322", "gnis:feature_id": "1067250", "name": "Shulls Hill", "natural": "peak"}}, {"name": "Coal Hill", "latitude": 41.0978339, "longitude": -81.4728916, "elevation": 366.0, "source": "osm", "_tags": {"ele": "366", "gnis:feature_id": "1067314", "name": "Coal Hill", "natural": "peak", "wikidata": "Q35735125"}}, {"name": "Wills Mountain", "latitude": 40.2995111, "longitude": -81.2534408, "elevation": 370.0, "source": "osm", "_tags": {"ele": "370", "gnis:feature_id": "1067593", "name": "Wills Mountain", "natural": "peak"}}, {"name": "Blanket Hill", "latitude": 41.1497494, "longitude": -81.344028, "elevation": null, "source": "osm", "_tags": {"historic": "yes", "name": "Blanket Hill", "natural": "peak"}}, {"name": "Serpentine Hill", "latitude": 40.810677, "longitude": -81.3939551, "elevation": null, "source": "osm", "_tags": {"name": "Serpentine Hill", "natural": "peak"}}, {"name": "Summit County high point", "latitude": 41.2492848, "longitude": -81.6607853, "elevation": 404.0, "source": "osm", "_tags": {"ele": "404", "name": "Summit County high point", "natural": "peak"}}, {"name": "Stark County High Point", "latitude": 40.8075829, "longitude": -81.1512295, "elevation": 413.0, "source": "osm", "_tags": {"ele": "413", "name": "Stark County High Point", "natural": "peak"}}, {"name": "Oak Hill", "latitude": 41.2189974, "longitude": -81.5676438, "elevation": 294.0, "source": "osm", "_tags": {"ele": "294", "name": "Oak Hill", "natural": "peak"}}, {"name": "Mahoning County High Point", "latitude": 40.9227144, "longitude": -80.802308, "elevation": 401.0, "source": "osm", "_tags": {"ele": "401", "ele:ft": "1314", "name": "Mahoning County High Point", "natural": "peak"}}]