[{"name": "Anthill Knob", "latitude": 41.0371863, "longitude": -108.1306433, "elevation": 2184.0, "source": "osm", "_tags": {"ele": "2184", "gnis:feature_id": "1584901", "name": "Anthill Knob", "natural": "peak", "wikidata": "Q49008921"}}, {"name": "Church Butte", "latitude": 41.2269062, "longitude": -108.0159163, "elevation": 2065.0, "source": "osm", "_tags": {"ele": "2065", "gnis:feature_id": "1586711", "name": "Church Butte", "natural": "peak", "wikidata": "Q49020595"}}, {"name": "Courthouse Butte", "latitude": 41.2488503, "longitude": -107.9728589, "elevation": 2133.0, "source": "osm", "_tags": {"ele": "2133", "gnis:feature_id": "1587094", "name": "Courthouse Butte", "natural": "peak", "wikidata": "Q49022383"}}, {"name": "East Flat Top", "latitude": 41.1846844, "longitude": -107.8000742, "elevation": 2310.0, "source": "osm", "_tags": {"ele": "2310", "gnis:feature_id": "1588043", "name": "East Flat Top", "natural": "peak", "wikidata": "Q49026904"}}, {"name": "Five Monument Butte", "latitude": 41.2102402, "longitude": -108.4667695, "elevation": 2145.0, "source": "osm", "_tags": {"ele": "2145", "gnis:feature_id": "1588528", "name": "Five Monument Butte", "natural": "peak", "wikidata": "Q49029165"}}, {"name": "Flat Top Mountain", "latitude": 41.1921844, "longitude": -107.8417425, "elevation": 2277.0, "source": "osm", "_tags": {"ele": "2277", "gnis:feature_id": "1588574", "name": "Flat Top Mountain", "natural": "peak", "wikidata": "Q49029541"}}, {"name": "North Flat Top", "latitude": 41.2199618, "longitude": -107.8356312, "elevation": 2383.0, "source": "osm", "_tags": {"ele": "2383", "gnis:feature_id": "1592146", "name": "North Flat Top", "natural": "peak", "wikidata": "Q49057307"}}, {"name": "Poison Buttes", "latitude": 41.0377421, "longitude": -107.77674, "elevation": 1928.0, "source": "osm", "_tags": {"ele": "1928", "gnis:feature_id": "1592900", "name": "Poison Buttes", "natural": "peak", "wikidata": "Q49062945"}}, {"name": "Powder Mountain", "latitude": 41.0402417, "longitude": -108.2312038, "elevation": 2343.0, "source": "osm", "_tags": {"ele": "2343", "gnis:feature_id": "1592997", "name": "Powder Mountain", "natural": "peak", "wikidata": "Q49063904"}}, {"name": "Salazar Butte", "latitude": 41.2821837, "longitude": -108.0645298, "elevation": 2122.0, "source": "osm", "_tags": {"ele": "2122", "gnis:feature_id": "1593801", "name": "Salazar Butte", "natural": "peak", "wikidata": "Q49070912"}}, {"name": "West Flat Top Mountain", "latitude": 41.217184, "longitude": -107.9181345, "elevation": 2264.0, "source": "osm", "_tags": {"ele": "2264", "gnis:feature_id": "1596172", "name": "West Flat Top Mountain", "natural": "peak"}}, {"name": "Bighole Butte", "latitude": 40.8896883, "longitude": -107.9556355, "elevation": 2063.0, "source": "osm", "_tags": {"ele": "2063", "gnis:feature_id": "169733", "name": "Bighole Butte", "natural": "peak"}}, {"name": "Lookout Mountain", "latitude": 40.8641313, "longitude": -108.4837139, "elevation": 2466.0, "source": "osm", "_tags": {"ele": "2466", "gnis:feature_id": "169811", "name": "Lookout Mountain", "natural": "peak"}}, {"name": "Twin Buttes", "latitude": 40.7557994, "longitude": -108.3881536, "elevation": 1909.0, "source": "osm", "_tags": {"ele": "1909", "gnis:feature_id": "169812", "name": "Twin Buttes", "natural": "peak"}}, {"name": "The Nipple", "latitude": 40.8549657, "longitude": -108.2087021, "elevation": 2223.0, "source": "osm", "_tags": {"ele": "2223", "gnis:feature_id": "169819", "name": "The Nipple", "natural": "peak"}}, {"name": "Dry Knob", "latitude": 40.6463539, "longitude": -108.687053, "elevation": 1972.0, "source": "osm", "_tags": {"ele": "1972", "gnis:feature_id": "170568", "name": "Dry Knob", "natural": "peak"}}, {"name": "Vermillion Mesa", "latitude": 40.7013536, "longitude": -108.6826087, "elevation": 1971.0, "source": "osm", "_tags": {"ele": "1971", "gnis:feature_id": "170579", "name": "Vermillion Mesa", "natural": "peak"}}, {"name": "Dry Mountain", "latitude": 40.7138544, "longitude": -108.55816, "elevation": 2238.0, "source": "osm", "_tags": {"ele": "2238", "gnis:feature_id": "170587", "name": "Dry Mountain", "natural": "peak"}}, {"name": "Allred Peak", "latitude": 40.5269108, "longitude": -108.5559363, "elevation": 2429.0, "source": "osm", "_tags": {"ele": "2429", "gnis:feature_id": "170613", "name": "Allred Peak", "natural": "peak"}}, {"name": "Chase Hill", "latitude": 40.5652439, "longitude": -108.5734372, "elevation": 1999.0, "source": "osm", "_tags": {"ele": "1999", "gnis:feature_id": "170615", "name": "Chase Hill", "natural": "peak"}}, {"name": "Bill Weller Mesa", "latitude": 40.5644105, "longitude": -108.5842709, "elevation": 2032.0, "source": "osm", "_tags": {"ele": "2032", "gnis:feature_id": "170616", "name": "Bill Weller Mesa", "natural": "peak"}}, {"name": "Limestone Hill", "latitude": 40.5713549, "longitude": -108.5970492, "elevation": 2085.0, "source": "osm", "_tags": {"ele": "2085", "gnis:feature_id": "170617", "name": "Limestone Hill", "natural": "peak"}}, {"name": "Smelter Hill", "latitude": 40.5760768, "longitude": -108.6437176, "elevation": 2047.0, "source": "osm", "_tags": {"ele": "2047", "gnis:feature_id": "170637", "name": "Smelter Hill", "natural": "peak"}}, {"name": "Monument Hill", "latitude": 40.6388556, "longitude": -108.3881528, "elevation": 1802.0, "source": "osm", "_tags": {"ele": "1802", "gnis:feature_id": "170674", "name": "Monument Hill", "natural": "peak"}}, {"name": "Lone Mountain", "latitude": 40.5760777, "longitude": -108.4709334, "elevation": 2034.0, "source": "osm", "_tags": {"ele": "2034", "gnis:feature_id": "170680", "name": "Lone Mountain", "natural": "peak"}}, {"name": "Pigpen Hill", "latitude": 40.6624663, "longitude": -108.4503777, "elevation": 1928.0, "source": "osm", "_tags": {"ele": "1928", "gnis:feature_id": "170682", "name": "Pigpen Hill", "natural": "peak"}}, {"name": "Clay Buttes", "latitude": 40.7069106, "longitude": -108.4414888, "elevation": 1910.0, "source": "osm", "_tags": {"ele": "1910", "gnis:feature_id": "170687", "name": "Clay Buttes", "natural": "peak"}}, {"name": "Yellow Cat Butte", "latitude": 40.7471886, "longitude": -108.3381515, "elevation": 1923.0, "source": "osm", "_tags": {"ele": "1923", "gnis:feature_id": "170692", "name": "Yellow Cat Butte", "natural": "peak"}}, {"name": "Peck Mesa", "latitude": 40.5435784, "longitude": -108.3331498, "elevation": 1941.0, "source": "osm", "_tags": {"ele": "1941", "gnis:feature_id": "170698", "name": "Peck Mesa", "natural": "peak"}}, {"name": "Ninemile Hill", "latitude": 40.7110782, "longitude": -108.1864782, "elevation": 1849.0, "source": "osm", "_tags": {"ele": "1849", "gnis:feature_id": "170720", "name": "Ninemile Hill", "natural": "peak"}}, {"name": "Bald Mountain", "latitude": 40.6838564, "longitude": -108.1195308, "elevation": 2203.0, "source": "osm", "_tags": {"ele": "2203", "gnis:feature_id": "170721", "name": "Bald Mountain", "natural": "peak"}}, {"name": "Lucas Hill", "latitude": 40.6474679, "longitude": -108.0770289, "elevation": 1930.0, "source": "osm", "_tags": {"ele": "1930", "gnis:feature_id": "170725", "name": "Lucas Hill", "natural": "peak"}}, {"name": "Hat Hill", "latitude": 40.6141349, "longitude": -108.035638, "elevation": 2018.0, "source": "osm", "_tags": {"ele": "2018", "gnis:feature_id": "170727", "name": "Hat Hill", "natural": "peak"}}, {"name": "Wapiti Peak", "latitude": 40.3738576, "longitude": -108.2809241, "elevation": 2356.0, "source": "osm", "_tags": {"ele": "2356", "gnis:feature_id": "170874", "name": "Wapiti Peak", "natural": "peak"}}, {"name": "Twelvemile Mesa", "latitude": 40.4005237, "longitude": -108.3878729, "elevation": 2084.0, "source": "osm", "_tags": {"ele": "2084", "gnis:feature_id": "170876", "name": "Twelvemile Mesa", "natural": "peak"}}, {"name": "Juniper Mountain", "latitude": 40.4494137, "longitude": -108.0295258, "elevation": 2394.0, "source": "osm", "_tags": {"ele": "2394", "gnis:feature_id": "170949", "name": "Juniper Mountain", "natural": "peak"}}, {"name": "M F Mountain", "latitude": 40.3716349, "longitude": -108.5642683, "elevation": 2010.0, "source": "osm", "_tags": {"ele": "2010", "gnis:feature_id": "170960", "name": "M F Mountain", "natural": "peak"}}, {"name": "Escarpment Peak", "latitude": 40.2980256, "longitude": -108.1278619, "elevation": 2403.0, "source": "osm", "_tags": {"ele": "2403", "gnis:feature_id": "170988", "name": "Escarpment Peak", "natural": "peak"}}, {"name": "Coal Mountain", "latitude": 40.3183036, "longitude": -108.0445255, "elevation": 2526.0, "source": "osm", "_tags": {"ele": "2526", "gnis:feature_id": "170999", "name": "Coal Mountain", "natural": "peak"}}, {"name": "Lay Peak", "latitude": 40.503303, "longitude": -107.8906322, "elevation": 2027.0, "source": "osm", "_tags": {"ele": "2027", "gnis:feature_id": "171246", "name": "Lay Peak", "natural": "peak"}}, {"name": "Sugarloaf Peak", "latitude": 40.5560802, "longitude": -107.9275782, "elevation": 2015.0, "source": "osm", "_tags": {"ele": "2015", "gnis:feature_id": "171249", "name": "Sugarloaf Peak", "natural": "peak"}}, {"name": "Signal Butte", "latitude": 40.4413595, "longitude": -107.8542415, "elevation": 1985.0, "source": "osm", "_tags": {"ele": "1985", "gnis:feature_id": "171325", "name": "Signal Butte", "natural": "peak"}}, {"name": "Little Juniper Mountain", "latitude": 40.4755249, "longitude": -107.9923023, "elevation": 2027.0, "source": "osm", "_tags": {"ele": "2027", "gnis:feature_id": "171332", "name": "Little Juniper Mountain", "natural": "peak"}}, {"name": "Maggies Nipple", "latitude": 40.3333041, "longitude": -107.9714672, "elevation": 2267.0, "source": "osm", "_tags": {"ele": "2267", "gnis:feature_id": "171441", "name": "Maggies Nipple", "natural": "peak"}}, {"name": "Clinker Knob", "latitude": 40.3494145, "longitude": -108.0345253, "elevation": 2461.0, "source": "osm", "_tags": {"ele": "2461", "gnis:feature_id": "171527", "name": "Clinker Knob", "natural": "peak"}}, {"name": "Citadel Plateau", "latitude": 40.2980253, "longitude": -108.182864, "elevation": 2370.0, "source": "osm", "_tags": {"ele": "2370", "gnis:feature_id": "171532", "name": "Citadel Plateau", "natural": "peak"}}, {"name": "Wolf Mountain", "latitude": 40.3710803, "longitude": -108.1667529, "elevation": 2275.0, "source": "osm", "_tags": {"ele": "2275", "gnis:feature_id": "171535", "name": "Wolf Mountain", "natural": "peak"}}, {"name": "Cedar Knob", "latitude": 40.4055835, "longitude": -108.2204031, "elevation": 2059.0, "source": "osm", "_tags": {"ele": "2059", "gnis:feature_id": "171538", "name": "Cedar Knob", "natural": "peak"}}, {"name": "The Bears Ears", "latitude": 40.7466316, "longitude": -108.6201068, "elevation": 2239.0, "source": "osm", "_tags": {"ele": "2239", "gnis:feature_id": "201857", "name": "The Bears Ears", "natural": "peak"}}, {"name": "Red Wash Butte", "latitude": 40.7813557, "longitude": -108.1253648, "elevation": 1909.0, "source": "osm", "_tags": {"ele": "1909", "gnis:feature_id": "201859", "name": "Red Wash Butte", "natural": "peak"}}, {"name": "John Weller Mesa", "latitude": 40.5724659, "longitude": -108.615661, "elevation": 2106.0, "source": "osm", "_tags": {"ele": "2106", "gnis:feature_id": "201951", "name": "John Weller Mesa", "natural": "peak"}}, {"name": "Cross Mountain", "latitude": 40.5221894, "longitude": -108.3812072, "elevation": 2382.0, "source": "osm", "_tags": {"ele": "2382", "gnis:feature_id": "201960", "name": "Cross Mountain", "natural": "peak"}}, {"name": "Petes Post", "latitude": 40.3463576, "longitude": -108.6287149, "elevation": 2083.0, "source": "osm", "_tags": {"ele": "2083", "gnis:feature_id": "201963", "name": "Petes Post", "natural": "peak"}}, {"name": "Duffy Mountain", "latitude": 40.3688611, "longitude": -107.7686823, "elevation": 2161.0, "source": "osm", "_tags": {"ele": "2161", "gnis:feature_id": "201991", "name": "Duffy Mountain", "natural": "peak"}}, {"name": "Steamboat Rock", "latitude": 40.3338583, "longitude": -108.1789753, "elevation": 2259.0, "source": "osm", "_tags": {"ele": "2259", "gnis:feature_id": "1945987", "name": "Steamboat Rock", "natural": "peak"}}, {"name": "Boston Hill", "latitude": 40.552468, "longitude": -108.1561983, "elevation": 1791.0, "source": "osm", "_tags": {"ele": "1791", "gnis:feature_id": "1947914", "name": "Boston Hill", "natural": "peak"}}]