[{"name": "Pochuck Mountain", "latitude": 41.2112065, "longitude": -74.530437, "elevation": 361.0, "source": "osm", "_tags": {"ele": "361", "gnis:feature_id": "879383", "name": "Pochuck Mountain", "natural": "peak", "wikidata": "Q7206341"}}, {"name": "Bald Mountain", "latitude": 41.2262055, "longitude": -73.8279129, "elevation": 201.0, "source": "osm", "_tags": {"ele": "201", "gnis:feature_id": "942858", "name": "Bald Mountain", "natural": "peak"}}, {"name": "Bald Mountain", "latitude": 41.2842606, "longitude": -73.9918071, "elevation": 341.0, "source": "osm", "_tags": {"ele": "341", "gnis:feature_id": "942859", "name": "Bald Mountain", "natural": "peak", "wikidata": "Q34803435"}}, {"name": "Bare Mountain", "latitude": 41.2364827, "longitude": -74.2343148, "elevation": 342.0, "source": "osm", "_tags": {"ele": "342", "gnis:feature_id": "943000", "name": "Bare Mountain", "natural": "peak"}}, {"name": "Beaver Hill", "latitude": 41.0673189, "longitude": -73.8279118, "elevation": 140.0, "source": "osm", "_tags": {"ele": "140", "gnis:feature_id": "943385", "name": "Beaver Hill", "natural": "peak", "wikidata": "Q34804766"}}, {"name": "Beech Hill", "latitude": 41.1264848, "longitude": -73.8184675, "elevation": 136.0, "source": "osm", "_tags": {"ele": "136", "gnis:feature_id": "943504", "name": "Beech Hill", "natural": "peak"}}, {"name": "Bellvale Mountain", "latitude": 41.2031502, "longitude": -74.3234847, "elevation": 406.0, "source": "osm", "_tags": {"ele": "406", "gnis:feature_id": "943632", "name": "Bellvale Mountain", "natural": "peak", "wikidata": "Q34804984"}}, {"name": "Bensons Point", "latitude": 41.2438826, "longitude": -74.0165302, "elevation": 160.0, "source": "osm", "_tags": {"ele": "160", "gnis:feature_id": "943702", "name": "Bensons Point", "natural": "peak", "wikidata": "Q34805063"}}, {"name": "Big Hill", "latitude": 41.2155849, "longitude": -74.0809181, "elevation": 374.0, "source": "osm", "_tags": {"ele": "374", "gnis:feature_id": "943893", "name": "Big Hill", "natural": "peak", "wikidata": "Q34805278"}}, {"name": "Bill White Mountain", "latitude": 41.1712276, "longitude": -74.251216, "elevation": 337.0, "source": "osm", "_tags": {"ele": "337", "gnis:feature_id": "943976", "name": "Bill White Mountain", "natural": "peak", "wikidata": "Q34805383"}}, {"name": "Black Ash Mountain", "latitude": 41.2123165, "longitude": -74.1615345, "elevation": 336.0, "source": "osm", "_tags": {"ele": "336", "gnis:feature_id": "944064", "name": "Black Ash Mountain", "natural": "peak"}}, {"name": "Black Mountain", "latitude": 41.2847084, "longitude": -74.0405156, "elevation": 355.0, "source": "osm", "_tags": {"ele": "355", "gnis:feature_id": "944144", "name": "Black Mountain", "natural": "peak"}}, {"name": "Blauvelt Mountain", "latitude": 41.2000555, "longitude": -74.156553, "elevation": 355.0, "source": "osm", "_tags": {"ele": "355", "gnis:feature_id": "944232", "name": "Blauvelt Mountain", "natural": "peak"}}, {"name": "Blue Mountain", "latitude": 41.2723162, "longitude": -73.9026377, "elevation": 202.0, "source": "osm", "_tags": {"ele": "202", "gnis:feature_id": "944315", "name": "Blue Mountain", "natural": "peak"}}, {"name": "Bradley Mountain", "latitude": 41.2812166, "longitude": -74.0985953, "elevation": 416.0, "source": "osm", "_tags": {"ele": "416", "gnis:feature_id": "944581", "name": "Bradley Mountain", "natural": "peak"}}, {"name": "Breakneck Mountain", "latitude": 41.1998294, "longitude": -74.0984014, "elevation": 384.0, "source": "osm", "_tags": {"ele": "384", "gnis:feature_id": "944672", "name": "Breakneck Mountain", "natural": "peak", "wikidata": "Q34806145"}}, {"name": "Brundige Mountain", "latitude": 41.2102858, "longitude": -74.126315, "elevation": 311.0, "source": "osm", "_tags": {"ele": "311", "gnis:feature_id": "944970", "name": "Brundige Mountain", "natural": "peak", "wikidata": "Q34806377"}}, {"name": "Buchanan Mountain", "latitude": 41.2678714, "longitude": -74.2029251, "elevation": 347.0, "source": "osm", "_tags": {"ele": "347", "gnis:feature_id": "945008", "name": "Buchanan Mountain", "natural": "peak", "wikidata": "Q34806466"}}, {"name": "Buckberg Mountain", "latitude": 41.2586416, "longitude": -74.0032896, "elevation": 241.0, "source": "osm", "_tags": {"ele": "241", "gnis:feature_id": "945067", "name": "Buckberg Mountain", "natural": "peak"}}, {"name": "Buttermilk Hill", "latitude": 41.1103739, "longitude": -73.8109672, "elevation": 211.0, "source": "osm", "_tags": {"ele": "211", "gnis:feature_id": "945375", "name": "Buttermilk Hill", "natural": "peak"}}, {"name": "Cairn Mountain", "latitude": 41.2209274, "longitude": -74.2101473, "elevation": 343.0, "source": "osm", "_tags": {"ele": "343", "gnis:feature_id": "945439", "name": "Cairn Mountain", "natural": "peak"}}, {"name": "Cat Hill", "latitude": 41.2559274, "longitude": -73.7740224, "elevation": 221.0, "source": "osm", "_tags": {"ele": "221", "gnis:feature_id": "946009", "name": "Cat Hill", "natural": "peak"}}, {"name": "Catamount Hill", "latitude": 41.2028725, "longitude": -73.8490245, "elevation": 155.0, "source": "osm", "_tags": {"ele": "155", "gnis:feature_id": "946022", "name": "Catamount Hill", "natural": "peak"}}, {"name": "Catamount Mountain", "latitude": 41.176206, "longitude": -74.0920876, "elevation": 325.0, "source": "osm", "_tags": {"ele": "325", "gnis:feature_id": "946025", "name": "Catamount Mountain", "natural": "peak", "wikidata": "Q34807979"}}, {"name": "Cedar Hill", "latitude": 41.0928741, "longitude": -73.8540238, "elevation": 101.0, "source": "osm", "_tags": {"ele": "101", "gnis:feature_id": "946109", "name": "Cedar Hill", "natural": "peak"}}, {"name": "Cedar Mountain", "latitude": 41.2448159, "longitude": -74.2376484, "elevation": 355.0, "source": "osm", "_tags": {"ele": "355", "gnis:feature_id": "946125", "name": "Cedar Mountain", "natural": "peak"}}, {"name": "Chappaqua Hill", "latitude": 41.1712064, "longitude": -73.7690218, "elevation": 219.0, "source": "osm", "_tags": {"ele": "219", "gnis:feature_id": "946395", "name": "Chappaqua Hill", "natural": "peak"}}, {"name": "Cheesecote Mountain", "latitude": 41.2045389, "longitude": -74.046253, "elevation": 296.0, "source": "osm", "_tags": {"ele": "296", "gnis:feature_id": "946470", "name": "Cheesecote Mountain", "natural": "peak", "wikidata": "Q34808569"}}, {"name": "Collaberg Mountain", "latitude": 41.2289831, "longitude": -74.0115298, "elevation": 180.0, "source": "osm", "_tags": {"ele": "180", "gnis:feature_id": "947131", "name": "Collaberg Mountain", "natural": "peak", "wikidata": "Q34809213"}}, {"name": "Conklin Mountain", "latitude": 41.1942613, "longitude": -74.124311, "elevation": 365.0, "source": "osm", "_tags": {"ele": "365", "gnis:feature_id": "947296", "name": "Conklin Mountain", "natural": "peak", "wikidata": "Q34809404"}}, {"name": "Cooney Hill", "latitude": 41.1009296, "longitude": -73.7323535, "elevation": 170.0, "source": "osm", "_tags": {"ele": "170", "gnis:feature_id": "947381", "name": "Cooney Hill", "natural": "peak"}}, {"name": "Cranberry Mountain", "latitude": 41.2080358, "longitude": -74.100102, "elevation": 366.0, "source": "osm", "_tags": {"ele": "366", "gnis:feature_id": "947664", "name": "Cranberry Mountain", "natural": "peak", "wikidata": "Q34809798"}}, {"name": "Crow Hill", "latitude": 41.2203724, "longitude": -73.7567995, "elevation": 180.0, "source": "osm", "_tags": {"ele": "180", "gnis:feature_id": "947838", "name": "Crow Hill", "natural": "peak"}}, {"name": "Daters Mountain", "latitude": 41.1850947, "longitude": -74.1751459, "elevation": 288.0, "source": "osm", "_tags": {"ele": "288", "gnis:feature_id": "948046", "name": "Daters Mountain", "natural": "peak", "wikidata": "Q34810195"}}, {"name": "Diamond Mountain", "latitude": 41.1806504, "longitude": -74.1362557, "elevation": 378.0, "source": "osm", "_tags": {"ele": "378", "gnis:feature_id": "948415", "name": "Diamond Mountain", "natural": "peak", "wikidata": "Q49024744"}}, {"name": "Dickerson Mountain", "latitude": 41.2587051, "longitude": -73.8668032, "elevation": 237.0, "source": "osm", "_tags": {"ele": "237", "gnis:feature_id": "948435", "name": "Dickerson Mountain", "natural": "peak"}}, {"name": "Dunderberg Mountain", "latitude": 41.2856495, "longitude": -73.9862514, "elevation": 325.0, "source": "osm", "_tags": {"ele": "325", "gnis:feature_id": "948787", "name": "Dunderberg Mountain", "natural": "peak", "wikidata": "Q5314869"}}, {"name": "Eagle Mountain", "latitude": 41.1884279, "longitude": -74.2223697, "elevation": 325.0, "source": "osm", "_tags": {"ele": "325", "gnis:feature_id": "948929", "name": "Eagle Mountain", "natural": "peak", "wikidata": "Q34914247"}}, {"name": "Eagle Rock", "latitude": 41.1900947, "longitude": -74.0784761, "elevation": 293.0, "source": "osm", "_tags": {"ele": "293", "gnis:feature_id": "948940", "name": "Eagle Rock", "natural": "peak", "wikidata": "Q34914274"}}, {"name": "Echo Mountain", "latitude": 41.268427, "longitude": -74.1251449, "elevation": 387.0, "source": "osm", "_tags": {"ele": "387", "gnis:feature_id": "949350", "name": "Echo Mountain", "natural": "peak"}}, {"name": "Fingerboard Mountain", "latitude": 41.2650938, "longitude": -74.104033, "elevation": 420.0, "source": "osm", "_tags": {"ele": "420", "gnis:feature_id": "950066", "name": "Fingerboard Mountain", "natural": "peak", "wikidata": "Q34868506", "wikipedia": "en:Fingerboard Mountain"}}, {"name": "Flaggy Meadow Mountain", "latitude": 41.2589921, "longitude": -74.0618077, "elevation": 331.0, "source": "osm", "_tags": {"ele": "331", "gnis:feature_id": "950222", "name": "Flaggy Meadow Mountain", "natural": "peak", "wikidata": "Q34868877"}}, {"name": "Fox Hill", "latitude": 41.1994582, "longitude": -74.1894246, "elevation": 234.0, "source": "osm", "_tags": {"ele": "234", "gnis:feature_id": "950559", "name": "Fox Hill", "natural": "peak"}}, {"name": "French Hill", "latitude": 41.2675941, "longitude": -73.7945786, "elevation": 236.0, "source": "osm", "_tags": {"ele": "236", "gnis:feature_id": "950692", "name": "French Hill", "natural": "peak"}}, {"name": "Ganungs Hill", "latitude": 41.2045391, "longitude": -73.8620805, "elevation": 150.0, "source": "osm", "_tags": {"ele": "150", "gnis:feature_id": "950872", "name": "Ganungs Hill", "natural": "peak"}}, {"name": "Good Spring Mountain", "latitude": 41.2229835, "longitude": -74.1279739, "elevation": 320.0, "source": "osm", "_tags": {"ele": "320", "gnis:feature_id": "951318", "name": "Good Spring Mountain", "natural": "peak"}}, {"name": "Goshen Mountain", "latitude": 41.2733624, "longitude": -74.0729029, "elevation": 396.0, "source": "osm", "_tags": {"ele": "396", "gnis:feature_id": "951403", "name": "Goshen Mountain", "natural": "peak"}}, {"name": "Grape Swamp Mountain", "latitude": 41.2421778, "longitude": -74.0697418, "elevation": 345.0, "source": "osm", "_tags": {"ele": "345", "gnis:feature_id": "951528", "name": "Grape Swamp Mountain", "natural": "peak", "wikidata": "Q34822723"}}, {"name": "Green Pond Mountain", "latitude": 41.2491094, "longitude": -74.1618383, "elevation": 277.0, "source": "osm", "_tags": {"ele": "277", "gnis:feature_id": "951724", "name": "Green Pond Mountain", "natural": "peak"}}, {"name": "Guard Hill", "latitude": 41.205095, "longitude": -73.7004084, "elevation": 226.0, "source": "osm", "_tags": {"ele": "226", "gnis:feature_id": "951885", "name": "Guard Hill", "natural": "peak"}}, {"name": "Halfway Mountain", "latitude": 41.180928, "longitude": -74.1415336, "elevation": 328.0, "source": "osm", "_tags": {"ele": "328", "gnis:feature_id": "952039", "name": "Halfway Mountain", "natural": "peak", "wikidata": "Q34823015"}}, {"name": "Hasenclever Mountain", "latitude": 41.2542605, "longitude": -74.0881992, "elevation": 363.0, "source": "osm", "_tags": {"ele": "363", "gnis:feature_id": "952340", "name": "Hasenclever Mountain", "natural": "peak"}}, {"name": "Hessian Hill", "latitude": 41.2225944, "longitude": -73.8784701, "elevation": 170.0, "source": "osm", "_tags": {"ele": "170", "gnis:feature_id": "952650", "name": "Hessian Hill", "natural": "peak"}}, {"name": "High Hill", "latitude": 41.2156499, "longitude": -74.1065328, "elevation": 361.0, "source": "osm", "_tags": {"ele": "361", "gnis:feature_id": "952739", "name": "High Hill", "natural": "peak", "wikidata": "Q34922152"}}, {"name": "High Mountain", "latitude": 41.1353732, "longitude": -74.1798679, "elevation": 291.0, "source": "osm", "_tags": {"ele": "291", "gnis:feature_id": "952746", "name": "High Mountain", "natural": "peak", "wikidata": "Q34922217"}}, {"name": "High Tor", "latitude": 41.187317, "longitude": -73.9651392, "elevation": 244.0, "source": "osm", "_tags": {"ele": "244", "gnis:feature_id": "952766", "name": "High Tor", "natural": "peak", "wikidata": "Q34922347"}}, {"name": "Hog Hill", "latitude": 41.2142614, "longitude": -73.7748556, "elevation": 156.0, "source": "osm", "_tags": {"ele": "156", "gnis:feature_id": "952939", "name": "Hog Hill", "natural": "peak"}}, {"name": "Hogback Mountain", "latitude": 41.2328717, "longitude": -74.2190365, "elevation": 332.0, "source": "osm", "_tags": {"ele": "332", "gnis:feature_id": "952956", "name": "Hogback Mountain", "natural": "peak"}}, {"name": "Hogencamp Mountain", "latitude": 41.2493482, "longitude": -74.1211373, "elevation": 407.0, "source": "osm", "_tags": {"ele": "407", "gnis:feature_id": "952964", "name": "Hogencamp Mountain", "natural": "peak"}}, {"name": "Hook Mountain", "latitude": 41.1207901, "longitude": -73.9181291, "elevation": 214.0, "source": "osm", "_tags": {"ele": "214", "gnis:feature_id": "953158", "name": "Hook Mountain", "natural": "peak", "wikidata": "Q34922991"}}, {"name": "Horse Chock Mountain", "latitude": 41.2089833, "longitude": -74.0587535, "elevation": 330.0, "source": "osm", "_tags": {"ele": "330", "gnis:feature_id": "953224", "name": "Horse Chock Mountain", "natural": "peak", "wikidata": "Q34874162"}}, {"name": "Horse Stable Mountain", "latitude": 41.1664839, "longitude": -74.1043101, "elevation": 325.0, "source": "osm", "_tags": {"ele": "325", "gnis:feature_id": "953230", "name": "Horse Stable Mountain", "natural": "peak", "wikidata": "Q34874246"}}, {"name": "Horse Stable Rock", "latitude": 41.1637061, "longitude": -74.1020878, "elevation": 242.0, "source": "osm", "_tags": {"ele": "242", "gnis:feature_id": "953231", "name": "Horse Stable Rock", "natural": "peak", "wikidata": "Q34874258"}}, {"name": "Irish Mountain", "latitude": 41.2362927, "longitude": -74.0597911, "elevation": 346.0, "source": "osm", "_tags": {"ele": "346", "gnis:feature_id": "953766", "name": "Irish Mountain", "natural": "peak", "wikidata": "Q34825003"}}, {"name": "Island Pond Mountain", "latitude": 41.2617604, "longitude": -74.1304227, "elevation": 398.0, "source": "osm", "_tags": {"ele": "398", "gnis:feature_id": "953835", "name": "Island Pond Mountain", "natural": "peak"}}, {"name": "Jackie Jones Mountain", "latitude": 41.2235392, "longitude": -74.0720642, "elevation": 383.0, "source": "osm", "_tags": {"ele": "383", "gnis:feature_id": "953870", "name": "Jackie Jones Mountain", "natural": "peak", "wikidata": "Q34875679"}}, {"name": "Jackie Mountain", "latitude": 41.2441995, "longitude": -74.0359344, "elevation": 252.0, "source": "osm", "_tags": {"ele": "252", "gnis:feature_id": "953871", "name": "Jackie Mountain", "natural": "peak", "wikidata": "Q34875690"}}, {"name": "Kennelwood Hill", "latitude": 41.067319, "longitude": -73.7579098, "elevation": 156.0, "source": "osm", "_tags": {"ele": "156", "gnis:feature_id": "954511", "name": "Kennelwood Hill", "natural": "peak"}}, {"name": "Kykuit Hill", "latitude": 41.0895408, "longitude": -73.8445791, "elevation": 147.0, "source": "osm", "_tags": {"ele": "147", "gnis:feature_id": "954837", "name": "Kykuit Hill", "natural": "peak"}}, {"name": "Ladentown Mountain", "latitude": 41.2017612, "longitude": -74.0884766, "elevation": 378.0, "source": "osm", "_tags": {"ele": "378", "gnis:feature_id": "954873", "name": "Ladentown Mountain", "natural": "peak", "wikidata": "Q49043142"}}, {"name": "Letterrock Mountain", "latitude": 41.2702575, "longitude": -74.0682491, "elevation": 371.0, "source": "osm", "_tags": {"ele": "371", "gnis:feature_id": "955227", "name": "Letterrock Mountain", "natural": "peak"}}, {"name": "Limekiln Mountain", "latitude": 41.1964835, "longitude": -74.0756983, "elevation": 342.0, "source": "osm", "_tags": {"ele": "342", "gnis:feature_id": "955345", "name": "Limekiln Mountain", "natural": "peak", "wikidata": "Q34826126"}}, {"name": "Lindley Mountain", "latitude": 41.2795382, "longitude": -74.1140333, "elevation": 390.0, "source": "osm", "_tags": {"ele": "390", "gnis:feature_id": "955408", "name": "Lindley Mountain", "natural": "peak"}}, {"name": "Little Tor", "latitude": 41.1963426, "longitude": -73.9877109, "elevation": 185.0, "source": "osm", "_tags": {"ele": "185", "gnis:feature_id": "955713", "name": "Little Tor", "natural": "peak", "wikidata": "Q34924805"}}, {"name": "McKesson Hill", "latitude": 41.1856507, "longitude": -73.7681885, "elevation": 213.0, "source": "osm", "_tags": {"ele": "213", "gnis:feature_id": "956801", "name": "McKesson Hill", "natural": "peak"}}, {"name": "Motts Hill", "latitude": 41.1925949, "longitude": -73.8470799, "elevation": 177.0, "source": "osm", "_tags": {"ele": "177", "gnis:feature_id": "957793", "name": "Motts Hill", "natural": "peak"}}, {"name": "Mount Airy Hill", "latitude": 41.2250944, "longitude": -73.8665252, "elevation": 141.0, "source": "osm", "_tags": {"ele": "141", "gnis:feature_id": "957803", "name": "Mount Airy Hill", "natural": "peak"}}, {"name": "Nat House Mountain", "latitude": 41.2473287, "longitude": -74.0763733, "elevation": 325.0, "source": "osm", "_tags": {"ele": "325", "gnis:feature_id": "958288", "name": "Nat House Mountain", "natural": "peak", "wikidata": "Q34884852"}}, {"name": "Mount Nebo", "latitude": 41.0489858, "longitude": -73.9268034, "elevation": 208.0, "source": "osm", "_tags": {"ele": "208", "gnis:feature_id": "958318", "name": "Mount Nebo", "natural": "peak", "wikidata": "Q34882738"}}, {"name": "Nordica Hill", "latitude": 41.2078724, "longitude": -73.8776366, "elevation": 78.0, "source": "osm", "_tags": {"ele": "78", "gnis:feature_id": "958651", "name": "Nordica Hill", "natural": "peak"}}, {"name": "Panther Mountain", "latitude": 41.1867614, "longitude": -74.0862542, "elevation": 334.0, "source": "osm", "_tags": {"ele": "334", "gnis:feature_id": "959819", "name": "Panther Mountain", "natural": "peak", "wikidata": "Q34828896"}}, {"name": "Parker Cabin Mountain", "latitude": 41.2203719, "longitude": -74.1501454, "elevation": 381.0, "source": "osm", "_tags": {"ele": "381", "gnis:feature_id": "959901", "name": "Parker Cabin Mountain", "natural": "peak", "wikidata": "Q34888904"}}, {"name": "Mount Peter", "latitude": 41.2414828, "longitude": -74.2907059, "elevation": 370.0, "source": "osm", "_tags": {"ele": "370", "gnis:feature_id": "960230", "name": "Mount Peter", "natural": "peak"}}, {"name": "Pine Hill", "latitude": 41.1720392, "longitude": -74.2187584, "elevation": 260.0, "source": "osm", "_tags": {"ele": "260", "gnis:feature_id": "960459", "name": "Pine Hill", "natural": "peak", "wikidata": "Q34894171"}}, {"name": "Pine Meadow Mountain", "latitude": 41.1800948, "longitude": -74.1270887, "elevation": 340.0, "source": "osm", "_tags": {"ele": "340", "gnis:feature_id": "960510", "name": "Pine Meadow Mountain", "natural": "peak", "wikidata": "Q34894513"}}, {"name": "Pine Swamp Mountain", "latitude": 41.2459271, "longitude": -74.1051442, "elevation": 355.0, "source": "osm", "_tags": {"ele": "355", "gnis:feature_id": "960558", "name": "Pine Swamp Mountain", "natural": "peak"}}, {"name": "Pingyp Mountain", "latitude": 41.2528716, "longitude": -74.0331974, "elevation": 310.0, "source": "osm", "_tags": {"ele": "310", "gnis:feature_id": "960590", "name": "Pingyp Mountain", "natural": "peak", "wikidata": "Q34895042"}}, {"name": "Pole Brook Mountain", "latitude": 41.2267113, "longitude": -74.0954392, "elevation": 360.0, "source": "osm", "_tags": {"ele": "360", "gnis:feature_id": "960856", "name": "Pole Brook Mountain", "natural": "peak", "wikidata": "Q34896693"}}, {"name": "Pound Mountain", "latitude": 41.1889835, "longitude": -74.1676457, "elevation": 313.0, "source": "osm", "_tags": {"ele": "313", "gnis:feature_id": "961063", "name": "Pound Mountain", "natural": "peak", "wikidata": "Q34898419"}}, {"name": "Pound Swamp Mountain", "latitude": 41.2418862, "longitude": -74.0489397, "elevation": 306.0, "source": "osm", "_tags": {"ele": "306", "gnis:feature_id": "961066", "name": "Pound Swamp Mountain", "natural": "peak", "wikidata": "Q34898443"}}, {"name": "Prickly Pear Hill", "latitude": 41.2189833, "longitude": -73.9015263, "elevation": 157.0, "source": "osm", "_tags": {"ele": "157", "gnis:feature_id": "961132", "name": "Prickly Pear Hill", "natural": "peak"}}, {"name": "Prospect Hill", "latitude": 41.1295402, "longitude": -73.8404126, "elevation": 148.0, "source": "osm", "_tags": {"ele": "148", "gnis:feature_id": "961162", "name": "Prospect Hill", "natural": "peak"}}, {"name": "Prospect Mountain", "latitude": 41.2662047, "longitude": -74.2168144, "elevation": 348.0, "source": "osm", "_tags": {"ele": "348", "gnis:feature_id": "961185", "name": "Prospect Mountain", "natural": "peak"}}, {"name": "Raccoon Brook Hill", "latitude": 41.168706, "longitude": -74.1337556, "elevation": 353.0, "source": "osm", "_tags": {"ele": "353", "gnis:feature_id": "962119", "name": "Raccoon Brook Hill", "natural": "peak", "wikidata": "Q49066293"}}, {"name": "Ramapo Mountains", "latitude": 41.1723171, "longitude": -74.1001434, "elevation": 317.0, "source": "osm", "_tags": {"ele": "317", "gnis:feature_id": "962157", "name": "Ramapo Mountains", "natural": "peak", "wikidata": "Q591130", "wikipedia": "en:Ramapo Mountains"}}, {"name": "Ray Hill", "latitude": 41.2192614, "longitude": -73.7367988, "elevation": 178.0, "source": "osm", "_tags": {"ele": "178", "gnis:feature_id": "962240", "name": "Ray Hill", "natural": "peak"}}, {"name": "Reynolds Hill", "latitude": 41.1056518, "longitude": -73.7690214, "elevation": 180.0, "source": "osm", "_tags": {"ele": "180", "gnis:feature_id": "962432", "name": "Reynolds Hill", "natural": "peak"}}, {"name": "Rider Hill", "latitude": 41.2270386, "longitude": -74.030975, "elevation": 193.0, "source": "osm", "_tags": {"ele": "193", "gnis:feature_id": "962487", "name": "Rider Hill", "natural": "peak", "wikidata": "Q34830199"}}, {"name": "Rockhouse Mountain", "latitude": 41.2389701, "longitude": -74.0917358, "elevation": 387.0, "source": "osm", "_tags": {"ele": "387", "gnis:feature_id": "962752", "name": "Rockhouse Mountain", "natural": "peak", "wikidata": "Q34830531"}}, {"name": "Round Hill", "latitude": 41.2231502, "longitude": -74.370709, "elevation": 361.0, "source": "osm", "_tags": {"ele": "361", "gnis:feature_id": "962962", "name": "Round Hill", "natural": "peak"}}, {"name": "Salt Hill", "latitude": 41.2478719, "longitude": -73.8601364, "elevation": 213.0, "source": "osm", "_tags": {"ele": "213", "gnis:feature_id": "964329", "name": "Salt Hill", "natural": "peak"}}, {"name": "Sarles Hill", "latitude": 41.1492623, "longitude": -73.7881889, "elevation": 216.0, "source": "osm", "_tags": {"ele": "216", "gnis:feature_id": "964497", "name": "Sarles Hill", "natural": "peak"}}, {"name": "Sleater Hill", "latitude": 41.1689838, "longitude": -74.1823682, "elevation": 201.0, "source": "osm", "_tags": {"ele": "201", "gnis:feature_id": "965396", "name": "Sleater Hill", "natural": "peak", "wikidata": "Q34907886"}}, {"name": "Smith Rock", "latitude": 41.1973387, "longitude": -74.1729494, "elevation": 319.0, "source": "osm", "_tags": {"ele": "319", "gnis:feature_id": "965513", "name": "Smith Rock", "natural": "peak"}}, {"name": "Spitzenberg Mountain", "latitude": 41.2553718, "longitude": -73.9054155, "elevation": 166.0, "source": "osm", "_tags": {"ele": "166", "gnis:feature_id": "966011", "name": "Spitzenberg Mountain", "natural": "peak"}}, {"name": "Spook Rock", "latitude": 41.119746, "longitude": -74.0985694, "elevation": 167.0, "source": "osm", "_tags": {"created_by": "Potlatch 0.10f", "ele": "167", "gnis:feature_id": "966025", "name": "Spook Rock", "natural": "peak", "wikidata": "Q34909810"}}, {"name": "Squirrel Swamp Mountain", "latitude": 41.1873169, "longitude": -74.0973656, "elevation": 378.0, "source": "osm", "_tags": {"ele": "378", "gnis:feature_id": "966183", "name": "Squirrel Swamp Mountain", "natural": "peak", "wikidata": "Q34910499"}}, {"name": "Stayback Hill", "latitude": 41.2212056, "longitude": -73.8015231, "elevation": 185.0, "source": "osm", "_tags": {"ele": "185", "gnis:feature_id": "966307", "name": "Stayback Hill", "natural": "peak"}}, {"name": "Surebridge Mountain", "latitude": 41.2535411, "longitude": -74.1294208, "elevation": 391.0, "source": "osm", "_tags": {"ele": "391", "gnis:feature_id": "966859", "name": "Surebridge Mountain", "natural": "peak"}}, {"name": "Table Rock", "latitude": 41.1423175, "longitude": -74.2215359, "elevation": 279.0, "source": "osm", "_tags": {"ele": "279", "gnis:feature_id": "966979", "name": "Table Rock", "natural": "peak", "wikidata": "Q34811449"}}, {"name": "Tallman Mountain", "latitude": 41.0356527, "longitude": -73.9143029, "elevation": 52.0, "source": "osm", "_tags": {"ele": "52", "gnis:feature_id": "967011", "name": "Tallman Mountain", "natural": "peak", "wikidata": "Q34811512"}}, {"name": "Taylor Mountain", "latitude": 41.2092614, "longitude": -74.3545971, "elevation": 454.0, "source": "osm", "_tags": {"ele": "454", "gnis:feature_id": "967094", "name": "Taylor Mountain", "natural": "peak"}}, {"name": "Teatown Hill", "latitude": 41.2126357, "longitude": -73.8396675, "elevation": 163.0, "source": "osm", "_tags": {"ele": "163", "gnis:feature_id": "967115", "name": "Teatown Hill", "natural": "peak"}}, {"name": "The Timp", "latitude": 41.2758181, "longitude": -74.0008804, "elevation": 332.0, "source": "osm", "_tags": {"ele": "332", "gnis:feature_id": "967345", "name": "The Timp", "natural": "peak", "wikidata": "Q34812614"}}, {"name": "Tiger Mountain", "latitude": 41.2431493, "longitude": -74.2320926, "elevation": 355.0, "source": "osm", "_tags": {"ele": "355", "gnis:feature_id": "967519", "name": "Tiger Mountain", "natural": "peak"}}, {"name": "Todt Hill", "latitude": 40.6003793, "longitude": -74.1148645, "elevation": 125.0, "source": "osm", "_tags": {"ele": "125", "name": "Todt Hill", "natural": "peak", "source": "survey", "wikidata": "Q1060702", "wikipedia": "en:Todt Hill"}}, {"name": "Tom Jones Mountain", "latitude": 41.2267468, "longitude": -74.1417541, "elevation": 387.0, "source": "osm", "_tags": {"ele": "387", "gnis:feature_id": "967606", "name": "Tom Jones Mountain", "natural": "peak"}}, {"name": "Torment Hill", "latitude": 41.231761, "longitude": -73.8776368, "elevation": 181.0, "source": "osm", "_tags": {"ele": "181", "gnis:feature_id": "967670", "name": "Torment Hill", "natural": "peak"}}, {"name": "Tower Hill", "latitude": 41.2089832, "longitude": -74.1923689, "elevation": 275.0, "source": "osm", "_tags": {"ele": "275", "gnis:feature_id": "967689", "name": "Tower Hill", "natural": "peak", "wikidata": "Q34813827"}}, {"name": "Turkey Mountain", "latitude": 41.2482731, "longitude": -73.7987349, "elevation": 253.0, "source": "osm", "_tags": {"ele": "253", "gnis:feature_id": "967969", "name": "Turkey Mountain", "natural": "peak", "wikidata": "Q7855080"}}, {"name": "Tuxedo Rock", "latitude": 41.1914542, "longitude": -74.1170268, "elevation": 358.0, "source": "osm", "_tags": {"ele": "358", "gnis:feature_id": "968014", "name": "Tuxedo Rock", "natural": "peak", "wikidata": "Q34814892"}}, {"name": "Warwick Mountain", "latitude": 41.2264833, "longitude": -74.3454302, "elevation": 410.0, "source": "osm", "_tags": {"ele": "410", "gnis:feature_id": "968832", "name": "Warwick Mountain", "natural": "peak"}}, {"name": "South Mountain", "latitude": 41.1875948, "longitude": -73.9651392, "elevation": 220.0, "source": "osm", "_tags": {"ele": "220", "gnis:feature_id": "970633", "name": "South Mountain", "natural": "peak", "wikidata": "Q34909461"}}, {"name": "West Mountain", "latitude": 41.2844327, "longitude": -74.011272, "elevation": 382.0, "source": "osm", "_tags": {"ele": "382", "gnis:feature_id": "970807", "name": "West Mountain", "natural": "peak", "wikidata": "Q34819691"}}, {"name": "Wildcat Mountain", "latitude": 41.2342606, "longitude": -74.1823688, "elevation": 254.0, "source": "osm", "_tags": {"ele": "254", "gnis:feature_id": "971252", "name": "Wildcat Mountain", "natural": "peak"}}, {"name": "Big Bog Mountain", "latitude": 41.2706494, "longitude": -74.0381975, "elevation": 269.0, "source": "osm", "_tags": {"ele": "269", "gnis:feature_id": "973565", "name": "Big Bog Mountain", "natural": "peak", "wikidata": "Q34805178"}}, {"name": "Laurel Hill", "latitude": 40.7298244, "longitude": -73.922915, "elevation": 25.0, "source": "osm", "_tags": {"ele": "25", "gnis:feature_id": "973584", "name": "Laurel Hill", "natural": "peak"}}, {"name": "Collaberg Mountain", "latitude": 41.2417608, "longitude": -73.874859, "elevation": 123.0, "source": "osm", "_tags": {"ele": "123", "gnis:feature_id": "973969", "name": "Collaberg Mountain", "natural": "peak"}}, {"name": "Janes Hill", "latitude": 40.8117675, "longitude": -73.9115255, "elevation": 23.0, "source": "osm", "_tags": {"ele": "23", "gnis:feature_id": "2062129", "name": "Janes Hill", "natural": "peak"}}, {"name": "Vault Hill", "latitude": 40.8977778, "longitude": -73.8922222, "elevation": 44.0, "source": "osm", "_tags": {"ele": "44", "gnis:feature_id": "2072364", "name": "Vault Hill", "natural": "peak"}}, {"name": "Quaker Hill", "latitude": 40.6609969, "longitude": -73.9719321, "elevation": 50.0, "source": "osm", "_tags": {"ele": "50", "gnis:feature_id": "2080944", "name": "Quaker Hill", "natural": "peak", "wikidata": "Q49065970"}}, {"name": "Sullivan Hill", "latitude": 40.665, "longitude": -73.9688889, "elevation": 49.0, "source": "osm", "_tags": {"ele": "49", "name": "Sullivan Hill", "natural": "peak"}}, {"name": "Lookout Hill", "latitude": 40.6575471, "longitude": -73.9719142, "elevation": 54.0, "source": "osm", "_tags": {"ele": "54", "gnis:feature_id": "2080947", "name": "Lookout Hill", "natural": "peak", "wikidata": "Q34925776"}}, {"name": "Breeze Hill", "latitude": 40.6590419, "longitude": -73.966256, "elevation": 32.0, "source": "osm", "_tags": {"ele": "32", "gnis:feature_id": "2080949", "name": "Breeze Hill", "natural": "peak"}}, {"name": "Willink Hill", "latitude": 40.6616667, "longitude": -73.9638889, "elevation": 32.0, "source": "osm", "_tags": {"ele": "32", "gnis:feature_id": "2080950", "name": "Willink Hill", "natural": "peak"}}, {"name": "Great Hill", "latitude": 40.7969393, "longitude": -73.9588949, "elevation": 41.0, "source": "osm", "_tags": {"ele": "41", "gnis:feature_id": "2082741", "name": "Great Hill", "natural": "peak", "website": "https://www.centralparknyc.org/locations/great-hill", "website:alternate": "https://www.nycgovparks.org/parks/central-park/highlights/10765"}}, {"name": "Hackley Hill", "latitude": 41.0722222, "longitude": -73.8483333, "elevation": 140.0, "source": "osm", "_tags": {"ele": "140", "gnis:feature_id": "2125391", "name": "Hackley Hill", "natural": "peak", "wikidata": "Q34873728"}}, {"name": "Maspeth Plateau", "latitude": 40.7313, "longitude": -73.8984, "elevation": 40.0, "source": "osm", "_tags": {"ele": "40", "gnis:feature_id": "2353889", "name": "Maspeth Plateau", "natural": "peak"}}, {"name": "Inwood Hill", "latitude": 40.8741667, "longitude": -73.9258333, "elevation": 70.0, "source": "osm", "_tags": {"ele": "70", "gnis:feature_id": "2359513", "name": "Inwood Hill", "natural": "peak", "wikidata": "Q34824908"}}, {"name": "Tetards Hill", "latitude": 40.8825, "longitude": -73.9186111, "elevation": 61.0, "source": "osm", "_tags": {"ele": "61", "gnis:feature_id": "2359515", "name": "Tetards Hill", "natural": "peak"}}, {"name": "Treason Hill", "latitude": 41.2138889, "longitude": -73.9883333, "elevation": 56.0, "source": "osm", "_tags": {"ele": "56", "gnis:feature_id": "2367717", "name": "Treason Hill", "natural": "peak", "wikidata": "Q34814020"}}, {"name": "Spuyten Duyvil Hill", "latitude": 40.8797222, "longitude": -73.9180556, "elevation": 62.0, "source": "osm", "_tags": {"ele": "62", "gnis:feature_id": "2392669", "name": "Spuyten Duyvil Hill", "natural": "peak"}}, {"name": "Long Hill", "latitude": 40.865, "longitude": -73.9316667, "elevation": 61.0, "source": "osm", "_tags": {"ele": "61", "gnis:feature_id": "2392673", "name": "Long Hill", "natural": "peak", "wikidata": "Q34925613"}}, {"name": "Mount Morris", "latitude": 40.8041721, "longitude": -73.9436141, "elevation": 32.0, "source": "osm", "_tags": {"ele": "32", "gnis:feature_id": "2392674", "name": "Mount Morris", "natural": "peak"}}, {"name": "Academy Hill", "latitude": 41.2869444, "longitude": -73.9163889, "elevation": 76.0, "source": "osm", "_tags": {"ele": "76", "gnis:feature_id": "2413949", "name": "Academy Hill", "natural": "peak"}}, {"name": "Battle Hill", "latitude": 41.0938889, "longitude": -73.8608333, "elevation": 44.0, "source": "osm", "_tags": {"ele": "44", "gnis:feature_id": "2414809", "name": "Battle Hill", "natural": "peak"}}, {"name": "Tappan Hill", "latitude": 41.0727778, "longitude": -73.8527778, "elevation": 127.0, "source": "osm", "_tags": {"ele": "127", "gnis:feature_id": "2414811", "name": "Tappan Hill", "natural": "peak", "wikidata": "Q34811558"}}, {"name": "Andre Hill", "latitude": 41.0206529, "longitude": -73.9548595, "elevation": 50.0, "source": "osm", "_tags": {"ele": "50", "gnis:feature_id": "874345", "name": "Andre Hill", "natural": "peak", "wikidata": "Q34805330"}}, {"name": "Mount Arlington", "latitude": 40.9156543, "longitude": -74.6282159, "elevation": 371.0, "source": "osm", "_tags": {"ele": "371", "gnis:feature_id": "874378", "name": "Mount Arlington", "natural": "peak", "wikidata": "Q34880541"}}, {"name": "Bald Hill", "latitude": 40.9178766, "longitude": -74.4732108, "elevation": 266.0, "source": "osm", "_tags": {"ele": "266", "gnis:feature_id": "874467", "name": "Bald Hill", "natural": "peak", "wikidata": "Q34808172"}}, {"name": "Bald Mountain", "latitude": 41.1207023, "longitude": -74.2004347, "elevation": 351.0, "source": "osm", "_tags": {"ele": "351", "gnis:feature_id": "874468", "name": "Bald Mountain", "natural": "peak", "wikidata": "Q16837277"}}, {"name": "Riker Hill", "latitude": 40.8106874, "longitude": -74.3261292, "elevation": 134.0, "source": "osm", "_tags": {"ele": "134", "gnis:feature_id": "874603", "name": "Riker Hill", "natural": "peak", "wikidata": "Q34830240"}}, {"name": "Bearfort Mountain", "latitude": 41.1397732, "longitude": -74.3915746, "elevation": 445.0, "source": "osm", "_tags": {"ele": "445", "gnis:feature_id": "874604;973971", "name": "Bearfort Mountain", "natural": "peak", "wikidata": "Q19600374", "wikipedia": "en:Bearfort Mountain"}}, {"name": "Bellot Mountain", "latitude": 41.0992626, "longitude": -74.2526479, "elevation": 227.0, "source": "osm", "_tags": {"ele": "227", "gnis:feature_id": "874655", "name": "Bellot Mountain", "natural": "peak", "wikidata": "Q16840108"}}, {"name": "Blachleys Hill", "latitude": 40.7562115, "longitude": -74.5462679, "elevation": 204.0, "source": "osm", "_tags": {"ele": "204", "gnis:feature_id": "874781", "name": "Blachleys Hill", "natural": "peak", "wikidata": "Q34835706"}}, {"name": "Bowling Green Mountain", "latitude": 41.0077368, "longitude": -74.5498806, "elevation": 420.0, "source": "osm", "_tags": {"ele": "420", "gnis:feature_id": "874873", "name": "Bowling Green Mountain", "natural": "peak", "wikidata": "Q35728968"}}, {"name": "Campgaw Mountain", "latitude": 41.0550257, "longitude": -74.1997547, "elevation": 224.0, "source": "osm", "_tags": {"ele": "224", "gnis:feature_id": "875171", "name": "Campgaw Mountain", "natural": "peak", "wikidata": "Q5028347"}}, {"name": "Cobb Hill", "latitude": 40.9878723, "longitude": -74.4628256, "elevation": 358.0, "source": "osm", "_tags": {"ele": "358", "gnis:feature_id": "875528", "name": "Cobb Hill", "natural": "peak", "wikidata": "Q35735163"}}, {"name": "Copperas Mountain", "latitude": 41.0156533, "longitude": -74.4645999, "elevation": 373.0, "source": "osm", "_tags": {"ele": "373", "gnis:feature_id": "875649", "name": "Copperas Mountain", "natural": "peak", "wikidata": "Q34830333"}}, {"name": "Crawford Hill", "latitude": 40.3920736, "longitude": -74.1861196, "elevation": 120.0, "source": "osm", "_tags": {"ele": "120", "gnis:feature_id": "875714", "name": "Crawford Hill", "natural": "peak", "wikidata": "Q34866651"}}, {"name": "Mount Defiance", "latitude": 41.1242518, "longitude": -74.229184, "elevation": 316.0, "source": "osm", "_tags": {"ele": "316", "gnis:feature_id": "875865", "name": "Mount Defiance", "natural": "peak", "wikidata": "Q16953643"}}, {"name": "Drag Hill", "latitude": 41.0980059, "longitude": -74.2095366, "elevation": 323.0, "source": "osm", "_tags": {"ele": "323", "gnis:feature_id": "875963", "name": "Drag Hill", "natural": "peak", "wikidata": "Q16962688", "wikipedia": "en:Drag Hill"}}, {"name": "Federal Hill", "latitude": 41.0030575, "longitude": -74.3094673, "elevation": 171.0, "source": "osm", "_tags": {"ele": "171", "gnis:feature_id": "876313", "name": "Federal Hill", "natural": "peak", "wikidata": "Q34868214"}}, {"name": "First Watchung Mountain", "latitude": 40.5783844, "longitude": -74.5663944, "elevation": 83.0, "source": "osm", "_tags": {"ele": "83", "gnis:feature_id": "876348", "name": "First Watchung Mountain", "natural": "peak", "wikidata": "Q34868657"}}, {"name": "Gillespie Hill", "latitude": 40.783989, "longitude": -74.5096002, "elevation": 217.0, "source": "osm", "_tags": {"ele": "217", "gnis:feature_id": "876611", "name": "Gillespie Hill", "natural": "peak", "wikidata": "Q34916411"}}, {"name": "Green Hill", "latitude": 41.09759, "longitude": -74.1855669, "elevation": 248.0, "source": "osm", "_tags": {"ele": "248", "gnis:feature_id": "876781", "name": "Green Hill", "natural": "peak", "wikidata": "Q16969085"}}, {"name": "Green Pond Mountain", "latitude": 40.9670427, "longitude": -74.5434912, "elevation": 393.0, "source": "osm", "_tags": {"ele": "393", "gnis:feature_id": "876789", "name": "Green Pond Mountain", "natural": "peak", "wikidata": "Q34870259"}}, {"name": "Herman Hill", "latitude": 41.1145017, "longitude": -74.2035377, "elevation": 328.0, "source": "osm", "_tags": {"ele": "328", "gnis:feature_id": "877059", "name": "Herman Hill", "natural": "peak", "wikidata": "Q16969118"}}, {"name": "Hickory Mountain", "latitude": 41.1217851, "longitude": -74.2562332, "elevation": 153.0, "source": "osm", "_tags": {"ele": "153", "gnis:feature_id": "877082", "name": "Hickory Mountain", "natural": "peak", "wikidata": "Q16995334"}}, {"name": "High Mountain", "latitude": 40.9705212, "longitude": -74.1983069, "elevation": 268.0, "source": "osm", "_tags": {"ele": "268", "gnis:feature_id": "877095", "name": "High Mountain", "natural": "peak", "wikidata": "Q34922204"}}, {"name": "High Mountain", "latitude": 41.0886212, "longitude": -74.2348336, "elevation": 337.0, "source": "osm", "_tags": {"ele": "337", "gnis:feature_id": "877096", "name": "High Mountain", "natural": "peak", "wikidata": "Q16995365"}}, {"name": "Horse Hill", "latitude": 40.8212109, "longitude": -74.4590431, "elevation": 144.0, "source": "osm", "_tags": {"ele": "144", "gnis:feature_id": "877257", "name": "Horse Hill", "natural": "peak", "wikidata": "Q34874222"}}, {"name": "Stag Hill/Houvenkopf Mountain", "latitude": 41.1059292, "longitude": -74.1751453, "elevation": 282.0, "source": "osm", "_tags": {"ele": "282", "gnis:feature_id": "877266", "name": "Stag Hill/Houvenkopf Mountain", "natural": "peak", "wikidata": "Q8521664"}}, {"name": "Kanouse Mountain", "latitude": 41.041764, "longitude": -74.4218206, "elevation": 361.0, "source": "osm", "_tags": {"ele": "361", "gnis:feature_id": "877516", "name": "Kanouse Mountain", "natural": "peak", "wikidata": "Q34825275"}}, {"name": "Kemble Mountain", "latitude": 40.7884334, "longitude": -74.4959887, "elevation": 166.0, "source": "osm", "_tags": {"ele": "166", "gnis:feature_id": "877534", "name": "Kemble Mountain", "natural": "peak"}}, {"name": "Mount Kemble", "latitude": 40.7668604, "longitude": -74.5210747, "elevation": 215.0, "source": "osm", "_tags": {"ele": "215", "gnis:feature_id": "877535", "name": "Mount Kemble", "natural": "peak", "wikidata": "Q34881964"}}, {"name": "Kakeout Mountain", "latitude": 40.9889867, "longitude": -74.3765407, "elevation": 277.0, "source": "osm", "_tags": {"ele": "277", "gnis:feature_id": "877559", "name": "Kakeout Mountain", "name:source": "U.S. Board on Geographic Names", "natural": "peak", "old_name:-2020": "Kikeout Mountain", "wikidata": "Q20657117", "wikipedia": "en:Kakeout Mountain"}}, {"name": "Kings Bluff", "latitude": 40.7651055, "longitude": -74.0210258, "elevation": 47.0, "source": "osm", "_tags": {"ele": "47", "gnis:feature_id": "877573", "name": "Kings Bluff", "natural": "peak", "wikidata": "Q49041734"}}, {"name": "Laurel Hill", "latitude": 40.757795, "longitude": -74.0891125, "elevation": 60.0, "source": "osm", "_tags": {"ele": "60", "gnis:feature_id": "877678", "name": "Laurel Hill", "natural": "peak", "wikidata": "Q7547010"}}, {"name": "Long Hill", "latitude": 40.7656558, "longitude": -74.6632161, "elevation": 259.0, "source": "osm", "_tags": {"ele": "259", "gnis:feature_id": "877913", "name": "Long Hill", "natural": "peak", "wikidata": "Q34925588"}}, {"name": "Long Hill", "latitude": 40.6987125, "longitude": -74.4382084, "elevation": 126.0, "source": "osm", "_tags": {"ele": "126", "gnis:feature_id": "877914", "name": "Long Hill", "natural": "peak", "wikidata": "Q34925576"}}, {"name": "Lookout Mountain", "latitude": 40.9473205, "longitude": -74.6587727, "elevation": 355.0, "source": "osm", "_tags": {"ele": "355", "gnis:feature_id": "877934", "name": "Lookout Mountain", "natural": "peak"}}, {"name": "Maple Hill", "latitude": 41.2056124, "longitude": -74.381983, "elevation": 373.0, "source": "osm", "_tags": {"ele": "373", "gnis:feature_id": "878095", "name": "Maple Hill", "natural": "peak", "wikidata": "Q17080233", "wikipedia": "en:Maple Hill (New Jersey)"}}, {"name": "Mase Mountain", "latitude": 40.9553761, "longitude": -74.5829368, "elevation": 359.0, "source": "osm", "_tags": {"ele": "359", "gnis:feature_id": "878170", "name": "Mase Mountain", "natural": "peak", "wikidata": "Q34827014"}}, {"name": "Millstone Hill", "latitude": 41.0598187, "longitude": -74.2401472, "elevation": 278.0, "source": "osm", "_tags": {"ele": "278", "gnis:feature_id": "878384", "name": "Millstone Hill", "natural": "peak", "wikidata": "Q16963444"}}, {"name": "Mine Mountain", "latitude": 40.7217675, "longitude": -74.6051585, "elevation": 251.0, "source": "osm", "_tags": {"ele": "251", "gnis:feature_id": "878406", "name": "Mine Mountain", "natural": "peak", "wikidata": "Q34828113"}}, {"name": "Packanack Mountain", "latitude": 40.930654, "longitude": -74.2418133, "elevation": 144.0, "source": "osm", "_tags": {"ele": "144", "gnis:feature_id": "879084", "name": "Packanack Mountain", "natural": "peak", "wikidata": "Q34828489"}}, {"name": "Packanack Mountain", "latitude": 40.9845518, "longitude": -74.2696241, "elevation": 131.0, "source": "osm", "_tags": {"ele": "131", "gnis:feature_id": "879085", "name": "Packanack Mountain", "natural": "peak", "wikidata": "Q34828502"}}, {"name": "Mount Paul", "latitude": 40.7648224, "longitude": -74.6493267, "elevation": 245.0, "source": "osm", "_tags": {"ele": "245", "gnis:feature_id": "879169", "name": "Mount Paul", "natural": "peak", "wikidata": "Q34882913"}}, {"name": "Mount Paul", "latitude": 41.0418997, "longitude": -74.539945, "elevation": 368.0, "source": "osm", "_tags": {"ele": "368", "gnis:feature_id": "879170", "name": "Mount Paul", "natural": "peak", "wikidata": "Q34882924"}}, {"name": "Pleasant Hill", "latitude": 40.8225996, "longitude": -74.6821059, "elevation": 287.0, "source": "osm", "_tags": {"ele": "287", "gnis:feature_id": "879352", "name": "Pleasant Hill", "natural": "peak", "wikidata": "Q34896068"}}, {"name": "Beech Mountain", "latitude": 40.9793361, "longitude": -74.2165593, "elevation": 260.0, "source": "osm", "_tags": {"ele": "260", "gnis:feature_id": "879479", "name": "Beech Mountain", "natural": "peak", "wikidata": "Q34898742"}}, {"name": "Rock Pear Mountain", "latitude": 40.9725981, "longitude": -74.3940413, "elevation": 289.0, "source": "osm", "_tags": {"ele": "289", "gnis:feature_id": "879749", "name": "Rock Pear Mountain", "natural": "peak", "wikidata": "Q34901700"}}, {"name": "Rocky Hill", "latitude": 40.3789953, "longitude": -74.6593251, "elevation": 92.0, "source": "osm", "_tags": {"ele": "92", "gnis:feature_id": "879768", "name": "Rocky Hill", "natural": "peak", "wikidata": "Q34830559"}}, {"name": "Rocky Mountain", "latitude": 41.0916085, "longitude": -74.215395, "elevation": 322.0, "source": "osm", "_tags": {"ele": "322", "gnis:feature_id": "879770", "name": "Rocky Mountain", "natural": "peak", "wikidata": "Q16977218"}}, {"name": "Mount Saint John", "latitude": 40.7323228, "longitude": -74.6557157, "elevation": 179.0, "source": "osm", "_tags": {"ele": "179", "gnis:feature_id": "880008", "name": "Mount Saint John", "natural": "peak", "wikidata": "Q34883457"}}, {"name": "Second Watchung Mountain", "latitude": 40.6034358, "longitude": -74.5498783, "elevation": 168.0, "source": "osm", "_tags": {"ele": "168", "gnis:feature_id": "880464", "name": "Second Watchung Mountain", "natural": "peak", "wikidata": "Q34904706"}}, {"name": "Seward Hill", "latitude": 40.7869445, "longitude": -74.6761295, "elevation": 289.0, "source": "osm", "_tags": {"ele": "289", "gnis:feature_id": "880484", "name": "Seward Hill", "natural": "peak", "tourism": "viewpoint", "wikidata": "Q34905495"}}, {"name": "Sheep Hill", "latitude": 40.9195431, "longitude": -74.4059861, "elevation": 276.0, "source": "osm", "_tags": {"ele": "276", "gnis:feature_id": "880528", "name": "Sheep Hill", "natural": "peak", "wikidata": "Q34832120"}}, {"name": "Snake Hill", "latitude": 40.8909324, "longitude": -74.5046006, "elevation": 239.0, "source": "osm", "_tags": {"ele": "239", "gnis:feature_id": "880671", "name": "Snake Hill", "natural": "peak", "wikidata": "Q34908586"}}, {"name": "Sterling Hill", "latitude": 41.0823191, "longitude": -74.6093273, "elevation": 254.0, "source": "osm", "_tags": {"ele": "254", "gnis:feature_id": "880885", "name": "Sterling Hill", "natural": "peak", "wikidata": "Q17088970", "wikipedia": "en:Sterling Hill (New Jersey)"}}, {"name": "Stone Hill", "latitude": 40.3064993, "longitude": -74.1756986, "elevation": 55.0, "source": "osm", "_tags": {"ele": "55", "gnis:feature_id": "880925", "name": "Stone Hill", "natural": "peak", "wikidata": "Q34930805"}}, {"name": "Stony Brook Mountains", "latitude": 40.9724206, "longitude": -74.3809467, "elevation": 289.0, "source": "osm", "_tags": {"ele": "289", "gnis:feature_id": "880941", "name": "Stony Brook Mountains", "natural": "peak"}}, {"name": "Sugar Loaf", "latitude": 40.7772381, "longitude": -74.5319962, "elevation": 229.0, "source": "osm", "_tags": {"ele": "229", "gnis:feature_id": "880987", "name": "Sugar Loaf", "natural": "peak", "wikidata": "Q34841629"}}, {"name": "Sugar Loaf Hill", "latitude": 40.3173324, "longitude": -74.1484756, "elevation": 57.0, "source": "osm", "_tags": {"ele": "57", "gnis:feature_id": "880988", "name": "Sugar Loaf Hill", "natural": "peak", "wikidata": "Q34841695"}}, {"name": "Telegraph Hill", "latitude": 40.3945529, "longitude": -74.1723653, "elevation": 106.0, "source": "osm", "_tags": {"ele": "106", "gnis:feature_id": "881115", "name": "Telegraph Hill", "natural": "peak", "wikidata": "Q34811915"}}, {"name": "Toms Point", "latitude": 40.9137098, "longitude": -74.3195939, "elevation": 70.0, "source": "osm", "_tags": {"ele": "70", "gnis:feature_id": "881209", "name": "Toms Point", "natural": "peak", "wikidata": "Q34813412"}}, {"name": "Towackhow Mountain", "latitude": 40.9017656, "longitude": -74.3462616, "elevation": 131.0, "source": "osm", "_tags": {"ele": "131", "gnis:feature_id": "881218", "name": "Towackhow Mountain", "natural": "peak", "wikidata": "Q34813774"}}, {"name": "Turkey Mountain", "latitude": 40.9488755, "longitude": -74.3735692, "elevation": 268.0, "source": "osm", "_tags": {"ele": "268", "gnis:feature_id": "881291", "name": "Turkey Mountain", "natural": "peak", "wikidata": "Q34814745"}}, {"name": "Watnong Mountain", "latitude": 40.8489884, "longitude": -74.4929333, "elevation": 295.7, "source": "osm", "_tags": {"ele": "295.7", "gnis:feature_id": "881621", "name": "Watnong Mountain", "natural": "peak", "wikidata": "Q16989558"}}, {"name": "Waughaw Mountain", "latitude": 40.9473205, "longitude": -74.3543175, "elevation": 263.0, "source": "osm", "_tags": {"ele": "263", "gnis:feature_id": "881627", "name": "Waughaw Mountain", "natural": "peak", "wikidata": "Q34819055"}}, {"name": "Wawayanda Mountain", "latitude": 41.1975953, "longitude": -74.4571011, "elevation": 448.0, "source": "osm", "_tags": {"ele": "448", "gnis:feature_id": "881633", "name": "Wawayanda Mountain", "natural": "peak", "wikidata": "Q7975604"}}, {"name": "Trowbridge Mountain", "latitude": 40.8375996, "longitude": -74.5329346, "elevation": 274.0, "source": "osm", "_tags": {"ele": "274", "gnis:feature_id": "882285", "name": "Trowbridge Mountain", "natural": "peak", "website": "http://trowbridgemountain.info/", "wikidata": "Q34814301"}}, {"name": "Randall Hill", "latitude": 40.8842657, "longitude": -74.5940479, "elevation": 283.0, "source": "osm", "_tags": {"ele": "283", "gnis:feature_id": "882286", "name": "Randall Hill", "natural": "peak", "wikidata": "Q34900539"}}, {"name": "Garrett Hill", "latitude": 40.4075431, "longitude": -74.0784411, "elevation": 63.0, "source": "osm", "_tags": {"ele": "63", "gnis:feature_id": "882463", "name": "Garrett Hill", "natural": "peak", "wikidata": "Q34915755"}}, {"name": "Mount Cecchino", "latitude": 40.9655294, "longitude": -74.1991119, "elevation": 230.0, "source": "osm", "_tags": {"ele": "230", "gnis:feature_id": "882632", "name": "Mount Cecchino", "natural": "peak", "wikidata": "Q34880767"}}, {"name": "Highlands of Navesink", "latitude": 40.400109, "longitude": -73.9995828, "elevation": 71.0, "source": "osm", "_tags": {"ele": "71", "gnis:feature_id": "882676", "name": "Highlands of Navesink", "natural": "peak", "wikidata": "Q34922361"}}, {"name": "Mayapple Hill", "latitude": 40.7731561, "longitude": -74.2882036, "elevation": 175.0, "source": "osm", "_tags": {"ele": "175", "gnis:feature_id": "883263", "name": "Mayapple Hill", "natural": "peak", "wikidata": "Q34827134"}}, {"name": "Stony Hill", "latitude": 40.8120444, "longitude": -74.24348, "elevation": 179.0, "source": "osm", "_tags": {"ele": "179", "gnis:feature_id": "883316", "name": "Stony Hill", "natural": "peak", "wikidata": "Q34930961"}}, {"name": "Union Hill", "latitude": 40.8559327, "longitude": -74.5201566, "elevation": 277.0, "source": "osm", "_tags": {"ele": "277", "gnis:feature_id": "883512", "name": "Union Hill", "natural": "peak", "wikidata": "Q34816452"}}, {"name": "Nook Hill", "latitude": 40.7362121, "longitude": -74.3087598, "elevation": 92.0, "source": "osm", "_tags": {"ele": "92", "gnis:feature_id": "883745", "name": "Nook Hill", "natural": "peak", "wikidata": "Q34885927"}}, {"name": "Pyramid Mountain", "latitude": 40.9526039, "longitude": -74.3889158, "elevation": 283.0, "source": "osm", "_tags": {"ele": "283", "gnis:feature_id": "1699855", "name": "Pyramid Mountain", "natural": "peak", "wikidata": "Q49065762"}}, {"name": "Beacon Hill", "latitude": 40.3759419, "longitude": -74.224589, "elevation": 82.0, "source": "osm", "_tags": {"ele": "82", "gnis:feature_id": "1989051", "name": "Beacon Hill", "natural": "peak", "wikidata": "Q34809940"}}, {"name": "Mount Arlington", "latitude": 40.9250986, "longitude": -74.6232158, "elevation": 344.0, "source": "osm", "_tags": {"ele": "344", "gnis:feature_id": "1989248", "name": "Mount Arlington", "natural": "peak", "wikidata": "Q34880554"}}, {"name": "Calais Mountain", "latitude": 40.823433, "longitude": -74.5862696, "elevation": 334.0, "source": "osm", "_tags": {"ele": "334", "gnis:feature_id": "2052623", "name": "Calais Mountain", "natural": "peak", "wikidata": "Q34837025"}}, {"name": "Bunker Hill", "latitude": 40.4328833, "longitude": -74.556822, "elevation": 56.0, "source": "osm", "_tags": {"ele": "56", "gnis:feature_id": "2059574", "name": "Bunker Hill", "natural": "peak", "wikidata": "Q34825625"}}, {"name": "Tenmile Run Mountain", "latitude": 40.4267723, "longitude": -74.5993234, "elevation": 92.0, "source": "osm", "_tags": {"ele": "92", "gnis:feature_id": "2059575", "name": "Tenmile Run Mountain", "natural": "peak", "wikidata": "Q34811995"}}, {"name": "Kinneys Hill", "latitude": 40.7941033, "longitude": -74.4881238, "elevation": 180.0, "source": "osm", "_tags": {"ele": "180", "gnis:feature_id": "2339508", "name": "Kinneys Hill", "natural": "peak"}}, {"name": "The Pines", "latitude": 41.2609271, "longitude": -74.029864, "elevation": 285.0, "source": "osm", "_tags": {"addr:state": "NY", "ele": "285", "gnis:feature_id": "967309", "name": "The Pines", "natural": "peak", "note": "Not a \"wood\" feature - this is a small hill. https://www.nynjtc.org/hike/suffernbear-mountain-trailpyngyp#dialog-hike-description", "wikidata": "Q34723815"}}, {"name": "", "latitude": 40.6848848, "longitude": -74.2937586, "elevation": null, "source": "osm", "_tags": {"natural": "peak"}}, {"name": "Eifall", "latitude": 40.8595848, "longitude": -74.2207694, "elevation": null, "source": "osm", "_tags": {"name": "Eifall", "natural": "peak"}}, {"name": "Manhattan High Point", "latitude": 40.8529816, "longitude": -73.938224, "elevation": 81.0, "source": "osm", "_tags": {"alt_name": "Highest Point in Manhattan", "ele": "81", "name": "Manhattan High Point", "natural": "peak"}}, {"name": "Beacon Hill", "latitude": 40.9962019, "longitude": -74.280185, "elevation": 105.0, "source": "osm", "_tags": {"ele": "105", "name": "Beacon Hill", "natural": "peak"}}, {"name": "Vernon Peak", "latitude": 41.1795982, "longitude": -74.5032159, "elevation": 427.0, "source": "osm", "_tags": {"ele": "427", "name": "Vernon Peak", "natural": "peak"}}, {"name": "Granite Peak", "latitude": 41.1762805, "longitude": -74.5093386, "elevation": 445.0, "source": "osm", "_tags": {"ele": "445", "name": "Granite Peak", "natural": "peak"}}, {"name": "South Peak", "latitude": 41.1642296, "longitude": -74.5226781, "elevation": 440.0, "source": "osm", "_tags": {"ele": "440", "name": "South Peak", "natural": "peak"}}, {"name": "Bear Peak", "latitude": 41.168882, "longitude": -74.5304928, "elevation": 347.0, "source": "osm", "_tags": {"ele": "347", "name": "Bear Peak", "natural": "peak"}}, {"name": "Tourne", "latitude": 40.9126126, "longitude": -74.4375014, "elevation": 273.0, "source": "osm", "_tags": {"ele": "273", "name": "Tourne", "natural": "peak"}}, {"name": "Mine Hill", "latitude": 41.1178522, "longitude": -74.5870801, "elevation": null, "source": "osm", "_tags": {"name": "Mine Hill", "natural": "peak", "wikidata": "Q52308216"}}, {"name": "Fox Hills", "latitude": 40.6148321, "longitude": -74.0771207, "elevation": null, "source": "osm", "_tags": {"name": "Fox Hills", "natural": "peak", "source": "survey"}}, {"name": "Emerson Hill", "latitude": 40.6085851, "longitude": -74.0945642, "elevation": null, "source": "osm", "_tags": {"name": "Emerson Hill", "natural": "peak", "source": "survey"}}, {"name": "Park Hill", "latitude": 40.6176839, "longitude": -74.0794823, "elevation": null, "source": "osm", "_tags": {"name": "Park Hill", "natural": "peak", "source": "survey"}}, {"name": "Signal Hill", "latitude": 40.619377, "longitude": -74.0873755, "elevation": null, "source": "osm", "_tags": {"name": "Signal Hill", "natural": "peak", "source": "survey"}}, {"name": "Big Beech Mountain", "latitude": 41.1666587, "longitude": -74.2938726, "elevation": 365.0, "source": "osm", "_tags": {"ele": "365", "name": "Big Beech Mountain", "natural": "peak"}}, {"name": "Hope Mountain", "latitude": 41.1498966, "longitude": -74.2660745, "elevation": 274.0, "source": "osm", "_tags": {"ele": "274", "name": "Hope Mountain", "natural": "peak"}}, {"name": "Tranquility Mountain", "latitude": 41.1357094, "longitude": -74.2877733, "elevation": 274.0, "source": "osm", "_tags": {"ele": "274", "name": "Tranquility Mountain", "natural": "peak"}}, {"name": "Garret Mountain", "latitude": 40.9011833, "longitude": -74.1778756, "elevation": null, "source": "osm", "_tags": {"name": "Garret Mountain", "natural": "peak"}}, {"name": "Little Snake Hill", "latitude": 40.7564643, "longitude": -74.0785607, "elevation": 23.0, "source": "osm", "_tags": {"ele": "23", "ele:ft": "76", "name": "Little Snake Hill", "natural": "peak"}}, {"name": "Torne Mountain", "latitude": 41.0367481, "longitude": -74.3502192, "elevation": 305.0, "source": "osm", "_tags": {"ele": "305", "name": "Torne Mountain", "natural": "peak", "wikidata": "Q34813666"}}, {"name": "Summit Rock", "latitude": 40.7831395, "longitude": -73.9700424, "elevation": 43.2, "source": "osm", "_tags": {"ele": "43.2", "name": "Summit Rock", "natural": "peak", "website": "https://www.centralparknyc.org/locations/summit-rock"}}, {"name": "Vista Rock", "latitude": 40.7794109, "longitude": -73.969074, "elevation": 39.6, "source": "osm", "_tags": {"ele": "39.6", "name": "Vista Rock", "natural": "peak", "website": "https://www.centralparknyc.org/locations/vista-rock", "wikidata": "Q3561112", "wikipedia": "fr:Vista Rock"}}, {"name": "Wyanokie High Point", "latitude": 41.0610793, "longitude": -74.3276349, "elevation": 293.0, "source": "osm", "_tags": {"ele": "293", "name": "Wyanokie High Point", "natural": "peak"}}, {"name": "Moon Hill", "latitude": 40.9763999, "longitude": -74.2234676, "elevation": 180.0, "source": "osm", "_tags": {"ele": "180", "name": "Moon Hill", "natural": "peak"}}, {"name": "Hooge Kop/Houvenkopf Mountain", "latitude": 41.1167362, "longitude": -74.1665178, "elevation": 230.0, "source": "osm", "_tags": {"ele": "230", "name": "Hooge Kop/Houvenkopf Mountain", "natural": "peak"}}, {"name": "Almost Perpendicular", "latitude": 41.1843841, "longitude": -74.1712231, "elevation": null, "source": "osm", "_tags": {"name": "Almost Perpendicular", "natural": "peak"}}, {"name": "Poacher Peak", "latitude": 40.9794128, "longitude": -74.227976, "elevation": 185.0, "source": "osm", "_tags": {"ele": "185", "name": "Poacher Peak", "natural": "peak"}}, {"name": "Grassy Hill", "latitude": 40.6867978, "longitude": -74.0229889, "elevation": 7.5, "source": "osm", "_tags": {"ele": "7.5", "name": "Grassy Hill", "natural": "peak"}}, {"name": "Outlook Hill", "latitude": 40.6867738, "longitude": -74.0246293, "elevation": 21.0, "source": "osm", "_tags": {"ele": "21", "name": "Outlook Hill", "natural": "peak"}}, {"name": "Discovery Hill", "latitude": 40.6862339, "longitude": -74.0255002, "elevation": 12.0, "source": "osm", "_tags": {"ele": "12", "name": "Discovery Hill", "natural": "peak"}}, {"name": "Slide Hill", "latitude": 40.6860657, "longitude": -74.0229946, "elevation": 12.0, "source": "osm", "_tags": {"ele": "12", "name": "Slide Hill", "natural": "peak"}}, {"name": "Hamburg Mountain", "latitude": 41.1482762, "longitude": -74.53022, "elevation": 433.0, "source": "osm", "_tags": {"ele": "433", "name": "Hamburg Mountain", "natural": "peak"}}, {"name": "", "latitude": 41.1487428, "longitude": -74.2188592, "elevation": 262.0, "source": "osm", "_tags": {"ele": "262", "natural": "peak"}}, {"name": "", "latitude": 41.1502111, "longitude": -74.2491996, "elevation": 259.0, "source": "osm", "_tags": {"ele": "259", "natural": "peak"}}, {"name": "", "latitude": 41.1676304, "longitude": -74.2712206, "elevation": 293.0, "source": "osm", "_tags": {"ele": "293", "natural": "peak"}}, {"name": "", "latitude": 41.1596387, "longitude": -74.268252, "elevation": 324.0, "source": "osm", "_tags": {"ele": "324", "natural": "peak"}}, {"name": "", "latitude": 41.1589799, "longitude": -74.2635273, "elevation": 288.0, "source": "osm", "_tags": {"ele": "288", "natural": "peak"}}, {"name": "", "latitude": 41.1964215, "longitude": -74.2782701, "elevation": 403.0, "source": "osm", "_tags": {"ele": "403", "natural": "peak"}}, {"name": "", "latitude": 41.1935621, "longitude": -74.2639022, "elevation": 344.0, "source": "osm", "_tags": {"ele": "344", "natural": "peak"}}, {"name": "Fox Hill", "latitude": 40.9044018, "longitude": -74.4326604, "elevation": null, "source": "osm", "_tags": {"name": "Fox Hill", "natural": "peak"}}, {"name": "Mount Freedom", "latitude": 40.8403842, "longitude": -74.577517, "elevation": 341.0, "source": "osm", "_tags": {"ele": "341", "name": "Mount Freedom", "natural": "peak"}}, {"name": "", "latitude": 40.9211172, "longitude": -74.5622349, "elevation": 280.0, "source": "osm", "_tags": {"ele": "280", "natural": "peak"}}, {"name": "", "latitude": 40.9261838, "longitude": -74.5503259, "elevation": 323.0, "source": "osm", "_tags": {"ele": "323", "natural": "peak"}}, {"name": "", "latitude": 40.9359551, "longitude": -74.604348, "elevation": 305.0, "source": "osm", "_tags": {"ele": "305", "natural": "peak"}}, {"name": "", "latitude": 40.9323673, "longitude": -74.5995408, "elevation": 311.0, "source": "osm", "_tags": {"ele": "311", "natural": "peak"}}, {"name": "", "latitude": 40.9345503, "longitude": -74.6146465, "elevation": 311.0, "source": "osm", "_tags": {"ele": "311", "natural": "peak"}}, {"name": "", "latitude": 40.9381834, "longitude": -74.6156108, "elevation": 335.0, "source": "osm", "_tags": {"ele": "335", "natural": "peak"}}, {"name": "Fugawe Ridge", "latitude": 40.9705956, "longitude": -74.4202203, "elevation": 335.0, "source": "osm", "_tags": {"ele": "335", "name": "Fugawe Ridge", "natural": "peak"}}, {"name": "", "latitude": 40.9725261, "longitude": -74.4188606, "elevation": 329.0, "source": "osm", "_tags": {"ele": "329", "natural": "peak"}}, {"name": "", "latitude": 40.970471, "longitude": -74.4305629, "elevation": 311.0, "source": "osm", "_tags": {"ele": "311", "natural": "peak"}}, {"name": "", "latitude": 40.9839073, "longitude": -74.429883, "elevation": 311.0, "source": "osm", "_tags": {"ele": "311", "natural": "peak"}}, {"name": "", "latitude": 40.9822958, "longitude": -74.4215992, "elevation": 305.0, "source": "osm", "_tags": {"ele": "305", "natural": "peak"}}, {"name": "", "latitude": 40.9741823, "longitude": -74.426204, "elevation": 308.0, "source": "osm", "_tags": {"ele": "308", "natural": "peak"}}, {"name": "", "latitude": 40.9766594, "longitude": -74.4520591, "elevation": 335.0, "source": "osm", "_tags": {"ele": "335", "natural": "peak"}}, {"name": "", "latitude": 40.9747007, "longitude": -74.462298, "elevation": 305.0, "source": "osm", "_tags": {"ele": "305", "natural": "peak"}}, {"name": "", "latitude": 40.9835555, "longitude": -74.4456024, "elevation": 335.0, "source": "osm", "_tags": {"ele": "335", "natural": "peak"}}, {"name": "", "latitude": 41.0275864, "longitude": -74.3822776, "elevation": 273.0, "source": "osm", "_tags": {"ele": "273", "natural": "peak"}}, {"name": "", "latitude": 41.0213259, "longitude": -74.3862348, "elevation": 293.0, "source": "osm", "_tags": {"ele": "293", "natural": "peak"}}, {"name": "", "latitude": 41.0352681, "longitude": -74.3829877, "elevation": 287.0, "source": "osm", "_tags": {"ele": "287", "natural": "peak"}}, {"name": "", "latitude": 41.0024032, "longitude": -74.4273097, "elevation": 335.0, "source": "osm", "_tags": {"ele": "335", "natural": "peak"}}, {"name": "", "latitude": 41.0016832, "longitude": -74.4366537, "elevation": 317.0, "source": "osm", "_tags": {"ele": "317", "natural": "peak"}}, {"name": "", "latitude": 41.0056543, "longitude": -74.442768, "elevation": 327.0, "source": "osm", "_tags": {"ele": "327", "natural": "peak"}}, {"name": "", "latitude": 41.0125462, "longitude": -74.4272289, "elevation": 320.0, "source": "osm", "_tags": {"ele": "320", "natural": "peak"}}, {"name": "", "latitude": 40.9970658, "longitude": -74.4271898, "elevation": 299.0, "source": "osm", "_tags": {"ele": "299", "natural": "peak"}}, {"name": "", "latitude": 40.9673696, "longitude": -74.416079, "elevation": 268.0, "source": "osm", "_tags": {"ele": "268", "natural": "peak"}}, {"name": "", "latitude": 41.0204789, "longitude": -74.4178698, "elevation": 323.0, "source": "osm", "_tags": {"ele": "323", "natural": "peak"}}, {"name": "", "latitude": 41.0247669, "longitude": -74.4164396, "elevation": 287.0, "source": "osm", "_tags": {"ele": "287", "natural": "peak"}}, {"name": "", "latitude": 40.9979559, "longitude": -74.4432032, "elevation": 311.0, "source": "osm", "_tags": {"ele": "311", "natural": "peak"}}, {"name": "", "latitude": 41.0066222, "longitude": -74.3884056, "elevation": 302.0, "source": "osm", "_tags": {"ele": "302", "natural": "peak"}}, {"name": "", "latitude": 41.0006461, "longitude": -74.3898062, "elevation": 308.0, "source": "osm", "_tags": {"ele": "308", "natural": "peak"}}, {"name": "", "latitude": 41.0016557, "longitude": -74.3838505, "elevation": 286.0, "source": "osm", "_tags": {"ele": "286", "natural": "peak"}}, {"name": "Horn Hill", "latitude": 41.2735409, "longitude": -74.0259897, "elevation": 290.0, "source": "osm", "_tags": {"ele": "290", "name": "Horn Hill", "natural": "peak"}}, {"name": "Car Pond Mountain", "latitude": 41.2294385, "longitude": -74.1562088, "elevation": 311.0, "source": "osm", "_tags": {"ele": "311", "name": "Car Pond Mountain", "natural": "peak"}}, {"name": "Hemlock Hill", "latitude": 41.2303896, "longitude": -74.1632738, "elevation": 306.0, "source": "osm", "_tags": {"ele": "306", "name": "Hemlock Hill", "natural": "peak"}}, {"name": "Stahahe High Peak", "latitude": 41.2423974, "longitude": -74.1532412, "elevation": 350.5, "source": "osm", "_tags": {"ele": "350.5", "name": "Stahahe High Peak", "natural": "peak"}}, {"name": "West Island Pond Mountain", "latitude": 41.2571664, "longitude": -74.1470867, "elevation": 366.0, "source": "osm", "_tags": {"ele": "366", "name": "West Island Pond Mountain", "natural": "peak"}}, {"name": "Black Rock Mountain", "latitude": 41.2406224, "longitude": -74.1339515, "elevation": 421.0, "source": "osm", "_tags": {"ele": "421", "name": "Black Rock Mountain", "natural": "peak"}}, {"name": "Hogencamp Mountain North", "latitude": 41.2552082, "longitude": -74.1170737, "elevation": 417.0, "source": "osm", "_tags": {"ele": "417", "name": "Hogencamp Mountain North", "natural": "peak"}}, {"name": "Mine Ridge", "latitude": 41.233051, "longitude": -74.0850793, "elevation": 357.0, "source": "osm", "_tags": {"ele": "357", "name": "Mine Ridge", "natural": "peak"}}, {"name": "", "latitude": 41.2818146, "longitude": -74.0512381, "elevation": 357.0, "source": "osm", "_tags": {"ele": "357", "natural": "peak"}}, {"name": "", "latitude": 41.2873389, "longitude": -74.032117, "elevation": 290.0, "source": "osm", "_tags": {"ele": "290", "natural": "peak"}}, {"name": "Horse Pond Mountain", "latitude": 41.121205, "longitude": -74.3232284, "elevation": 287.0, "source": "osm", "_tags": {"ele": "287", "name": "Horse Pond Mountain", "natural": "peak"}}, {"name": "Board Mountain", "latitude": 41.1058501, "longitude": -74.2863192, "elevation": 262.0, "source": "osm", "_tags": {"ele": "262", "name": "Board Mountain", "natural": "peak"}}, {"name": "Bear Mountain", "latitude": 41.0977345, "longitude": -74.2933777, "elevation": 274.0, "source": "osm", "_tags": {"ele": "274", "name": "Bear Mountain", "natural": "peak"}}, {"name": "Little Windbeam", "latitude": 41.076971, "longitude": -74.3012031, "elevation": 226.0, "source": "osm", "_tags": {"ele": "226", "name": "Little Windbeam", "natural": "peak"}}, {"name": "Windbeam Mountain", "latitude": 41.0849791, "longitude": -74.2999815, "elevation": 317.0, "source": "osm", "_tags": {"ele": "317", "name": "Windbeam Mountain", "natural": "peak"}}, {"name": "Buck Mountain", "latitude": 41.0588199, "longitude": -74.3548619, "elevation": 378.0, "source": "osm", "_tags": {"ele": "378", "name": "Buck Mountain", "natural": "peak"}}, {"name": "Assiniwikam Mountain", "latitude": 41.0677309, "longitude": -74.3409127, "elevation": 360.0, "source": "osm", "_tags": {"ele": "360", "name": "Assiniwikam Mountain", "natural": "peak"}}, {"name": "Carris Hill", "latitude": 41.0524847, "longitude": -74.3308633, "elevation": 341.0, "source": "osm", "_tags": {"ele": "341", "name": "Carris Hill", "natural": "peak"}}, {"name": "Harrison Mountain", "latitude": 41.1126994, "longitude": -74.312736, "elevation": 293.0, "source": "osm", "_tags": {"ele": "293", "name": "Harrison Mountain", "natural": "peak"}}, {"name": "Harrison Mountain South Peak", "latitude": 41.1100885, "longitude": -74.3170193, "elevation": 293.0, "source": "osm", "_tags": {"ele": "293", "name": "Harrison Mountain South Peak", "natural": "peak"}}, {"name": "Picatinny Peak", "latitude": 40.9593135, "longitude": -74.5583531, "elevation": null, "source": "osm", "_tags": {"gnis:feature_id": "2702160", "name": "Picatinny Peak", "natural": "peak"}}, {"name": "Matty Price Hill", "latitude": 41.0794676, "longitude": -74.208094, "elevation": 279.0, "source": "osm", "_tags": {"ele": "279", "gnis:feature_id": "878193", "name": "Matty Price Hill", "natural": "peak"}}, {"name": "High Point", "latitude": 41.0819444, "longitude": -73.7283333, "elevation": null, "source": "osm", "_tags": {"gnis:feature_id": "2557080", "name": "High Point", "natural": "peak"}}, {"name": "", "latitude": 41.1463777, "longitude": -74.500823, "elevation": 424.0, "source": "osm", "_tags": {"ele": "424", "natural": "peak"}}, {"name": "", "latitude": 41.1441801, "longitude": -74.5048249, "elevation": 420.0, "source": "osm", "_tags": {"ele": "420", "natural": "peak"}}, {"name": "", "latitude": 41.1473673, "longitude": -74.5086926, "elevation": 394.0, "source": "osm", "_tags": {"ele": "394", "natural": "peak"}}, {"name": "", "latitude": 41.1358578, "longitude": -74.5073354, "elevation": 422.0, "source": "osm", "_tags": {"ele": "422", "natural": "peak"}}, {"name": "Battle Hill", "latitude": 40.6569526, "longitude": -73.9893587, "elevation": 66.0, "source": "osm", "_tags": {"ele": "66", "name": "Battle Hill", "natural": "peak", "wikidata": "Q4870056"}}, {"name": "", "latitude": 40.8983022, "longitude": -73.9038392, "elevation": 85.0, "source": "osm", "_tags": {"description": "Highest point in the Bronx", "ele": "85", "natural": "peak"}}, {"name": "", "latitude": 40.7575192, "longitude": -73.8302948, "elevation": null, "source": "osm", "_tags": {"natural": "peak"}}, {"name": "Monroe Ridge", "latitude": 41.0927611, "longitude": -74.2011521, "elevation": 262.0, "source": "osm", "_tags": {"ele": "262", "name": "Monroe Ridge", "natural": "peak"}}, {"name": "LeGrande Hill", "latitude": 41.0304595, "longitude": -74.2573093, "elevation": 219.0, "source": "osm", "_tags": {"ele": "219", "name": "LeGrande Hill", "natural": "peak"}}, {"name": "North Cape", "latitude": 41.1198979, "longitude": -74.216906, "elevation": 332.0, "source": "osm", "_tags": {"ele": "332", "name": "North Cape", "natural": "peak"}}, {"name": "Governor Mountain", "latitude": 41.1115346, "longitude": -74.2664392, "elevation": 189.0, "source": "osm", "_tags": {"ele": "189", "name": "Governor Mountain", "natural": "peak"}}, {"name": "Todd Hill", "latitude": 41.0446493, "longitude": -74.2423805, "elevation": null, "source": "osm", "_tags": {"name": "Todd Hill", "natural": "peak"}}, {"name": "Mount Warner", "latitude": 41.0400004, "longitude": -74.3343448, "elevation": 243.0, "source": "osm", "_tags": {"ele": "243", "name": "Mount Warner", "natural": "peak"}}, {"name": "Wickadoma Mountain", "latitude": 41.0709963, "longitude": -74.3566829, "elevation": 335.0, "source": "osm", "_tags": {"ele": "335", "name": "Wickadoma Mountain", "natural": "peak"}}, {"name": "Cobb Hill", "latitude": 41.0796983, "longitude": -74.3481269, "elevation": 310.0, "source": "osm", "_tags": {"ele": "310", "name": "Cobb Hill", "natural": "peak"}}, {"name": "Saddle Mountain", "latitude": 41.0770111, "longitude": -74.3412786, "elevation": 341.0, "source": "osm", "_tags": {"ele": "341", "name": "Saddle Mountain", "natural": "peak"}}, {"name": "Ball Mountain", "latitude": 41.0679544, "longitude": -74.316996, "elevation": 188.0, "source": "osm", "_tags": {"ele": "188", "name": "Ball Mountain", "natural": "peak"}}, {"name": "West Brook Mountain", "latitude": 41.0985704, "longitude": -74.3548363, "elevation": 347.0, "source": "osm", "_tags": {"ele": "347", "name": "West Brook Mountain", "natural": "peak"}}, {"name": "Long Hill", "latitude": 41.113328, "longitude": -74.3432744, "elevation": 329.0, "source": "osm", "_tags": {"ele": "329", "name": "Long Hill", "natural": "peak"}}, {"name": "Monks Mountain", "latitude": 41.1330519, "longitude": -74.3064739, "elevation": 225.0, "source": "osm", "_tags": {"ele": "225", "name": "Monks Mountain", "natural": "peak"}}, {"name": "Ricker Hill", "latitude": 41.1087824, "longitude": -74.2960992, "elevation": 195.0, "source": "osm", "_tags": {"ele": "195", "name": "Ricker Hill", "natural": "peak"}}, {"name": "Boulder Hill", "latitude": 41.1087891, "longitude": -74.3006483, "elevation": 249.0, "source": "osm", "_tags": {"ele": "249", "name": "Boulder Hill", "natural": "peak"}}, {"name": "Saffin Rock", "latitude": 40.9930361, "longitude": -74.5863097, "elevation": 347.0, "source": "osm", "_tags": {"ele": "347", "name": "Saffin Rock", "natural": "peak"}}, {"name": "Morris County High Point", "latitude": 41.01994, "longitude": -74.57573, "elevation": 425.0, "source": "osm", "_tags": {"ele": "425", "name": "Morris County High Point", "natural": "peak", "wikidata": "Q134599079"}}, {"name": "Blueberry Ridge", "latitude": 40.8058716, "longitude": -74.5711709, "elevation": 243.0, "source": "osm", "_tags": {"ele": "243", "name": "Blueberry Ridge", "natural": "peak"}}, {"name": "Mount McMitchell", "latitude": 41.2411065, "longitude": -74.6886592, "elevation": 420.0, "source": "osm", "_tags": {"ele": "420", "name": "Mount McMitchell", "natural": "peak"}}, {"name": "Rutan Hill", "latitude": 41.2458244, "longitude": -74.6761663, "elevation": 311.0, "source": "osm", "_tags": {"ele": "311", "name": "Rutan Hill", "natural": "peak"}}, {"name": "Twin Hill", "latitude": 41.0734155, "longitude": -74.2271307, "elevation": 304.0, "source": "osm", "_tags": {"ele": "304", "name": "Twin Hill", "natural": "peak"}}, {"name": "Cupsaw Mountain", "latitude": 41.1414741, "longitude": -74.2425085, "elevation": 219.0, "source": "osm", "_tags": {"ele": "219", "name": "Cupsaw Mountain", "natural": "peak"}}, {"name": "Queens High Point", "latitude": 40.7577022, "longitude": -73.7190464, "elevation": 79.2, "source": "osm", "_tags": {"description": "Highest natural point of elevation in Queens.", "ele": "79.2", "name": "Queens High Point", "natural": "peak"}}]