[{"name": "Acorn Hill", "latitude": 42.0303694, "longitude": -74.1731992, "elevation": 398.0, "source": "osm", "_tags": {"ele": "398", "gnis:feature_id": "942153", "name": "Acorn Hill", "natural": "peak"}}, {"name": "Mount Adam", "latitude": 41.304261, "longitude": -74.4265449, "elevation": 276.0, "source": "osm", "_tags": {"ele": "276", "gnis:feature_id": "942158", "name": "Mount Adam", "natural": "peak"}}, {"name": "Adria Hill", "latitude": 41.3314826, "longitude": -74.1420899, "elevation": 306.0, "source": "osm", "_tags": {"ele": "306", "gnis:feature_id": "942192", "name": "Adria Hill", "natural": "peak"}}, {"name": "Mount Airy", "latitude": 42.11259, "longitude": -73.982913, "elevation": 186.0, "source": "osm", "_tags": {"ele": "186", "gnis:feature_id": "942222", "name": "Mount Airy", "natural": "peak"}}, {"name": "Bald Hill", "latitude": 41.3306493, "longitude": -74.1748688, "elevation": 266.0, "source": "osm", "_tags": {"ele": "266", "gnis:feature_id": "942852", "name": "Bald Hill", "natural": "peak"}}, {"name": "Balsam Cap", "latitude": 41.977089, "longitude": -74.3574212, "elevation": 1104.0, "source": "osm", "_tags": {"ele": "1104", "gnis:feature_id": "942944", "name": "Balsam Cap", "natural": "peak", "wikidata": "Q4852530"}}, {"name": "Balsam Lake Mountain", "latitude": 42.0459236, "longitude": -74.5940438, "elevation": 1136.0, "source": "osm", "_tags": {"ele": "1136", "gnis:feature_id": "942952", "name": "Balsam Lake Mountain", "natural": "peak", "wikidata": "Q4852536", "wikipedia": "en:Balsam Lake Mountain"}}, {"name": "Balsam Mountain", "latitude": 42.0909235, "longitude": -74.4882082, "elevation": 1098.0, "source": "osm", "_tags": {"ele": "1098", "gnis:feature_id": "942953", "name": "Balsam Mountain", "natural": "peak", "wikidata": "Q4852538"}}, {"name": "Balsam Mountain", "latitude": 42.1836992, "longitude": -74.387371, "elevation": 1022.0, "source": "osm", "_tags": {"ele": "1022", "gnis:feature_id": "942954", "name": "Balsam Mountain", "natural": "peak", "wikidata": "Q34804175"}}, {"name": "Bangle Hill", "latitude": 41.9064817, "longitude": -74.432931, "elevation": 715.0, "source": "osm", "_tags": {"ele": "715", "gnis:feature_id": "942961", "name": "Bangle Hill", "natural": "peak", "wikidata": "Q34804188"}}, {"name": "Bare Rock Mountain", "latitude": 41.3670383, "longitude": -73.9856954, "elevation": 373.0, "source": "osm", "_tags": {"ele": "373", "gnis:feature_id": "943003", "name": "Bare Rock Mountain", "natural": "peak"}}, {"name": "Barnes Hill", "latitude": 41.8037044, "longitude": -73.849578, "elevation": 165.0, "source": "osm", "_tags": {"ele": "165", "gnis:feature_id": "943046", "name": "Barnes Hill", "natural": "peak", "wikidata": "Q34804324"}}, {"name": "Bear Hill", "latitude": 41.6673158, "longitude": -74.3968214, "elevation": 593.0, "source": "osm", "_tags": {"ele": "593", "gnis:feature_id": "943267", "name": "Bear Hill", "natural": "peak"}}, {"name": "North Bearpen Mountain", "latitude": 42.2734189, "longitude": -74.4840396, "elevation": 1076.0, "source": "osm", "_tags": {"ele": "1076", "name": "North Bearpen Mountain", "natural": "peak"}}, {"name": "Beckwith Hill", "latitude": 42.0389801, "longitude": -73.8881888, "elevation": 115.0, "source": "osm", "_tags": {"ele": "115", "gnis:feature_id": "943479", "name": "Beckwith Hill", "natural": "peak", "wikidata": "Q34804808"}}, {"name": "Becraft Hills", "latitude": 42.2223099, "longitude": -73.785126, "elevation": 100.0, "source": "osm", "_tags": {"ele": "100", "gnis:feature_id": "943481", "name": "Becraft Hills", "natural": "peak"}}, {"name": "Beetree Hill", "latitude": 42.0506109, "longitude": -74.1879688, "elevation": 554.0, "source": "osm", "_tags": {"ele": "554", "gnis:feature_id": "943562", "name": "Beetree Hill", "natural": "peak", "wikidata": "Q34804927"}}, {"name": "Bellvale Mountain", "latitude": 41.294538, "longitude": -74.2479267, "elevation": 258.0, "source": "osm", "_tags": {"ele": "258", "gnis:feature_id": "943631", "name": "Bellvale Mountain", "natural": "peak"}}, {"name": "Burger Hill", "latitude": 41.9178703, "longitude": -73.8776341, "elevation": 170.0, "source": "osm", "_tags": {"ele": "170", "gnis:feature_id": "943726", "name": "Burger Hill", "natural": "peak", "wikidata": "Q34805069"}}, {"name": "Big Buck Mountain", "latitude": 41.4948155, "longitude": -73.7165195, "elevation": 340.0, "source": "osm", "_tags": {"ele": "340", "gnis:feature_id": "943857", "name": "Big Buck Mountain", "natural": "peak", "wikidata": "Q34805191"}}, {"name": "Big Indian Mountain", "latitude": 42.0349959, "longitude": -74.4966494, "elevation": 1122.0, "source": "osm", "_tags": {"ele": "1122", "gnis:feature_id": "943907", "name": "Big Indian Mountain", "natural": "peak", "wikidata": "Q4905867"}}, {"name": "Big Rosy Bone Knob", "latitude": 41.8984261, "longitude": -74.3448728, "elevation": 677.0, "source": "osm", "_tags": {"ele": "677", "gnis:feature_id": "943947", "name": "Big Rosy Bone Knob", "natural": "peak", "wikidata": "Q34805335"}}, {"name": "Black Rock", "latitude": 41.4081494, "longitude": -74.0215298, "elevation": 424.0, "source": "osm", "_tags": {"ele": "424", "gnis:feature_id": "944186", "name": "Black Rock", "natural": "peak"}}, {"name": "Blackcap Mountain", "latitude": 41.3317605, "longitude": -74.0865323, "elevation": 416.0, "source": "osm", "_tags": {"ele": "416", "gnis:feature_id": "944196", "name": "Blackcap Mountain", "natural": "peak"}}, {"name": "Blue Hill", "latitude": 41.9117578, "longitude": -74.619046, "elevation": 838.0, "source": "osm", "_tags": {"ele": "838", "gnis:feature_id": "944305", "name": "Blue Hill", "natural": "peak", "wikidata": "Q34805740"}}, {"name": "Blue Hill", "latitude": 42.1848106, "longitude": -73.8151278, "elevation": 201.0, "source": "osm", "_tags": {"ele": "201", "gnis:feature_id": "944306", "name": "Blue Hill", "natural": "peak"}}, {"name": "Boice Hill", "latitude": 41.9323146, "longitude": -73.8248543, "elevation": 229.0, "source": "osm", "_tags": {"ele": "229", "gnis:feature_id": "944397", "name": "Boice Hill", "natural": "peak", "wikidata": "Q34805863"}}, {"name": "Bonticou Crag", "latitude": 41.7889821, "longitude": -74.1179215, "elevation": 350.0, "source": "osm", "_tags": {"ele": "350", "gnis:feature_id": "944436", "name": "Bonticou Crag", "natural": "peak", "wikidata": "Q34805895"}}, {"name": "Breath Hill", "latitude": 41.9364815, "longitude": -74.3551505, "elevation": 769.0, "source": "osm", "_tags": {"ele": "769", "gnis:feature_id": "944675", "name": "Breath Hill", "natural": "peak"}}, {"name": "Breeze Hill", "latitude": 41.350372, "longitude": -74.4626577, "elevation": 183.0, "source": "osm", "_tags": {"ele": "183", "gnis:feature_id": "944683", "name": "Breeze Hill", "natural": "peak"}}, {"name": "Briggs Mountain", "latitude": 41.9917586, "longitude": -73.755407, "elevation": 266.0, "source": "osm", "_tags": {"ele": "266", "gnis:feature_id": "944741", "name": "Briggs Mountain", "natural": "peak", "wikidata": "Q34806218"}}, {"name": "Brimstone Mountain", "latitude": 41.3081493, "longitude": -74.2779279, "elevation": 284.0, "source": "osm", "_tags": {"ele": "284", "gnis:feature_id": "944755", "name": "Brimstone Mountain", "natural": "peak"}}, {"name": "Brooks Mountain", "latitude": 41.3306494, "longitude": -74.0720874, "elevation": 325.0, "source": "osm", "_tags": {"ele": "325", "gnis:feature_id": "944863", "name": "Brooks Mountain", "natural": "peak"}}, {"name": "Bryant Hill", "latitude": 41.3867604, "longitude": -73.8020783, "elevation": 257.0, "source": "osm", "_tags": {"ele": "257", "gnis:feature_id": "944992", "name": "Bryant Hill", "natural": "peak", "wikidata": "Q34806438"}}, {"name": "Buchanan Hill", "latitude": 41.4912049, "longitude": -74.1423678, "elevation": 198.0, "source": "osm", "_tags": {"ele": "198", "gnis:feature_id": "945007", "name": "Buchanan Hill", "natural": "peak"}}, {"name": "Bull Hill", "latitude": 41.3500938, "longitude": -74.0720874, "elevation": 423.0, "source": "osm", "_tags": {"ele": "423", "gnis:feature_id": "945126", "name": "Bull Hill", "natural": "peak"}}, {"name": "Bull Mine Mountain", "latitude": 41.3656493, "longitude": -74.2015364, "elevation": 267.0, "source": "osm", "_tags": {"ele": "267", "gnis:feature_id": "945130", "name": "Bull Mine Mountain", "natural": "peak"}}, {"name": "Burnt Hill", "latitude": 42.2589745, "longitude": -74.6854334, "elevation": 884.0, "source": "osm", "_tags": {"ele": "884", "gnis:feature_id": "945244", "name": "Burnt Hill", "natural": "peak", "wikidata": "Q34807065"}}, {"name": "California Hill", "latitude": 41.4373157, "longitude": -73.7762439, "elevation": 359.0, "source": "osm", "_tags": {"ele": "359", "gnis:feature_id": "945461", "name": "California Hill", "natural": "peak", "wikidata": "Q34807383"}}, {"name": "Canada Hill", "latitude": 41.3367606, "longitude": -73.9479165, "elevation": 257.0, "source": "osm", "_tags": {"ele": "257", "gnis:feature_id": "945724", "name": "Canada Hill", "natural": "peak", "wikidata": "Q34807513"}}, {"name": "Candlewood Hill", "latitude": 41.415927, "longitude": -73.8493019, "elevation": 300.0, "source": "osm", "_tags": {"ele": "300", "gnis:feature_id": "945762", "name": "Candlewood Hill", "natural": "peak", "wikidata": "Q34807552"}}, {"name": "Cannon Hills", "latitude": 41.790927, "longitude": -73.735685, "elevation": 220.0, "source": "osm", "_tags": {"ele": "220", "gnis:feature_id": "945779", "name": "Cannon Hills", "natural": "peak", "wikidata": "Q34807574"}}, {"name": "Carl Mountain", "latitude": 42.0959235, "longitude": -74.2482011, "elevation": 879.0, "source": "osm", "_tags": {"ele": "879", "gnis:feature_id": "945834", "name": "Carl Mountain", "natural": "peak", "wikidata": "Q34807626"}}, {"name": "Castle Hill", "latitude": 41.3843574, "longitude": -74.5374882, "elevation": 294.0, "source": "osm", "_tags": {"ele": "294", "gnis:feature_id": "945991", "name": "Castle Hill", "natural": "peak"}}, {"name": "Castle Rock", "latitude": 41.367316, "longitude": -73.935416, "elevation": 191.0, "source": "osm", "_tags": {"ele": "191", "gnis:feature_id": "945997", "name": "Castle Rock", "natural": "peak", "wikidata": "Q34807843"}}, {"name": "Cat Hill", "latitude": 41.342316, "longitude": -73.8912481, "elevation": 225.0, "source": "osm", "_tags": {"ele": "225", "gnis:feature_id": "946010", "name": "Cat Hill", "natural": "peak", "wikidata": "Q34807864"}}, {"name": "Cat Rock", "latitude": 41.3631494, "longitude": -73.9212489, "elevation": 224.0, "source": "osm", "_tags": {"ele": "224", "gnis:feature_id": "946020", "name": "Cat Rock", "natural": "peak", "wikidata": "Q34807920"}}, {"name": "Cator Roundtop", "latitude": 42.2536973, "longitude": -74.5718199, "elevation": 874.0, "source": "osm", "_tags": {"ele": "874", "gnis:feature_id": "946059", "name": "Cator Roundtop", "natural": "peak", "wikidata": "Q34808066"}}, {"name": "Cave Mountain", "latitude": 42.2859185, "longitude": -74.2462543, "elevation": 947.0, "source": "osm", "_tags": {"ele": "947", "gnis:feature_id": "946079", "name": "Cave Mountain", "natural": "peak", "wikidata": "Q34808196"}}, {"name": "Church Hill", "latitude": 42.2181435, "longitude": -73.8287388, "elevation": 147.0, "source": "osm", "_tags": {"ele": "147", "gnis:feature_id": "946686", "name": "Church Hill", "natural": "peak", "wikidata": "Q34808735"}}, {"name": "Clapp Hill", "latitude": 41.6328715, "longitude": -73.7156854, "elevation": 270.0, "source": "osm", "_tags": {"ele": "270", "gnis:feature_id": "946727", "name": "Clapp Hill", "natural": "peak", "wikidata": "Q34808768"}}, {"name": "Clove Mountain", "latitude": 41.6884272, "longitude": -73.6929068, "elevation": 426.0, "source": "osm", "_tags": {"ele": "426", "gnis:feature_id": "946925", "name": "Clove Mountain", "natural": "peak", "wikidata": "Q8523536"}}, {"name": "Clover Hill", "latitude": 41.6634269, "longitude": -73.8587457, "elevation": 112.0, "source": "osm", "_tags": {"ele": "112", "gnis:feature_id": "946931", "name": "Clover Hill", "natural": "peak", "wikidata": "Q34808923"}}, {"name": "Clum Hill", "latitude": 42.1839774, "longitude": -74.1315286, "elevation": 727.0, "source": "osm", "_tags": {"ele": "727", "gnis:feature_id": "946937", "name": "Clum Hill", "natural": "peak"}}, {"name": "Cole Hill", "latitude": 42.1473099, "longitude": -74.6823783, "elevation": 721.0, "source": "osm", "_tags": {"ele": "721", "gnis:feature_id": "947102", "name": "Cole Hill", "natural": "peak", "wikidata": "Q34809191"}}, {"name": "Coles Hill", "latitude": 41.9781476, "longitude": -73.7520736, "elevation": 219.0, "source": "osm", "_tags": {"ele": "219", "gnis:feature_id": "947122", "name": "Coles Hill", "natural": "peak", "wikidata": "Q34809206"}}, {"name": "Colonels Chair", "latitude": 42.2006434, "longitude": -74.2306991, "elevation": 975.0, "source": "osm", "_tags": {"ele": "975", "gnis:feature_id": "947168", "name": "Colonels Chair", "natural": "peak", "wikidata": "Q34809269"}}, {"name": "Mount Concert", "latitude": 41.9662032, "longitude": -73.7612407, "elevation": 252.0, "source": "osm", "_tags": {"ele": "252", "gnis:feature_id": "947252", "name": "Mount Concert", "natural": "peak", "wikidata": "Q34880831"}}, {"name": "Cookingham Hill", "latitude": 41.863704, "longitude": -73.8704118, "elevation": 173.0, "source": "osm", "_tags": {"ele": "173", "gnis:feature_id": "947354", "name": "Cookingham Hill", "natural": "peak", "wikidata": "Q34809486"}}, {"name": "Cranberry Hill", "latitude": 41.3084271, "longitude": -74.0568092, "elevation": 374.0, "source": "osm", "_tags": {"ele": "374", "gnis:feature_id": "947656", "name": "Cranberry Hill", "natural": "peak"}}, {"name": "Cranberry Mountain", "latitude": 41.3500938, "longitude": -74.0181966, "elevation": 366.0, "source": "osm", "_tags": {"ele": "366", "gnis:feature_id": "947665", "name": "Cranberry Mountain", "natural": "peak"}}, {"name": "Cronomer Hill", "latitude": 41.5364826, "longitude": -74.0462527, "elevation": 220.0, "source": "osm", "_tags": {"ele": "220", "gnis:feature_id": "947769", "name": "Cronomer Hill", "natural": "peak"}}, {"name": "Cross Hill", "latitude": 42.0870347, "longitude": -73.8931881, "elevation": 93.0, "source": "osm", "_tags": {"ele": "93", "gnis:feature_id": "947803", "name": "Cross Hill", "natural": "peak"}}, {"name": "Cross Mountain", "latitude": 42.0195363, "longitude": -74.3165372, "elevation": 763.0, "source": "osm", "_tags": {"ele": "763", "gnis:feature_id": "947805", "name": "Cross Mountain", "natural": "peak"}}, {"name": "Denman Mountain", "latitude": 41.90287, "longitude": -74.5396005, "elevation": 929.0, "source": "osm", "_tags": {"ele": "929", "gnis:feature_id": "948300", "name": "Denman Mountain", "natural": "peak", "wikidata": "Q49024264"}}, {"name": "Denning Hill", "latitude": 41.372316, "longitude": -73.9062484, "elevation": 309.0, "source": "osm", "_tags": {"ele": "309", "gnis:feature_id": "948308", "name": "Denning Hill", "natural": "peak", "wikidata": "Q49024273"}}, {"name": "Dennis Hill", "latitude": 41.7909267, "longitude": -73.8501337, "elevation": 168.0, "source": "osm", "_tags": {"ele": "168", "gnis:feature_id": "948311", "name": "Dennis Hill", "natural": "peak", "wikidata": "Q49024277"}}, {"name": "Mount Don Bosco", "latitude": 41.6867602, "longitude": -74.3659869, "elevation": 572.0, "source": "osm", "_tags": {"ele": "572", "gnis:feature_id": "948564", "name": "Mount Don Bosco", "natural": "peak", "wikidata": "Q34881053"}}, {"name": "Doty Hill", "latitude": 41.982592, "longitude": -73.7890194, "elevation": 206.0, "source": "osm", "_tags": {"ele": "206", "gnis:feature_id": "948596", "name": "Doty Hill", "natural": "peak", "wikidata": "Q49025567"}}, {"name": "Durland Hill", "latitude": 41.3362048, "longitude": -74.2145924, "elevation": 257.0, "source": "osm", "_tags": {"ele": "257", "gnis:feature_id": "948837", "name": "Durland Hill", "natural": "peak"}}, {"name": "Durland Hill", "latitude": 41.3378716, "longitude": -74.2804282, "elevation": 256.0, "source": "osm", "_tags": {"ele": "256", "gnis:feature_id": "948838", "name": "Durland Hill", "natural": "peak"}}, {"name": "Eagle Mountain", "latitude": 42.0620352, "longitude": -74.50932, "elevation": 1098.0, "source": "osm", "_tags": {"ele": "1098", "gnis:feature_id": "948930", "name": "Eagle Mountain", "natural": "peak", "wikidata": "Q5325167"}}, {"name": "East Jewett Range", "latitude": 42.2353649, "longitude": -74.2043087, "elevation": 897.0, "source": "osm", "_tags": {"ele": "897", "gnis:feature_id": "949142", "name": "East Jewett Range", "natural": "peak"}}, {"name": "East Mountain", "latitude": 41.8542597, "longitude": -74.4445989, "elevation": 699.0, "source": "osm", "_tags": {"ele": "699", "gnis:feature_id": "949179", "name": "East Mountain", "natural": "peak"}}, {"name": "Mount Eve", "latitude": 41.3014832, "longitude": -74.4146, "elevation": 324.0, "source": "osm", "_tags": {"ele": "324", "gnis:feature_id": "949742", "name": "Mount Eve", "natural": "peak"}}, {"name": "Evergreen Mountain", "latitude": 42.2117542, "longitude": -74.3079238, "elevation": 1027.0, "source": "osm", "_tags": {"ele": "1027", "gnis:feature_id": "949776", "name": "Evergreen Mountain", "natural": "peak", "wikidata": "Q34822182"}}, {"name": "Fir Mountain", "latitude": 42.0275916, "longitude": -74.4690414, "elevation": 1106.0, "source": "osm", "_tags": {"ele": "1106", "gnis:feature_id": "950082", "name": "Fir Mountain", "natural": "peak", "wikidata": "Q5451209"}}, {"name": "Flat Hill", "latitude": 41.8770373, "longitude": -74.3576513, "elevation": 598.0, "source": "osm", "_tags": {"ele": "598", "gnis:feature_id": "950241", "name": "Flat Hill", "natural": "peak", "wikidata": "Q34868953"}}, {"name": "Fleischmann Mountain", "latitude": 42.1434219, "longitude": -74.5637649, "elevation": 887.0, "source": "osm", "_tags": {"ele": "887", "gnis:feature_id": "950270", "name": "Fleischmann Mountain", "natural": "peak", "wikidata": "Q34869107"}}, {"name": "Fly Mountain", "latitude": 41.8917593, "longitude": -74.0381957, "elevation": 99.0, "source": "osm", "_tags": {"ele": "99", "gnis:feature_id": "950340", "name": "Fly Mountain", "natural": "peak", "wikidata": "Q34869285"}}, {"name": "Fort Hill", "latitude": 41.3734271, "longitude": -73.9248601, "elevation": 248.0, "source": "osm", "_tags": {"ele": "248", "gnis:feature_id": "950476", "name": "Fort Hill", "natural": "peak", "wikidata": "Q34822364"}}, {"name": "Friday Mountain", "latitude": 41.9875924, "longitude": -74.3620944, "elevation": 1125.0, "source": "osm", "_tags": {"ele": "1125", "gnis:feature_id": "950728", "name": "Friday Mountain", "natural": "peak", "wikidata": "Q5503503"}}, {"name": "Gallis Hill", "latitude": 41.9559256, "longitude": -74.068752, "elevation": 240.0, "source": "osm", "_tags": {"ele": "240", "gnis:feature_id": "950853", "name": "Gallis Hill", "natural": "peak", "wikidata": "Q34915494"}}, {"name": "Garfield Mountain", "latitude": 42.0912014, "longitude": -74.3665379, "elevation": 787.0, "source": "osm", "_tags": {"ele": "787", "gnis:feature_id": "950906", "name": "Garfield Mountain", "natural": "peak", "wikidata": "Q34915666"}}, {"name": "Germond Hill", "latitude": 41.7459273, "longitude": -73.7095736, "elevation": 251.0, "source": "osm", "_tags": {"ele": "251", "gnis:feature_id": "951038", "name": "Germond Hill", "natural": "peak", "wikidata": "Q34916088"}}, {"name": "Golden Hill", "latitude": 41.9164813, "longitude": -74.019306, "elevation": 110.0, "source": "osm", "_tags": {"ele": "110", "gnis:feature_id": "951288", "name": "Golden Hill", "natural": "peak"}}, {"name": "Goose Pond Mountain", "latitude": 41.3425937, "longitude": -74.2523716, "elevation": 325.0, "source": "osm", "_tags": {"ele": "325", "gnis:feature_id": "951376", "name": "Goose Pond Mountain", "natural": "peak"}}, {"name": "Goshen Hills", "latitude": 41.3692606, "longitude": -74.3348749, "elevation": 194.0, "source": "osm", "_tags": {"ele": "194", "gnis:feature_id": "951402", "name": "Goshen Hills", "natural": "peak"}}, {"name": "Granite Mountain", "latitude": 41.3787048, "longitude": -73.8376351, "elevation": 284.0, "source": "osm", "_tags": {"ele": "284", "gnis:feature_id": "951502", "name": "Granite Mountain", "natural": "peak", "wikidata": "Q49032782"}}, {"name": "Green Hill", "latitude": 42.0489799, "longitude": -73.7134604, "elevation": 335.0, "source": "osm", "_tags": {"ele": "335", "gnis:feature_id": "951682", "name": "Green Hill", "natural": "peak"}}, {"name": "Guinea Hill", "latitude": 41.3823163, "longitude": -74.4398791, "elevation": 234.0, "source": "osm", "_tags": {"ele": "234", "gnis:feature_id": "951909", "name": "Guinea Hill", "natural": "peak"}}, {"name": "Guyot Hill", "latitude": 41.7848154, "longitude": -74.1259774, "elevation": 383.0, "source": "osm", "_tags": {"ele": "383", "gnis:feature_id": "951961", "name": "Guyot Hill", "natural": "peak", "wikidata": "Q34871224"}}, {"name": "Halcott Mountain", "latitude": 42.1800882, "longitude": -74.4379281, "elevation": 1074.0, "source": "osm", "_tags": {"ele": "1074", "gnis:feature_id": "952008", "name": "Halcott Mountain", "natural": "peak", "wikidata": "Q5641168"}}, {"name": "Halihan Hill", "latitude": 41.9898142, "longitude": -74.0190277, "elevation": 159.0, "source": "osm", "_tags": {"ele": "159", "gnis:feature_id": "952042", "name": "Halihan Hill", "natural": "peak", "wikidata": "Q34823025"}}, {"name": "Hallenbeck Hill", "latitude": 42.2714756, "longitude": -73.8323492, "elevation": 92.0, "source": "osm", "_tags": {"ele": "92", "gnis:feature_id": "952059", "name": "Hallenbeck Hill", "natural": "peak", "wikidata": "Q34823059"}}, {"name": "Hanover Mountain", "latitude": 41.9612037, "longitude": -74.3295938, "elevation": 777.0, "source": "osm", "_tags": {"ele": "777", "gnis:feature_id": "952176", "name": "Hanover Mountain", "natural": "peak", "wikidata": "Q34823241"}}, {"name": "Haynes Mountain", "latitude": 42.0792571, "longitude": -74.5079309, "elevation": 1044.0, "source": "osm", "_tags": {"ele": "1044", "gnis:feature_id": "952457", "name": "Haynes Mountain", "natural": "peak", "wikidata": "Q34823790"}}, {"name": "Hemlock Mountain", "latitude": 42.0128698, "longitude": -74.4390407, "elevation": 990.0, "source": "osm", "_tags": {"ele": "990", "gnis:feature_id": "952565", "name": "Hemlock Mountain", "natural": "peak", "wikidata": "Q34921769"}}, {"name": "Hicks Hill", "latitude": 41.9659255, "longitude": -73.7190173, "elevation": 299.0, "source": "osm", "_tags": {"ele": "299", "gnis:feature_id": "952698", "name": "Hicks Hill", "natural": "peak", "wikidata": "Q34922127"}}, {"name": "Kaaterskill High Peak", "latitude": 42.1622697, "longitude": -74.0802607, "elevation": 1111.0, "source": "osm", "_tags": {"ele": "1111", "gnis:feature_id": "952749", "name": "Kaaterskill High Peak", "natural": "peak", "note": "High Peak is official name. Locals call it Kaaterskill High Peak to distinguish it from other High Peaks in the area, notably Windham High Peak to the north.", "official_name": "High Peak", "summit:register": "yes", "wikidata": "Q6343625"}}, {"name": "High Point", "latitude": 41.7039824, "longitude": -74.3443193, "elevation": 684.0, "source": "osm", "_tags": {"ele": "684", "gnis:feature_id": "952752", "name": "High Point", "natural": "peak"}}, {"name": "Ashokan High Point", "latitude": 41.9248149, "longitude": -74.2879263, "elevation": 939.0, "source": "osm", "_tags": {"ele": "939", "gnis:feature_id": "952753", "name": "Ashokan High Point", "natural": "peak", "wikidata": "Q4805812"}}, {"name": "Hill of Pines", "latitude": 41.4025938, "longitude": -74.0087516, "elevation": 419.0, "source": "osm", "_tags": {"ele": "419", "gnis:feature_id": "952803", "name": "Hill of Pines", "natural": "peak"}}, {"name": "Hirams Knob", "latitude": 42.0981453, "longitude": -74.5418203, "elevation": 879.0, "source": "osm", "_tags": {"ele": "879", "gnis:feature_id": "952894", "name": "Hirams Knob", "natural": "peak", "wikidata": "Q34922499"}}, {"name": "Hitchcock Hill", "latitude": 41.4123158, "longitude": -73.7417984, "elevation": 292.0, "source": "osm", "_tags": {"ele": "292", "gnis:feature_id": "952898", "name": "Hitchcock Hill", "natural": "peak", "wikidata": "Q34922512"}}, {"name": "Hog Mountain", "latitude": 42.1823099, "longitude": -74.5718204, "elevation": 795.0, "source": "osm", "_tags": {"ele": "795", "gnis:feature_id": "952946", "name": "Hog Mountain", "natural": "peak", "wikidata": "Q34823905"}}, {"name": "Hogback Hill", "latitude": 41.8159264, "longitude": -73.919025, "elevation": 110.0, "source": "osm", "_tags": {"ele": "110", "gnis:feature_id": "952954", "name": "Hogback Hill", "natural": "peak", "wikidata": "Q34823975"}}, {"name": "Honness Mountain", "latitude": 41.5314824, "longitude": -73.8634685, "elevation": 276.0, "source": "osm", "_tags": {"ele": "276", "gnis:feature_id": "953154", "name": "Honness Mountain", "natural": "peak", "wikidata": "Q34922939"}}, {"name": "Hosner Mountain", "latitude": 41.5273155, "longitude": -73.7687432, "elevation": 366.0, "source": "osm", "_tags": {"ele": "366", "gnis:feature_id": "953267", "name": "Hosner Mountain", "natural": "peak", "wikidata": "Q34874441"}}, {"name": "Hussey Hill", "latitude": 41.8856481, "longitude": -73.9940275, "elevation": 276.0, "source": "osm", "_tags": {"ele": "276", "gnis:feature_id": "953535", "name": "Hussey Hill", "natural": "peak"}}, {"name": "Mount Ida", "latitude": 42.2614758, "longitude": -73.7320678, "elevation": 94.0, "source": "osm", "_tags": {"ele": "94", "gnis:feature_id": "953581", "name": "Mount Ida", "natural": "peak"}}, {"name": "Illinois Mountain", "latitude": 41.7203712, "longitude": -73.9948618, "elevation": 343.0, "source": "osm", "_tags": {"ele": "343", "gnis:feature_id": "953592", "name": "Illinois Mountain", "natural": "peak", "wikidata": "Q34824760"}}, {"name": "Indian Head Mountain", "latitude": 42.116201, "longitude": -74.1145846, "elevation": 1083.0, "source": "osm", "_tags": {"ele": "1083", "gnis:feature_id": "953655", "name": "Indian Head Mountain", "natural": "peak", "wikidata": "Q6020411"}}, {"name": "Indian Hill", "latitude": 41.3384271, "longitude": -73.8034675, "elevation": 231.0, "source": "osm", "_tags": {"ele": "231", "gnis:feature_id": "953657", "name": "Indian Hill", "natural": "peak"}}, {"name": "Jacobs Hill", "latitude": 41.3014828, "longitude": -73.8918038, "elevation": 184.0, "source": "osm", "_tags": {"ele": "184", "gnis:feature_id": "953908", "name": "Jacobs Hill", "natural": "peak"}}, {"name": "Jamieson Hill", "latitude": 41.8373155, "longitude": -73.7501297, "elevation": 184.0, "source": "osm", "_tags": {"ele": "184", "gnis:feature_id": "953934", "name": "Jamieson Hill", "natural": "peak", "wikidata": "Q34875951"}}, {"name": "Jockey Hill", "latitude": 41.9881477, "longitude": -74.0531956, "elevation": 177.0, "source": "osm", "_tags": {"ele": "177", "gnis:feature_id": "954045", "name": "Jockey Hill", "natural": "peak", "wikidata": "Q34876668"}}, {"name": "Joe Gee Hill", "latitude": 41.3950941, "longitude": -74.4959924, "elevation": 237.0, "source": "osm", "_tags": {"ele": "237", "gnis:feature_id": "954052", "name": "Joe Gee Hill", "natural": "peak"}}, {"name": "Johns Mountain", "latitude": 42.0519772, "longitude": -74.1810211, "elevation": 466.0, "source": "osm", "_tags": {"ele": "466", "gnis:feature_id": "954097", "name": "Johns Mountain", "natural": "peak", "wikidata": "Q34876823"}}, {"name": "Jones Hill", "latitude": 41.3228717, "longitude": -73.8443021, "elevation": 219.0, "source": "osm", "_tags": {"ele": "219", "gnis:feature_id": "954171", "name": "Jones Hill", "natural": "peak"}}, {"name": "Kettle Hill", "latitude": 42.1628655, "longitude": -74.6418219, "elevation": 669.0, "source": "osm", "_tags": {"ele": "669", "gnis:feature_id": "954564", "name": "Kettle Hill", "natural": "peak"}}, {"name": "Kiah Hill", "latitude": 41.4142603, "longitude": -73.8306902, "elevation": 315.0, "source": "osm", "_tags": {"ele": "315", "gnis:feature_id": "954581", "name": "Kiah Hill", "natural": "peak", "wikidata": "Q49041442"}}, {"name": "Kipp Hill", "latitude": 42.2756411, "longitude": -74.4245933, "elevation": 610.0, "source": "osm", "_tags": {"ele": "610", "gnis:feature_id": "954699", "name": "Kipp Hill", "natural": "peak", "wikidata": "Q49041853"}}, {"name": "Laurel Hill", "latitude": 41.3334277, "longitude": -74.516826, "elevation": 202.0, "source": "osm", "_tags": {"ele": "202", "gnis:feature_id": "955086", "name": "Laurel Hill", "natural": "peak"}}, {"name": "Lazy Hill", "latitude": 41.3364826, "longitude": -74.228204, "elevation": 255.0, "source": "osm", "_tags": {"ele": "255", "gnis:feature_id": "955126", "name": "Lazy Hill", "natural": "peak"}}, {"name": "Leroy Mountain", "latitude": 41.8498151, "longitude": -73.8804123, "elevation": 169.0, "source": "osm", "_tags": {"ele": "169", "gnis:feature_id": "955221", "name": "Leroy Mountain", "natural": "peak", "wikidata": "Q34923839"}}, {"name": "Listening Hill", "latitude": 41.3637049, "longitude": -74.0184744, "elevation": 362.0, "source": "osm", "_tags": {"ele": "362", "gnis:feature_id": "955435", "name": "Listening Hill", "natural": "peak"}}, {"name": "Little Buck Mountain", "latitude": 41.4845378, "longitude": -73.7112416, "elevation": 289.0, "source": "osm", "_tags": {"ele": "289", "gnis:feature_id": "955472", "name": "Little Buck Mountain", "natural": "peak", "wikidata": "Q34826301"}}, {"name": "Little Fort Hill", "latitude": 41.3614827, "longitude": -73.910693, "elevation": 244.0, "source": "osm", "_tags": {"ele": "244", "gnis:feature_id": "955531", "name": "Little Fort Hill", "natural": "peak", "wikidata": "Q34826521"}}, {"name": "Little Rocky", "latitude": 41.9187038, "longitude": -74.3320944, "elevation": 917.0, "source": "osm", "_tags": {"ele": "917", "gnis:feature_id": "955665", "name": "Little Rocky", "natural": "peak"}}, {"name": "Little Rocky Mountain", "latitude": 42.1150898, "longitude": -74.2040325, "elevation": 930.0, "source": "osm", "_tags": {"ele": "930", "gnis:feature_id": "955666", "name": "Little Rocky Mountain", "natural": "peak", "wikidata": "Q34924614"}}, {"name": "Little Roundtop", "latitude": 42.0870347, "longitude": -73.8729095, "elevation": 92.0, "source": "osm", "_tags": {"ele": "92", "gnis:feature_id": "955670", "name": "Little Roundtop", "natural": "peak"}}, {"name": "Little Tonshi Mountain", "latitude": 41.9995367, "longitude": -74.2009784, "elevation": 553.0, "source": "osm", "_tags": {"ele": "553", "gnis:feature_id": "955712", "name": "Little Tonshi Mountain", "natural": "peak", "wikidata": "Q34924793"}}, {"name": "Lloyd Hill", "latitude": 41.821482, "longitude": -73.8868016, "elevation": 183.0, "source": "osm", "_tags": {"ele": "183", "gnis:feature_id": "955764", "name": "Lloyd Hill", "natural": "peak", "wikidata": "Q34924908"}}, {"name": "Lone Mountain", "latitude": 41.9691794, "longitude": -74.3900258, "elevation": 1134.0, "source": "osm", "_tags": {"ele": "1134", "gnis:feature_id": "955819", "name": "Lone Mountain", "natural": "peak", "wikidata": "Q6671314"}}, {"name": "Long Mountain", "latitude": 41.3284271, "longitude": -74.0431975, "elevation": 355.0, "source": "osm", "_tags": {"ele": "355", "gnis:feature_id": "955885", "name": "Long Mountain", "natural": "peak"}}, {"name": "Long Pond Mountain", "latitude": 41.3700938, "longitude": -74.034586, "elevation": 384.0, "source": "osm", "_tags": {"ele": "384", "gnis:feature_id": "955927", "name": "Long Pond Mountain", "natural": "peak"}}, {"name": "Mount Lookout", "latitude": 41.3595384, "longitude": -74.360987, "elevation": 202.0, "source": "osm", "_tags": {"ele": "202", "gnis:feature_id": "955957", "name": "Mount Lookout", "natural": "peak"}}, {"name": "Losees Hill", "latitude": 41.6692603, "longitude": -74.3720983, "elevation": 647.0, "source": "osm", "_tags": {"ele": "647", "gnis:feature_id": "956001", "name": "Losees Hill", "natural": "peak", "wikidata": "Q34926031"}}, {"name": "Maben Hill", "latitude": 42.2723079, "longitude": -74.3957036, "elevation": 557.0, "source": "osm", "_tags": {"ele": "557", "gnis:feature_id": "956215", "name": "Maben Hill", "natural": "peak", "wikidata": "Q34926506"}}, {"name": "Manitou Mountain", "latitude": 41.3089828, "longitude": -73.9562503, "elevation": 236.0, "source": "osm", "_tags": {"ele": "236", "gnis:feature_id": "956358", "name": "Manitou Mountain", "natural": "peak"}}, {"name": "Maple Island", "latitude": 41.3423163, "longitude": -74.4062665, "elevation": 129.0, "source": "osm", "_tags": {"ele": "129", "gnis:feature_id": "956429", "name": "Maple Island", "natural": "peak"}}, {"name": "Mount Marion", "latitude": 42.0614798, "longitude": -73.9937478, "elevation": 223.0, "source": "osm", "_tags": {"ele": "223", "gnis:feature_id": "956529", "name": "Mount Marion", "natural": "peak"}}, {"name": "Marlboro Mountain", "latitude": 41.6789823, "longitude": -74.0120846, "elevation": 340.0, "source": "osm", "_tags": {"ele": "340", "gnis:feature_id": "956545", "name": "Marlboro Mountain", "natural": "peak"}}, {"name": "Meade Hill", "latitude": 42.1459216, "longitude": -74.590432, "elevation": 692.0, "source": "osm", "_tags": {"ele": "692", "gnis:feature_id": "956868", "name": "Meade Hill", "natural": "peak", "wikidata": "Q34827261"}}, {"name": "Mount Meenahga", "latitude": 41.6923157, "longitude": -74.3770983, "elevation": 532.0, "source": "osm", "_tags": {"ele": "532", "gnis:feature_id": "956916", "name": "Mount Meenahga", "natural": "peak", "wikidata": "Q34882407"}}, {"name": "Mount Merino", "latitude": 42.2350875, "longitude": -73.8173491, "elevation": 153.0, "source": "osm", "_tags": {"ele": "153", "gnis:feature_id": "956985", "name": "Mount Merino", "natural": "peak"}}, {"name": "Merritts Island", "latitude": 41.3128022, "longitude": -74.4839093, "elevation": 134.0, "source": "osm", "_tags": {"ele": "134", "gnis:feature_id": "957015", "name": "Merritts Island", "natural": "peak"}}, {"name": "Merry Hill", "latitude": 41.6578714, "longitude": -73.8618013, "elevation": 107.0, "source": "osm", "_tags": {"ele": "107", "gnis:feature_id": "957017", "name": "Merry Hill", "natural": "peak", "wikidata": "Q34827455"}}, {"name": "Miller Hill", "latitude": 41.5125934, "longitude": -73.6951299, "elevation": 303.0, "source": "osm", "_tags": {"ele": "303", "gnis:feature_id": "957308", "name": "Miller Hill", "natural": "peak", "wikidata": "Q34828001"}}, {"name": "Mills Hill", "latitude": 41.4074047, "longitude": -74.4735011, "elevation": 221.0, "source": "osm", "_tags": {"ele": "221", "gnis:feature_id": "957350", "name": "Mills Hill", "natural": "peak"}}, {"name": "Mine Mountain", "latitude": 41.3248161, "longitude": -73.950139, "elevation": 262.0, "source": "osm", "_tags": {"ele": "262", "gnis:feature_id": "957389", "name": "Mine Mountain", "natural": "peak"}}, {"name": "Mombaccus Mountain", "latitude": 41.909815, "longitude": -74.3112605, "elevation": 865.0, "source": "osm", "_tags": {"ele": "865", "gnis:feature_id": "957499", "name": "Mombaccus Mountain", "natural": "peak", "wikidata": "Q34927139"}}, {"name": "Money Ledge Hill", "latitude": 41.5098155, "longitude": -73.7276309, "elevation": 338.0, "source": "osm", "_tags": {"ele": "338", "gnis:feature_id": "957507", "name": "Money Ledge Hill", "natural": "peak", "wikidata": "Q34927168"}}, {"name": "Mongaup Mountain", "latitude": 41.9909235, "longitude": -74.6840456, "elevation": 842.0, "source": "osm", "_tags": {"ele": "842", "gnis:feature_id": "957515", "name": "Mongaup Mountain", "natural": "peak"}}, {"name": "Monka Hill", "latitude": 42.1570331, "longitude": -74.4865409, "elevation": 757.0, "source": "osm", "_tags": {"ele": "757", "gnis:feature_id": "957524", "name": "Monka Hill", "natural": "peak", "wikidata": "Q34927203"}}, {"name": "Moose Hill", "latitude": 41.4259268, "longitude": -73.7842997, "elevation": 330.0, "source": "osm", "_tags": {"ele": "330", "gnis:feature_id": "957618", "name": "Moose Hill", "natural": "peak", "wikidata": "Q34879667"}}, {"name": "Morgan Hill", "latitude": 41.9620367, "longitude": -74.1045865, "elevation": 195.0, "source": "osm", "_tags": {"ele": "195", "gnis:feature_id": "957663", "name": "Morgan Hill", "natural": "peak"}}, {"name": "Morris Hill", "latitude": 42.1734211, "longitude": -74.5968209, "elevation": 704.0, "source": "osm", "_tags": {"ele": "704", "gnis:feature_id": "957691", "name": "Morris Hill", "natural": "peak", "wikidata": "Q34880020"}}, {"name": "Nimham Mount", "latitude": 41.461407, "longitude": -73.7250815, "elevation": 388.0, "source": "osm", "_tags": {"ele": "388", "gnis:feature_id": "958590", "name": "Nimham Mount", "natural": "peak", "wikidata": "Q34882764"}}, {"name": "North Dome", "latitude": 42.1737313, "longitude": -74.3490128, "elevation": 1096.0, "source": "osm", "_tags": {"ele": "1096", "gnis:feature_id": "958771", "name": "North Dome", "natural": "peak", "wikidata": "Q8526324"}}, {"name": "North Mountain", "latitude": 42.2175881, "longitude": -74.0487469, "elevation": 971.0, "source": "osm", "_tags": {"ele": "971", "gnis:feature_id": "958859", "name": "North Mountain", "natural": "peak", "wikidata": "Q8520739"}}, {"name": "Ohayo Mountain", "latitude": 42.0120364, "longitude": -74.1501432, "elevation": 423.0, "source": "osm", "_tags": {"ele": "423", "gnis:feature_id": "959229", "name": "Ohayo Mountain", "natural": "peak", "wikidata": "Q34887341"}}, {"name": "Old Attlebury Hill", "latitude": 41.9039816, "longitude": -73.708184, "elevation": 169.0, "source": "osm", "_tags": {"ele": "169", "gnis:feature_id": "959248", "name": "Old Attlebury Hill", "natural": "peak", "wikidata": "Q34887430"}}, {"name": "Old Roundtop", "latitude": 41.9223147, "longitude": -73.7548517, "elevation": 271.0, "source": "osm", "_tags": {"ele": "271", "gnis:feature_id": "959313", "name": "Old Roundtop", "natural": "peak", "wikidata": "Q34887585"}}, {"name": "Olderbark Mountain", "latitude": 42.1142565, "longitude": -74.1909765, "elevation": 1048.0, "source": "osm", "_tags": {"ele": "1048", "gnis:feature_id": "959335", "name": "Olderbark Mountain", "natural": "peak", "wikidata": "Q34887598"}}, {"name": "Onteora Mountain", "latitude": 42.2223098, "longitude": -74.1679184, "elevation": 985.0, "source": "osm", "_tags": {"ele": "985", "gnis:feature_id": "959412", "name": "Onteora Mountain", "natural": "peak", "wikidata": "Q34828236"}}, {"name": "Osborne Hill", "latitude": 41.5456492, "longitude": -73.9081922, "elevation": 96.0, "source": "osm", "_tags": {"ele": "96", "gnis:feature_id": "959500", "name": "Osborne Hill", "natural": "peak", "wikidata": "Q34828378"}}, {"name": "Overlook Mountain", "latitude": 42.0850792, "longitude": -74.0932336, "elevation": 956.0, "source": "osm", "_tags": {"ele": "956", "gnis:feature_id": "959659", "name": "Overlook Mountain", "natural": "peak", "wikidata": "Q7113811"}}, {"name": "Pakatakan Mountain", "latitude": 42.1381438, "longitude": -74.6409887, "elevation": 743.0, "source": "osm", "_tags": {"ele": "743", "gnis:feature_id": "959767", "name": "Pakatakan Mountain", "natural": "peak", "wikidata": "Q34828634"}}, {"name": "Panther Mountain", "latitude": 42.0564799, "longitude": -74.3945946, "elevation": 1135.0, "source": "osm", "_tags": {"ele": "1135", "gnis:feature_id": "959820", "name": "Panther Mountain", "natural": "peak", "wikidata": "Q7131803"}}, {"name": "Parker Mountain", "latitude": 42.2228655, "longitude": -74.1395839, "elevation": 863.0, "source": "osm", "_tags": {"ele": "863", "gnis:feature_id": "959909", "name": "Parker Mountain", "natural": "peak", "wikidata": "Q34889110"}}, {"name": "Piano Mountain", "latitude": 41.3467605, "longitude": -73.8273571, "elevation": 299.0, "source": "osm", "_tags": {"ele": "299", "gnis:feature_id": "960326", "name": "Piano Mountain", "natural": "peak", "wikidata": "Q34891380"}}, {"name": "Pine Hill", "latitude": 41.329816, "longitude": -74.2934842, "elevation": 253.0, "source": "osm", "_tags": {"ele": "253", "gnis:feature_id": "960460", "name": "Pine Hill", "natural": "peak"}}, {"name": "Pink Hill", "latitude": 41.9012036, "longitude": -74.0456959, "elevation": 144.0, "source": "osm", "_tags": {"ele": "144", "gnis:feature_id": "960592", "name": "Pink Hill", "natural": "peak"}}, {"name": "Platt Hill", "latitude": 41.7570384, "longitude": -73.7187404, "elevation": 253.0, "source": "osm", "_tags": {"ele": "253", "gnis:feature_id": "960681", "name": "Platt Hill", "natural": "peak", "wikidata": "Q34895938"}}, {"name": "Plattekill Mountain", "latitude": 42.1073123, "longitude": -74.0865281, "elevation": 942.0, "source": "osm", "_tags": {"ele": "942", "gnis:feature_id": "960694", "name": "Plattekill Mountain", "natural": "peak", "wikidata": "Q34896016"}}, {"name": "Plattekill Mountain", "latitude": 42.2667522, "longitude": -74.6482102, "elevation": 996.0, "source": "osm", "_tags": {"ele": "996", "gnis:feature_id": "960695", "name": "Plattekill Mountain", "natural": "peak", "wikidata": "Q34929323"}}, {"name": "Mount Pleasant", "latitude": 42.0342583, "longitude": -74.3082035, "elevation": 857.0, "source": "osm", "_tags": {"ele": "857", "gnis:feature_id": "960741", "name": "Mount Pleasant", "natural": "peak"}}, {"name": "Point Peter", "latitude": 41.3814825, "longitude": -74.6904406, "elevation": 256.0, "source": "osm", "_tags": {"ele": "256", "gnis:feature_id": "960834", "name": "Point Peter", "natural": "peak"}}, {"name": "Pople Hill", "latitude": 41.886204, "longitude": -74.3662626, "elevation": 600.0, "source": "osm", "_tags": {"ele": "600", "gnis:feature_id": "960948", "name": "Pople Hill", "natural": "peak", "wikidata": "Q34897640"}}, {"name": "Prospect Hill", "latitude": 41.3964826, "longitude": -73.8220789, "elevation": 335.0, "source": "osm", "_tags": {"ele": "335", "gnis:feature_id": "961163", "name": "Prospect Hill", "natural": "peak", "wikidata": "Q34899609"}}, {"name": "Prospect Hill", "latitude": 41.5562048, "longitude": -74.0295854, "elevation": 211.0, "source": "osm", "_tags": {"ele": "211", "gnis:feature_id": "961164", "name": "Prospect Hill", "natural": "peak"}}, {"name": "Prospect Hill", "latitude": 41.8684263, "longitude": -73.7584632, "elevation": 192.0, "source": "osm", "_tags": {"ele": "192", "gnis:feature_id": "961165", "name": "Prospect Hill", "natural": "peak", "wikidata": "Q34899416"}}, {"name": "Prospect Hill", "latitude": 41.8748148, "longitude": -73.9637487, "elevation": 103.0, "source": "osm", "_tags": {"ele": "103", "gnis:feature_id": "961177", "name": "Prospect Hill", "natural": "peak"}}, {"name": "Quarry Hill", "latitude": 42.2111993, "longitude": -73.901797, "elevation": 95.0, "source": "osm", "_tags": {"ele": "95", "gnis:feature_id": "962069", "name": "Quarry Hill", "natural": "peak", "wikidata": "Q49066012"}}, {"name": "Rattlesnake Hill", "latitude": 41.394816, "longitude": -74.0062516, "elevation": 429.0, "source": "osm", "_tags": {"ele": "429", "gnis:feature_id": "962218", "name": "Rattlesnake Hill", "natural": "peak"}}, {"name": "Red Hill", "latitude": 41.9242591, "longitude": -74.5176554, "elevation": 910.0, "source": "osm", "_tags": {"ele": "910", "gnis:feature_id": "962287", "name": "Red Hill", "natural": "peak"}}, {"name": "Rocky Mountain", "latitude": 41.9726556, "longitude": -74.3728273, "elevation": 1065.0, "source": "osm", "_tags": {"ele": "1065", "gnis:feature_id": "962784", "name": "Rocky Mountain", "natural": "peak", "wikidata": "Q7355865"}}, {"name": "Romer Mountain", "latitude": 42.0581466, "longitude": -74.3187592, "elevation": 603.0, "source": "osm", "_tags": {"ele": "603", "gnis:feature_id": "962845", "name": "Romer Mountain", "natural": "peak", "wikidata": "Q34830710"}}, {"name": "Rose Mountain", "latitude": 42.1506445, "longitude": -74.4379284, "elevation": 942.0, "source": "osm", "_tags": {"ele": "942", "gnis:feature_id": "962909", "name": "Rose Mountain", "natural": "peak"}}, {"name": "Round Hill", "latitude": 41.3892605, "longitude": -74.1715354, "elevation": 288.0, "source": "osm", "_tags": {"ele": "288", "gnis:feature_id": "962963", "name": "Round Hill", "natural": "peak"}}, {"name": "Round Hill", "latitude": 42.2709193, "longitude": -74.2137531, "elevation": 789.0, "source": "osm", "_tags": {"ele": "789", "gnis:feature_id": "962965", "name": "Round Hill", "natural": "peak", "wikidata": "Q34830945"}}, {"name": "Round Top", "latitude": 41.3350941, "longitude": -73.702353, "elevation": 222.0, "source": "osm", "_tags": {"ele": "222", "gnis:feature_id": "963016", "name": "Round Top", "natural": "peak"}}, {"name": "Round Top", "latitude": 42.2714741, "longitude": -74.6832109, "elevation": 935.0, "source": "osm", "_tags": {"ele": "935", "gnis:feature_id": "963022", "name": "Round Top", "natural": "peak", "wikidata": "Q34831184"}}, {"name": "Roundtop", "latitude": 42.0884236, "longitude": -73.8823544, "elevation": 102.0, "source": "osm", "_tags": {"ele": "102", "gnis:feature_id": "963037", "name": "Roundtop", "natural": "peak"}}, {"name": "Roundtop Mountain", "latitude": 42.0462024, "longitude": -74.2079224, "elevation": 605.0, "source": "osm", "_tags": {"ele": "605", "gnis:feature_id": "963043", "name": "Roundtop Mountain", "natural": "peak"}}, {"name": "Roundtop Mountain", "latitude": 42.1684222, "longitude": -74.094583, "elevation": 1052.0, "source": "osm", "_tags": {"ele": "1052", "gnis:feature_id": "963044", "name": "Roundtop Mountain", "natural": "peak", "wikidata": "Q34831581"}}, {"name": "Rusk Mountain", "latitude": 42.2010686, "longitude": -74.2774576, "elevation": 1123.493, "source": "osm", "_tags": {"ele": "1123.493", "gnis:feature_id": "963108", "name": "Rusk Mountain", "natural": "peak", "wikidata": "Q7380934"}}, {"name": "Mount Rutsen", "latitude": 41.9568718, "longitude": -73.9271697, "elevation": 102.0, "source": "osm", "_tags": {"ele": "102", "gnis:feature_id": "963130", "name": "Mount Rutsen", "natural": "peak", "wikidata": "Q34883423"}}, {"name": "Samson Mountain", "latitude": 41.9103705, "longitude": -74.4023745, "elevation": 856.0, "source": "osm", "_tags": {"ele": "856", "gnis:feature_id": "964354", "name": "Samson Mountain", "natural": "peak", "wikidata": "Q34903046"}}, {"name": "Sayers Hill", "latitude": 41.4299652, "longitude": -74.4620153, "elevation": 303.0, "source": "osm", "_tags": {"ele": "303", "gnis:feature_id": "964551", "name": "Sayers Hill", "natural": "peak"}}, {"name": "Schultz Hill", "latitude": 41.879815, "longitude": -73.8323548, "elevation": 235.0, "source": "osm", "_tags": {"ele": "235", "gnis:feature_id": "964625", "name": "Schultz Hill", "natural": "peak", "wikidata": "Q34904387"}}, {"name": "Schunnemunk Mountain", "latitude": 41.3917605, "longitude": -74.1162557, "elevation": 507.0, "source": "osm", "_tags": {"ele": "507", "gnis:feature_id": "964627", "name": "Schunnemunk Mountain", "natural": "peak"}}, {"name": "Senior Hill", "latitude": 41.3682791, "longitude": -73.7435368, "elevation": 292.0, "source": "osm", "_tags": {"ele": "292", "gnis:feature_id": "964840", "name": "Senior Hill", "natural": "peak", "wikidata": "Q34904886"}}, {"name": "Shaupeneak Mountain", "latitude": 41.8409261, "longitude": -73.9906943, "elevation": 272.0, "source": "osm", "_tags": {"ele": "272", "gnis:feature_id": "964957", "name": "Shaupeneak Mountain", "natural": "peak", "wikidata": "Q34832057"}}, {"name": "Sheldon Hill", "latitude": 41.7559273, "longitude": -73.7437409, "elevation": 189.0, "source": "osm", "_tags": {"ele": "189", "gnis:feature_id": "965017", "name": "Sheldon Hill", "natural": "peak", "wikidata": "Q34832219"}}, {"name": "Shelly Hill", "latitude": 41.9209259, "longitude": -73.7284622, "elevation": 207.0, "source": "osm", "_tags": {"ele": "207", "gnis:feature_id": "965033", "name": "Shelly Hill", "natural": "peak", "wikidata": "Q34832282"}}, {"name": "Shenandoah Mountain", "latitude": 41.5053712, "longitude": -73.8145781, "elevation": 334.0, "source": "osm", "_tags": {"ele": "334", "gnis:feature_id": "965046", "name": "Shenandoah Mountain", "natural": "peak", "wikidata": "Q34905718"}}, {"name": "Sheridan Mountain", "latitude": 42.1039789, "longitude": -74.3279255, "elevation": 677.0, "source": "osm", "_tags": {"ele": "677", "gnis:feature_id": "965067", "name": "Sheridan Mountain", "natural": "peak", "wikidata": "Q34905812"}}, {"name": "Signal Rock", "latitude": 42.0489799, "longitude": -73.7134604, "elevation": 335.0, "source": "osm", "_tags": {"ele": "335", "gnis:feature_id": "965225", "name": "Signal Rock", "natural": "peak"}}, {"name": "Slawson Mountain", "latitude": 41.9148127, "longitude": -74.6584911, "elevation": 760.0, "source": "osm", "_tags": {"ele": "760", "gnis:feature_id": "965394", "name": "Slawson Mountain", "natural": "peak", "wikidata": "Q34907873"}}, {"name": "Snake Hill", "latitude": 41.3028717, "longitude": -73.8473579, "elevation": 180.0, "source": "osm", "_tags": {"ele": "180", "gnis:feature_id": "965553", "name": "Snake Hill", "natural": "peak"}}, {"name": "Snake Hill", "latitude": 41.3989829, "longitude": -74.409878, "elevation": 190.0, "source": "osm", "_tags": {"ele": "190", "gnis:feature_id": "965554", "name": "Snake Hill", "natural": "peak"}}, {"name": "Snake Hill", "latitude": 41.4878174, "longitude": -74.0428538, "elevation": 211.0, "source": "osm", "_tags": {"ele": "211", "gnis:feature_id": "965556", "name": "Snake Hill", "natural": "peak"}}, {"name": "Snake Hill", "latitude": 42.0273136, "longitude": -73.6973494, "elevation": 219.0, "source": "osm", "_tags": {"ele": "219", "gnis:feature_id": "965557", "name": "Snake Hill", "natural": "peak"}}, {"name": "Snake Mountain", "latitude": 41.2975937, "longitude": -74.2695942, "elevation": 294.0, "source": "osm", "_tags": {"ele": "294", "gnis:feature_id": "965560", "name": "Snake Mountain", "natural": "peak"}}, {"name": "Snake Rocks", "latitude": 42.0257855, "longitude": -74.1577596, "elevation": 368.0, "source": "osm", "_tags": {"ele": "368", "gnis:feature_id": "965567", "name": "Snake Rocks", "natural": "peak", "wikidata": "Q34908694"}}, {"name": "Soap Hill", "latitude": 41.5800936, "longitude": -73.9681942, "elevation": 98.0, "source": "osm", "_tags": {"ele": "98", "gnis:feature_id": "965613", "name": "Soap Hill", "natural": "peak"}}, {"name": "South Hill", "latitude": 41.826204, "longitude": -74.5143237, "elevation": 601.0, "source": "osm", "_tags": {"ele": "601", "gnis:feature_id": "965772", "name": "South Hill", "natural": "peak", "wikidata": "Q34834053"}}, {"name": "South Mountain", "latitude": 41.9492593, "longitude": -74.293204, "elevation": 666.0, "source": "osm", "_tags": {"ele": "666", "gnis:feature_id": "965816", "name": "South Mountain", "natural": "peak"}}, {"name": "South Mountain", "latitude": 42.1892764, "longitude": -74.0497281, "elevation": 752.0, "source": "osm", "_tags": {"ele": "752", "gnis:feature_id": "965818", "name": "South Mountain", "natural": "peak", "wikidata": "Q34834174"}}, {"name": "South Mountain", "latitude": 42.1823103, "longitude": -74.4776516, "elevation": 865.0, "source": "osm", "_tags": {"ele": "865", "gnis:feature_id": "965819", "name": "South Mountain", "natural": "peak", "wikidata": "Q34834145"}}, {"name": "Spruce Hill", "latitude": 41.3845381, "longitude": -73.8368016, "elevation": 281.0, "source": "osm", "_tags": {"ele": "281", "gnis:feature_id": "966121", "name": "Spruce Hill", "natural": "peak", "wikidata": "Q34909999"}}, {"name": "Spruce Mountain", "latitude": 42.0175919, "longitude": -74.4498744, "elevation": 1032.0, "source": "osm", "_tags": {"ele": "1032", "gnis:feature_id": "966132", "name": "Spruce Mountain", "natural": "peak"}}, {"name": "Spruce Top", "latitude": 42.1506447, "longitude": -74.1679195, "elevation": 1030.0, "source": "osm", "_tags": {"ele": "1030", "gnis:feature_id": "966148", "name": "Spruce Top", "natural": "peak", "wikidata": "Q34910231"}}, {"name": "Spy Hill", "latitude": 41.6837047, "longitude": -73.8809686, "elevation": 114.0, "source": "osm", "_tags": {"ele": "114", "gnis:feature_id": "966155", "name": "Spy Hill", "natural": "peak", "wikidata": "Q34910281"}}, {"name": "Spy Rock", "latitude": 41.3909271, "longitude": -74.0212522, "elevation": 441.0, "source": "osm", "_tags": {"ele": "441", "gnis:feature_id": "966159", "name": "Spy Rock", "natural": "peak"}}, {"name": "Steiny Hill", "latitude": 41.8773151, "longitude": -74.3387618, "elevation": 440.0, "source": "osm", "_tags": {"ele": "440", "gnis:feature_id": "966343", "name": "Steiny Hill", "natural": "peak", "wikidata": "Q34930253"}}, {"name": "Stissing Mountain", "latitude": 41.9564812, "longitude": -73.6926279, "elevation": 425.0, "source": "osm", "_tags": {"ele": "425", "gnis:feature_id": "966459", "name": "Stissing Mountain", "natural": "peak", "wikidata": "Q34930581"}}, {"name": "Stockbridge Mountain", "latitude": 41.3014991, "longitude": -74.0770866, "elevation": 402.0, "source": "osm", "_tags": {"ele": "402", "gnis:feature_id": "966465", "name": "Stockbridge Mountain", "natural": "peak"}}, {"name": "Stoppel Point", "latitude": 42.2250879, "longitude": -74.0651364, "elevation": 1043.0, "source": "osm", "_tags": {"ele": "1043", "gnis:feature_id": "966600", "name": "Stoppel Point", "natural": "peak", "wikidata": "Q34837146"}}, {"name": "Stormville Mountain", "latitude": 41.5425934, "longitude": -73.7445756, "elevation": 321.0, "source": "osm", "_tags": {"ele": "321", "gnis:feature_id": "966603", "name": "Stormville Mountain", "natural": "peak", "wikidata": "Q34837169"}}, {"name": "Strawberry Hill", "latitude": 41.3356495, "longitude": -73.850969, "elevation": 197.0, "source": "osm", "_tags": {"ele": "197", "gnis:feature_id": "966628", "name": "Strawberry Hill", "natural": "peak", "wikidata": "Q34837396"}}, {"name": "Sugarloaf Hill", "latitude": 41.3606494, "longitude": -73.9462498, "elevation": 225.0, "source": "osm", "_tags": {"ele": "225", "gnis:feature_id": "966723", "name": "Sugarloaf Hill", "natural": "peak", "wikidata": "Q7635005"}}, {"name": "Sugarloaf Hill", "latitude": 42.2386986, "longitude": -73.7123452, "elevation": 114.0, "source": "osm", "_tags": {"ele": "114", "gnis:feature_id": "966724", "name": "Sugarloaf Hill", "natural": "peak"}}, {"name": "Sugarloaf Mountain", "latitude": 41.3153715, "longitude": -74.2715388, "elevation": 347.0, "source": "osm", "_tags": {"ele": "347", "gnis:feature_id": "966726", "name": "Sugarloaf Mountain", "natural": "peak"}}, {"name": "Sugarloaf Mountain", "latitude": 41.8875928, "longitude": -74.4976557, "elevation": 661.0, "source": "osm", "_tags": {"ele": "661", "gnis:feature_id": "966727", "name": "Sugarloaf Mountain", "natural": "peak", "wikidata": "Q34843109"}}, {"name": "Sugarloaf Mountain", "latitude": 42.1312006, "longitude": -74.1501414, "elevation": 1160.0, "source": "osm", "_tags": {"ele": "1160", "gnis:feature_id": "966729", "name": "Sugarloaf Mountain", "natural": "peak", "wikidata": "Q7635011"}}, {"name": "Summer Hill", "latitude": 41.3109271, "longitude": -74.0398642, "elevation": 258.0, "source": "osm", "_tags": {"ele": "258", "gnis:feature_id": "966759", "name": "Summer Hill", "natural": "peak"}}, {"name": "Sunset Hill", "latitude": 41.7042606, "longitude": -73.7548527, "elevation": 189.0, "source": "osm", "_tags": {"ele": "189", "gnis:feature_id": "966835", "name": "Sunset Hill", "natural": "peak", "wikidata": "Q34933011"}}, {"name": "Terrace Mountain", "latitude": 42.0275917, "longitude": -74.33626, "elevation": 721.0, "source": "osm", "_tags": {"ele": "721", "gnis:feature_id": "967168", "name": "Terrace Mountain", "natural": "peak"}}, {"name": "The Hill", "latitude": 42.1775885, "longitude": -73.7487367, "elevation": 107.0, "source": "osm", "_tags": {"ele": "107", "gnis:feature_id": "967263", "name": "The Hill", "natural": "peak"}}, {"name": "The Torne", "latitude": 41.3272169, "longitude": -74.0104892, "elevation": 287.0, "source": "osm", "_tags": {"ele": "287", "gnis:feature_id": "967347", "name": "The Torne", "natural": "peak"}}, {"name": "Thunder Hill", "latitude": 41.8348141, "longitude": -74.5759912, "elevation": 685.0, "source": "osm", "_tags": {"ele": "685", "gnis:feature_id": "967481", "name": "Thunder Hill", "natural": "peak", "wikidata": "Q34812890"}}, {"name": "Tiffany Hill", "latitude": 42.0364801, "longitude": -73.7254054, "elevation": 299.0, "source": "osm", "_tags": {"ele": "299", "gnis:feature_id": "967517", "name": "Tiffany Hill", "natural": "peak"}}, {"name": "Timmerman Hill", "latitude": 42.182311, "longitude": -73.9473548, "elevation": 181.0, "source": "osm", "_tags": {"ele": "181", "gnis:feature_id": "967539", "name": "Timmerman Hill", "natural": "peak", "wikidata": "Q34813014"}}, {"name": "Tinker Hill", "latitude": 41.3939826, "longitude": -73.8293013, "elevation": 285.0, "source": "osm", "_tags": {"ele": "285", "gnis:feature_id": "967544", "name": "Tinker Hill", "natural": "peak", "wikidata": "Q34813065"}}, {"name": "Mount Tobias", "latitude": 42.0584244, "longitude": -74.2157003, "elevation": 775.0, "source": "osm", "_tags": {"ele": "775", "gnis:feature_id": "967590", "name": "Mount Tobias", "natural": "peak", "wikidata": "Q34883952"}}, {"name": "Mount Tom", "latitude": 42.1670332, "longitude": -73.8290175, "elevation": 147.0, "source": "osm", "_tags": {"ele": "147", "gnis:feature_id": "967611", "name": "Mount Tom", "natural": "peak"}}, {"name": "Tonshi Mountain", "latitude": 42.0005703, "longitude": -74.1927923, "elevation": 607.0, "source": "osm", "_tags": {"ele": "607", "gnis:feature_id": "967662", "name": "Tonshi Mountain", "natural": "peak", "wikidata": "Q34813444"}}, {"name": "Tory Hill", "latitude": 42.0175915, "longitude": -73.7634625, "elevation": 215.0, "source": "osm", "_tags": {"ele": "215", "gnis:feature_id": "967681", "name": "Tory Hill", "natural": "peak", "wikidata": "Q34813742"}}, {"name": "Tower Mountain", "latitude": 42.285363, "longitude": -74.3329236, "elevation": 904.0, "source": "osm", "_tags": {"ele": "904", "gnis:feature_id": "967693", "name": "Tower Mountain", "natural": "peak", "wikidata": "Q34813850"}}, {"name": "Traver Hill", "latitude": 41.8873149, "longitude": -73.842633, "elevation": 211.0, "source": "osm", "_tags": {"ele": "211", "gnis:feature_id": "967763", "name": "Traver Hill", "natural": "peak", "wikidata": "Q34813993"}}, {"name": "Tremper Mountain", "latitude": 42.0744973, "longitude": -74.2778884, "elevation": 829.0, "source": "osm", "_tags": {"ele": "829", "gnis:feature_id": "967788", "name": "Tremper Mountain", "natural": "peak", "wikidata": "Q6924189"}}, {"name": "Turkey Hill", "latitude": 41.4242603, "longitude": -73.7295758, "elevation": 275.0, "source": "osm", "_tags": {"ele": "275", "gnis:feature_id": "967960", "name": "Turkey Hill", "natural": "peak", "wikidata": "Q34814703"}}, {"name": "Turkey Hill", "latitude": 42.025647, "longitude": -73.7962414, "elevation": 183.0, "source": "osm", "_tags": {"ele": "183", "gnis:feature_id": "967961", "name": "Turkey Hill", "natural": "peak", "wikidata": "Q34814670"}}, {"name": "Turkey Mountain", "latitude": 41.332316, "longitude": -74.0306971, "elevation": 286.0, "source": "osm", "_tags": {"ele": "286", "gnis:feature_id": "967968", "name": "Turkey Mountain", "natural": "peak"}}, {"name": "Twin Mountain", "latitude": 42.1256453, "longitude": -74.1290294, "elevation": 1107.0, "source": "osm", "_tags": {"ele": "1107", "gnis:feature_id": "968056", "name": "Twin Mountain", "natural": "peak", "wikidata": "Q7858235"}}, {"name": "Van Loan Hill", "latitude": 42.268975, "longitude": -74.2001415, "elevation": 770.0, "source": "osm", "_tags": {"ele": "770", "gnis:feature_id": "968422", "name": "Van Loan Hill", "natural": "peak", "wikidata": "Q34816828"}}, {"name": "Van Wyck Mountain", "latitude": 41.9523147, "longitude": -74.4354304, "elevation": 976.0, "source": "osm", "_tags": {"ele": "976", "gnis:feature_id": "968438", "name": "Van Wyck Mountain", "natural": "peak", "wikidata": "Q34816840"}}, {"name": "Vedder Mountain", "latitude": 42.2417544, "longitude": -73.9187415, "elevation": 192.0, "source": "osm", "_tags": {"ele": "192", "gnis:feature_id": "968475", "name": "Vedder Mountain", "natural": "peak", "wikidata": "Q34817218"}}, {"name": "Vinegar Hill", "latitude": 42.2450867, "longitude": -74.3937596, "elevation": 625.0, "source": "osm", "_tags": {"ele": "625", "gnis:feature_id": "968562", "name": "Vinegar Hill", "natural": "peak", "wikidata": "Q34817722"}}, {"name": "Vly Mountain", "latitude": 42.2453645, "longitude": -74.4459834, "elevation": 1076.0, "source": "osm", "_tags": {"ele": "1076", "gnis:feature_id": "968592", "name": "Vly Mountain", "natural": "peak", "wikidata": "Q7939097"}}, {"name": "Watch Hill", "latitude": 41.5509269, "longitude": -73.8773578, "elevation": 122.0, "source": "osm", "_tags": {"ele": "122", "gnis:feature_id": "968883", "name": "Watch Hill", "natural": "peak", "wikidata": "Q34818893"}}, {"name": "Watermelon Hill", "latitude": 41.3650939, "longitude": -73.7206868, "elevation": 290.0, "source": "osm", "_tags": {"ele": "290", "gnis:feature_id": "968904", "name": "Watermelon Hill", "natural": "peak", "wikidata": "Q34818956"}}, {"name": "Bald Hill", "latitude": 41.5017603, "longitude": -73.9170815, "elevation": 456.0, "source": "osm", "_tags": {"ele": "456", "gnis:feature_id": "969839", "name": "Bald Hill", "natural": "peak", "wikidata": "Q34803355"}}, {"name": "Bear Mountain", "latitude": 41.3129068, "longitude": -74.0061627, "elevation": 394.0, "source": "osm", "_tags": {"ele": "394", "gnis:feature_id": "969851", "name": "Bear Mountain", "natural": "peak"}}, {"name": "Bull Hill", "latitude": 41.4382764, "longitude": -73.9558807, "elevation": 433.0, "source": "osm", "_tags": {"alt_name": "Mount Taurus", "description": "Views north & west. Views of Breakneck Ridge, Stewart Airport, Newburgh Beacon Bringe and north to Shawangunks", "ele": "433", "gnis:feature_id": "969924", "name": "Bull Hill", "natural": "peak", "note": "GNIS ele was 430, 433 m is the value from wikipedia:en", "tourism": "viewpoint", "website": "https://www.nynjtc.org/hike/east-hudson-highlands", "wikidata": "Q4996571", "wikipedia": "en:Bull Hill"}}, {"name": "Cairo Round Top", "latitude": 42.2589763, "longitude": -73.9973552, "elevation": 437.0, "source": "osm", "_tags": {"ele": "437", "gnis:feature_id": "969947", "name": "Cairo Round Top", "natural": "peak", "wikidata": "Q34807350"}}, {"name": "Canopus Hill", "latitude": 41.3850938, "longitude": -73.8859699, "elevation": 252.0, "source": "osm", "_tags": {"ele": "252", "gnis:feature_id": "969958", "name": "Canopus Hill", "natural": "peak", "wikidata": "Q34807581"}}, {"name": "Cat Hill", "latitude": 41.4178715, "longitude": -73.918193, "elevation": 255.0, "source": "osm", "_tags": {"ele": "255", "gnis:feature_id": "969968", "name": "Cat Hill", "natural": "peak", "wikidata": "Q34807872"}}, {"name": "East Mountain", "latitude": 41.462038, "longitude": -73.8945809, "elevation": 326.0, "source": "osm", "_tags": {"ele": "326", "gnis:feature_id": "970100", "name": "East Mountain", "natural": "peak", "wikidata": "Q34914645"}}, {"name": "Fort Defiance Hill", "latitude": 41.377316, "longitude": -73.9029149, "elevation": 304.0, "source": "osm", "_tags": {"ele": "304", "gnis:feature_id": "970138", "name": "Fort Defiance Hill", "natural": "peak", "wikidata": "Q34822330"}}, {"name": "Kykuit", "latitude": 42.2036993, "longitude": -73.8748518, "elevation": 60.0, "source": "osm", "_tags": {"ele": "60", "gnis:feature_id": "970272", "name": "Kykuit", "natural": "peak", "wikidata": "Q49042739"}}, {"name": "Lambs Hill", "latitude": 41.4950937, "longitude": -73.9284708, "elevation": 454.0, "source": "osm", "_tags": {"ele": "454", "gnis:feature_id": "970276", "name": "Lambs Hill", "natural": "peak", "wikidata": "Q49043369"}}, {"name": "Moneyhole Mountain", "latitude": 41.4145381, "longitude": -73.8968034, "elevation": 281.0, "source": "osm", "_tags": {"ele": "281", "gnis:feature_id": "970361", "name": "Moneyhole Mountain", "natural": "peak", "wikidata": "Q34927179"}}, {"name": "North Beacon Mountain", "latitude": 41.488427, "longitude": -73.9451381, "elevation": 465.0, "source": "osm", "_tags": {"ele": "465", "gnis:feature_id": "970407", "name": "North Beacon Mountain", "natural": "peak", "wikidata": "Q34886101"}}, {"name": "Pine Hill", "latitude": 42.1275894, "longitude": -73.7492932, "elevation": 187.0, "source": "osm", "_tags": {"ele": "187", "gnis:feature_id": "970477", "name": "Pine Hill", "natural": "peak"}}, {"name": "Round Hill", "latitude": 41.4437048, "longitude": -73.899859, "elevation": 330.0, "source": "osm", "_tags": {"ele": "330", "gnis:feature_id": "970543", "name": "Round Hill", "natural": "peak", "wikidata": "Q34831002"}}, {"name": "Round Mountain", "latitude": 41.5003713, "longitude": -73.848746, "elevation": 380.0, "source": "osm", "_tags": {"ele": "380", "gnis:feature_id": "970544", "name": "Round Mountain", "natural": "peak", "wikidata": "Q34831047"}}, {"name": "South Beacon Mountain", "latitude": 41.4814826, "longitude": -73.9443047, "elevation": 491.0, "source": "osm", "_tags": {"ele": "491", "gnis:feature_id": "970620", "name": "South Beacon Mountain", "natural": "peak"}}, {"name": "Storm King Mountain", "latitude": 41.4328716, "longitude": -73.9945843, "elevation": 411.0, "source": "osm", "_tags": {"ele": "411", "gnis:feature_id": "970674", "name": "Storm King Mountain", "natural": "peak"}}, {"name": "Sugarloaf Mountain", "latitude": 41.4584271, "longitude": -73.9751392, "elevation": 274.0, "source": "osm", "_tags": {"ele": "274", "gnis:feature_id": "970682", "name": "Sugarloaf Mountain", "natural": "peak"}}, {"name": "Whaleback", "latitude": 42.0225915, "longitude": -73.8987452, "elevation": 93.0, "source": "osm", "_tags": {"ele": "93", "gnis:feature_id": "970968", "name": "Whaleback", "natural": "peak", "wikidata": "Q34819850"}}, {"name": "White Man Mountain", "latitude": 42.2845295, "longitude": -74.5340406, "elevation": 959.0, "source": "osm", "_tags": {"ele": "959", "gnis:feature_id": "971120", "name": "White Man Mountain", "natural": "peak", "wikidata": "Q34820325"}}, {"name": "White Rock", "latitude": 41.3539827, "longitude": -73.9404162, "elevation": 225.0, "source": "osm", "_tags": {"ele": "225", "gnis:feature_id": "971129", "name": "White Rock", "natural": "peak", "wikidata": "Q34820362"}}, {"name": "Whitehorse Mountain", "latitude": 41.415127, "longitude": -74.0070925, "elevation": 378.0, "source": "osm", "_tags": {"ele": "378", "gnis:feature_id": "971149", "name": "Whitehorse Mountain", "natural": "peak"}}, {"name": "Wildcat Mountain", "latitude": 41.9775924, "longitude": -74.4759867, "elevation": 964.0, "source": "osm", "_tags": {"ele": "964", "gnis:feature_id": "971253", "name": "Wildcat Mountain", "natural": "peak"}}, {"name": "Wittenberg Mountain", "latitude": 42.0081538, "longitude": -74.3473743, "elevation": 1153.0, "source": "osm", "_tags": {"ele": "1153", "gnis:feature_id": "971528", "name": "Wittenberg Mountain", "natural": "peak", "wikidata": "Q8028568"}}, {"name": "Woodcock Mountain", "latitude": 41.4112049, "longitude": -74.1429233, "elevation": 314.0, "source": "osm", "_tags": {"ele": "314", "gnis:feature_id": "971626", "name": "Woodcock Mountain", "natural": "peak"}}, {"name": "Woodhull Mountain", "latitude": 41.9459259, "longitude": -74.4637647, "elevation": 931.0, "source": "osm", "_tags": {"ele": "931", "gnis:feature_id": "971639", "name": "Woodhull Mountain", "natural": "peak", "wikidata": "Q34821874"}}, {"name": "Cornell Mountain", "latitude": 42.0013038, "longitude": -74.3561833, "elevation": 1174.0, "source": "osm", "_tags": {"ele": "1174", "gnis:feature_id": "973346", "name": "Cornell Mountain", "natural": "peak", "wikidata": "Q5171544"}}, {"name": "Doubletop Mountain", "latitude": 42.0275913, "longitude": -74.5282095, "elevation": 1180.0, "source": "osm", "_tags": {"ele": "1180", "gnis:feature_id": "973348", "name": "Doubletop Mountain", "natural": "peak", "wikidata": "Q5300164"}}, {"name": "Graham Mountain", "latitude": 42.03917, "longitude": -74.5488369, "elevation": 1174.0, "source": "osm", "_tags": {"ele": "1174", "gnis:feature_id": "973350", "name": "Graham Mountain", "natural": "peak", "wikidata": "Q5593091"}}, {"name": "Hunter Mountain", "latitude": 42.1778662, "longitude": -74.2304216, "elevation": 1233.0, "source": "osm", "_tags": {"ele": "1233", "gnis:feature_id": "973354", "name": "Hunter Mountain", "natural": "peak", "wikidata": "Q5944482"}}, {"name": "Peekamoose Mountain", "latitude": 41.9531481, "longitude": -74.398207, "elevation": 1172.0, "source": "osm", "_tags": {"ele": "1172", "gnis:feature_id": "973358", "name": "Peekamoose Mountain", "natural": "peak", "wikidata": "Q7160173"}}, {"name": "Plateau Mountain", "latitude": 42.1378671, "longitude": -74.1743088, "elevation": 1172.0, "source": "osm", "_tags": {"ele": "1172", "gnis:feature_id": "973359", "name": "Plateau Mountain", "natural": "peak", "wikidata": "Q7202220"}}, {"name": "Table Mountain", "latitude": 41.958642, "longitude": -74.4048687, "elevation": 1173.0, "source": "osm", "_tags": {"ele": "1173", "gnis:feature_id": "973361", "name": "Table Mountain", "natural": "peak", "wikidata": "Q7673141"}}, {"name": "West Kill Mountain", "latitude": 42.1678663, "longitude": -74.2895904, "elevation": 1186.0, "source": "osm", "_tags": {"ele": "1186", "gnis:feature_id": "973363", "name": "West Kill Mountain", "natural": "peak", "wikidata": "Q7985627"}}, {"name": "Sloop Hill", "latitude": 41.4584271, "longitude": -74.0156961, "elevation": 39.0, "source": "osm", "_tags": {"ele": "39", "gnis:feature_id": "973405", "name": "Sloop Hill", "natural": "peak"}}, {"name": "Crows Nest", "latitude": 41.4086534, "longitude": -73.9832498, "elevation": 429.0, "source": "osm", "_tags": {"ele": "429", "gnis:feature_id": "974278", "name": "Crows Nest", "natural": "peak"}}, {"name": "Mount Misery", "latitude": 41.4078716, "longitude": -74.0104183, "elevation": 387.0, "source": "osm", "_tags": {"ele": "387", "gnis:feature_id": "974770", "name": "Mount Misery", "natural": "peak"}}, {"name": "Mount Rascal", "latitude": 41.3787049, "longitude": -74.0512533, "elevation": 424.0, "source": "osm", "_tags": {"ele": "424", "gnis:feature_id": "974773", "name": "Mount Rascal", "natural": "peak"}}, {"name": "Slide Mountain", "latitude": 41.9992026, "longitude": -74.3859419, "elevation": 1266.0, "source": "osm", "_tags": {"ele": "1266", "gnis:feature_id": "975759", "name": "Slide Mountain", "natural": "peak", "wikidata": "Q7540328"}}, {"name": "Millbrook Mountain", "latitude": 41.7084268, "longitude": -74.2259815, "elevation": 489.0, "source": "osm", "_tags": {"ele": "489", "gnis:feature_id": "1781936", "name": "Millbrook Mountain", "natural": "peak"}}, {"name": "Murray Hill", "latitude": 41.6975935, "longitude": -74.2968175, "elevation": 615.0, "source": "osm", "_tags": {"ele": "615", "gnis:feature_id": "1781938", "name": "Murray Hill", "natural": "peak"}}, {"name": "Mount Sherrill", "latitude": 42.1756439, "longitude": -74.3729262, "elevation": 1082.0, "source": "osm", "_tags": {"ele": "1082", "gnis:feature_id": "1829070", "name": "Mount Sherrill", "natural": "peak", "wikidata": "Q8526328"}}, {"name": "Pellets Island Mountain", "latitude": 41.3811111, "longitude": -74.4166667, "elevation": 128.0, "source": "osm", "_tags": {"ele": "128", "gnis:feature_id": "2091732", "name": "Pellets Island Mountain", "natural": "peak"}}, {"name": "Deer Hill", "latitude": 41.4216667, "longitude": -74.0155556, "elevation": 270.0, "source": "osm", "_tags": {"ele": "270", "gnis:feature_id": "2095573", "name": "Deer Hill", "natural": "peak"}}, {"name": "Honey Hill", "latitude": 41.4102778, "longitude": -74.0130556, "elevation": 345.0, "source": "osm", "_tags": {"ele": "345", "gnis:feature_id": "2095574", "name": "Honey Hill", "natural": "peak"}}, {"name": "Fort Hill", "latitude": 41.2952294, "longitude": -73.9291144, "elevation": 114.0, "source": "osm", "_tags": {"ele": "114", "gnis:feature_id": "2367722", "name": "Fort Hill", "natural": "peak"}}, {"name": "Parade Hill", "latitude": 42.2563889, "longitude": -73.7966667, "elevation": 25.0, "source": "osm", "_tags": {"ele": "25", "gnis:feature_id": "2367993", "name": "Parade Hill", "natural": "peak"}}, {"name": "High Point", "latitude": 41.3209176, "longitude": -74.6615402, "elevation": 551.0, "source": "osm", "_tags": {"ele": "551", "gnis:feature_id": "877098", "highest_point": "4", "name": "High Point", "natural": "peak", "wikidata": "Q1587207", "wikipedia": "en:High Point (New Jersey)"}}, {"name": "Breakneck Ridge", "latitude": 41.4594343, "longitude": -73.9589431, "elevation": 384.0, "source": "osm", "_tags": {"ele": "384", "name": "Breakneck Ridge", "natural": "peak", "source": "wikipedia", "wikidata": "Q4959640", "wikipedia": "en:Breakneck Ridge"}}, {"name": "Southwest Hunter Mountain", "latitude": 42.1623721, "longitude": -74.2436771, "elevation": 1140.0, "source": "osm", "_tags": {"alt_name": "Leavitt's Peak", "ele": "1140", "name": "Southwest Hunter Mountain", "natural": "peak", "wikidata": "Q8526291", "wikipedia": "en:Southwest Hunter Mountain"}}, {"name": "Rock Hill 951'", "latitude": 41.7608366, "longitude": -74.1901267, "elevation": null, "source": "osm", "_tags": {"name": "Rock Hill 951'", "natural": "peak"}}, {"name": "Dickie Barre", "latitude": 41.7465712, "longitude": -74.2075443, "elevation": 419.0, "source": "osm", "_tags": {"ele": "419", "name": "Dickie Barre", "natural": "peak"}}, {"name": "799'", "latitude": 41.3729772, "longitude": -74.6565909, "elevation": null, "source": "osm", "_tags": {"name": "799'", "natural": "peak"}}, {"name": "Black Dome", "latitude": 42.2701836, "longitude": -74.122551, "elevation": 1221.3, "source": "osm", "_tags": {"ele": "1221.3", "gnis:feature_id": "973342", "name": "Black Dome", "natural": "peak", "source": "GPS", "wikidata": "Q4920677", "wikipedia": "en:Black Dome (New York)"}}, {"name": "Blackhead", "latitude": 42.2677434, "longitude": -74.104636, "elevation": 1208.1, "source": "osm", "_tags": {"ele": "1208.1", "gnis:feature_id": "973343", "name": "Blackhead", "natural": "peak", "source": "GPS", "wikidata": "Q4922981", "wikipedia": "en:Blackhead (New York)"}}, {"name": "Camel's Hump", "latitude": 42.2713509, "longitude": -74.1497955, "elevation": 1095.4, "source": "osm", "_tags": {"ele": "1095.4", "name": "Camel's Hump", "natural": "peak", "source": "GPS"}}, {"name": "Thomas Cole Mountain", "latitude": 42.270546, "longitude": -74.1355667, "elevation": 1212.6, "source": "osm", "_tags": {"ele": "1212.6", "gnis:feature_id": "973362", "name": "Thomas Cole Mountain", "natural": "peak", "source": "GPS", "wikidata": "Q7788531", "wikipedia": "en:Thomas Cole Mountain"}}, {"name": "", "latitude": 41.3964938, "longitude": -74.6097854, "elevation": 393.0, "source": "osm", "_tags": {"ele": "393", "natural": "peak"}}, {"name": "", "latitude": 41.4046351, "longitude": -74.6032202, "elevation": 388.0, "source": "osm", "_tags": {"ele": "388", "natural": "peak"}}, {"name": "Whale's Head", "latitude": 41.7438389, "longitude": -74.2125864, "elevation": 415.0, "source": "osm", "_tags": {"ele": "415", "name": "Whale's Head", "natural": "peak"}}, {"name": "", "latitude": 41.7198587, "longitude": -74.4399259, "elevation": 388.0, "source": "osm", "_tags": {"ele": "388", "ele:ft": "1272", "natural": "peak"}}, {"name": "", "latitude": 41.7100813, "longitude": -74.4257961, "elevation": 322.0, "source": "osm", "_tags": {"ele": "322", "ele:ft": "1057", "natural": "peak"}}, {"name": "", "latitude": 41.7117375, "longitude": -74.4182966, "elevation": 309.0, "source": "osm", "_tags": {"ele": "309", "ele:ft": "1015", "natural": "peak"}}, {"name": "", "latitude": 41.7137014, "longitude": -74.435202, "elevation": 398.0, "source": "osm", "_tags": {"ele": "398", "ele:ft": "1306", "natural": "peak"}}, {"name": "", "latitude": 41.7027171, "longitude": -74.4492106, "elevation": 432.0, "source": "osm", "_tags": {"ele": "432", "ele:ft": "1417", "natural": "peak"}}, {"name": "", "latitude": 41.7183884, "longitude": -74.4466175, "elevation": 384.0, "source": "osm", "_tags": {"ele": "384", "ele:ft": "1261", "natural": "peak"}}, {"name": "1103'", "latitude": 41.7310614, "longitude": -74.4928813, "elevation": null, "source": "osm", "_tags": {"name": "1103'", "natural": "peak"}}, {"name": "855'", "latitude": 41.7570582, "longitude": -74.2142774, "elevation": null, "source": "osm", "_tags": {"name": "855'", "natural": "peak"}}, {"name": "", "latitude": 41.6558434, "longitude": -74.4070089, "elevation": 600.8, "source": "osm", "_tags": {"ele": "600.8", "natural": "peak"}}, {"name": "", "latitude": 41.681948, "longitude": -74.4470339, "elevation": 352.0, "source": "osm", "_tags": {"ele": "352", "ele:ft": "1156", "natural": "peak"}}, {"name": "", "latitude": 41.6806067, "longitude": -74.4766164, "elevation": 425.0, "source": "osm", "_tags": {"ele": "425", "ele:ft": "1393", "natural": "peak"}}, {"name": "", "latitude": 41.7197237, "longitude": -74.4895103, "elevation": 361.0, "source": "osm", "_tags": {"ele": "361", "natural": "peak"}}, {"name": "", "latitude": 41.8531809, "longitude": -74.3899852, "elevation": 567.0, "source": "osm", "_tags": {"ele": "567", "natural": "peak"}}, {"name": "", "latitude": 41.8567194, "longitude": -74.3779936, "elevation": 591.0, "source": "osm", "_tags": {"ele": "591", "natural": "peak"}}, {"name": "", "latitude": 41.8637591, "longitude": -74.3784271, "elevation": 594.0, "source": "osm", "_tags": {"ele": "594", "natural": "peak"}}, {"name": "", "latitude": 41.8274785, "longitude": -74.3862688, "elevation": 515.0, "source": "osm", "_tags": {"ele": "515", "natural": "peak"}}, {"name": "Winnisook Lake Mountain (Western Summit)", "latitude": 42.0181188, "longitude": -74.4269859, "elevation": null, "source": "osm", "_tags": {"name": "Winnisook Lake Mountain (Western Summit)", "natural": "peak"}}, {"name": "Little Slide", "latitude": 42.0134047, "longitude": -74.3971104, "elevation": 1109.0, "source": "osm", "_tags": {"ele": "1109", "name": "Little Slide", "natural": "peak"}}, {"name": "", "latitude": 42.0100949, "longitude": -74.4705858, "elevation": 978.0, "source": "osm", "_tags": {"ele": "978", "natural": "peak"}}, {"name": "East Wildcat", "latitude": 41.9877507, "longitude": -74.4406309, "elevation": 1018.0, "source": "osm", "_tags": {"ele": "1018", "name": "East Wildcat", "natural": "peak"}}, {"name": "Winnisook Lake Mountain (Eastern Summit)", "latitude": 42.0179339, "longitude": -74.4196099, "elevation": 994.0, "source": "osm", "_tags": {"ele": "994", "name": "Winnisook Lake Mountain (Eastern Summit)", "natural": "peak"}}, {"name": "", "latitude": 42.0171511, "longitude": -74.4968178, "elevation": 1027.0, "source": "osm", "_tags": {"ele": "1027", "natural": "peak"}}, {"name": "", "latitude": 41.9689055, "longitude": -74.3556714, "elevation": 1050.0, "source": "osm", "_tags": {"ele": "1050", "natural": "peak"}}, {"name": "", "latitude": 42.004323, "longitude": -74.5252835, "elevation": 1005.0, "source": "osm", "_tags": {"ele": "1005", "natural": "peak"}}, {"name": "High Falls Ridge", "latitude": 41.9919309, "longitude": -74.5454022, "elevation": 975.0, "source": "osm", "_tags": {"ele": "975", "name": "High Falls Ridge", "natural": "peak"}}, {"name": "Edgewood Mountain", "latitude": 42.1206399, "longitude": -74.2305807, "elevation": 914.0, "source": "osm", "_tags": {"ele": "914", "name": "Edgewood Mountain", "natural": "peak"}}, {"name": "Saint Anne's Peak", "latitude": 42.1714402, "longitude": -74.3207927, "elevation": 1043.0, "source": "osm", "_tags": {"ele": "1043", "name": "Saint Anne's Peak", "natural": "peak"}}, {"name": "", "latitude": 41.9544141, "longitude": -74.5265058, "elevation": 863.0, "source": "osm", "_tags": {"ele": "863", "natural": "peak"}}, {"name": "", "latitude": 41.9914939, "longitude": -74.6886245, "elevation": 873.0, "source": "osm", "_tags": {"ele": "873", "natural": "peak"}}, {"name": "", "latitude": 41.9883105, "longitude": -74.6775609, "elevation": 911.0, "source": "osm", "_tags": {"ele": "911", "natural": "peak"}}, {"name": "", "latitude": 41.9649504, "longitude": -74.6707503, "elevation": 777.0, "source": "osm", "_tags": {"ele": "777", "natural": "peak"}}, {"name": "Millbrook Ridge", "latitude": 42.0523606, "longitude": -74.6329273, "elevation": 1080.0, "source": "osm", "_tags": {"ele": "1080", "name": "Millbrook Ridge", "natural": "peak"}}, {"name": "Woodpecker Ridge", "latitude": 42.0393575, "longitude": -74.617348, "elevation": 1057.0, "source": "osm", "_tags": {"ele": "1057", "name": "Woodpecker Ridge", "natural": "peak"}}, {"name": "", "latitude": 42.0274543, "longitude": -74.6670466, "elevation": 948.0, "source": "osm", "_tags": {"ele": "948", "natural": "peak"}}, {"name": "", "latitude": 42.0635553, "longitude": -74.6666829, "elevation": 969.0, "source": "osm", "_tags": {"ele": "969", "natural": "peak"}}, {"name": "", "latitude": 42.0565122, "longitude": -74.6545078, "elevation": 981.0, "source": "osm", "_tags": {"ele": "981", "natural": "peak"}}, {"name": "Cradle Rock Ridge", "latitude": 42.0368578, "longitude": -74.661665, "elevation": 963.0, "source": "osm", "_tags": {"ele": "963", "name": "Cradle Rock Ridge", "natural": "peak"}}, {"name": "Sand Pond Mountain", "latitude": 41.9851406, "longitude": -74.6483978, "elevation": 933.0, "source": "osm", "_tags": {"ele": "933", "name": "Sand Pond Mountain", "natural": "peak"}}, {"name": "", "latitude": 41.9833327, "longitude": -74.660781, "elevation": null, "source": "osm", "_tags": {"natural": "peak"}}, {"name": "Willowemoc Mountain", "latitude": 41.9902739, "longitude": -74.6285258, "elevation": 983.0, "source": "osm", "_tags": {"ele": "983", "name": "Willowemoc Mountain", "natural": "peak"}}, {"name": "", "latitude": 41.9683169, "longitude": -74.6448015, "elevation": 840.0, "source": "osm", "_tags": {"ele": "840", "natural": "peak"}}, {"name": "", "latitude": 41.9362227, "longitude": -74.6390926, "elevation": 679.0, "source": "osm", "_tags": {"ele": "679", "natural": "peak"}}, {"name": "", "latitude": 41.9659811, "longitude": -74.6257213, "elevation": 676.0, "source": "osm", "_tags": {"ele": "676", "natural": "peak"}}, {"name": "", "latitude": 41.9677074, "longitude": -74.6112706, "elevation": 691.0, "source": "osm", "_tags": {"ele": "691", "natural": "peak"}}, {"name": "", "latitude": 41.9631866, "longitude": -74.5913118, "elevation": 856.0, "source": "osm", "_tags": {"ele": "856", "natural": "peak"}}, {"name": "", "latitude": 41.9710083, "longitude": -74.5595555, "elevation": 778.0, "source": "osm", "_tags": {"ele": "778", "natural": "peak"}}, {"name": "", "latitude": 41.9788505, "longitude": -74.5846009, "elevation": 873.0, "source": "osm", "_tags": {"ele": "873", "natural": "peak"}}, {"name": "Beaver Kill Range", "latitude": 41.9937721, "longitude": -74.5912442, "elevation": 979.0, "source": "osm", "_tags": {"ele": "979", "name": "Beaver Kill Range", "natural": "peak"}}, {"name": "Beaver Kill Range", "latitude": 41.9903736, "longitude": -74.5999302, "elevation": 1009.0, "source": "osm", "_tags": {"ele": "1009", "name": "Beaver Kill Range", "natural": "peak"}}, {"name": "", "latitude": 41.79339, "longitude": -74.0529055, "elevation": 96.0, "source": "osm", "_tags": {"ele": "96", "natural": "peak"}}, {"name": "", "latitude": 41.841935, "longitude": -74.0215547, "elevation": 176.5, "source": "osm", "_tags": {"ele": "176.5", "natural": "peak"}}, {"name": "", "latitude": 41.8185456, "longitude": -74.0055473, "elevation": 157.0, "source": "osm", "_tags": {"ele": "157", "natural": "peak"}}, {"name": "", "latitude": 41.8572215, "longitude": -74.0188833, "elevation": 164.0, "source": "osm", "_tags": {"ele": "164", "natural": "peak"}}, {"name": "", "latitude": 41.7928532, "longitude": -74.0061052, "elevation": 181.6, "source": "osm", "_tags": {"ele": "181.6", "natural": "peak"}}, {"name": "", "latitude": 41.7861057, "longitude": -74.0224576, "elevation": 105.0, "source": "osm", "_tags": {"ele": "105", "natural": "peak"}}, {"name": "", "latitude": 41.8260316, "longitude": -74.0191965, "elevation": 171.2, "source": "osm", "_tags": {"ele": "171.2", "natural": "peak"}}, {"name": "", "latitude": 41.7835789, "longitude": -74.0149511, "elevation": 161.0, "source": "osm", "_tags": {"ele": "161", "natural": "peak"}}, {"name": "", "latitude": 41.8104238, "longitude": -74.0317107, "elevation": 126.7, "source": "osm", "_tags": {"ele": "126.7", "natural": "peak"}}, {"name": "", "latitude": 41.8113178, "longitude": -74.1067632, "elevation": 236.5, "source": "osm", "_tags": {"ele": "236.5", "natural": "peak"}}, {"name": "", "latitude": 41.8718025, "longitude": -74.0075955, "elevation": 108.2, "source": "osm", "_tags": {"ele": "108.2", "natural": "peak"}}, {"name": "", "latitude": 41.7676963, "longitude": -74.014817, "elevation": 223.0, "source": "osm", "_tags": {"ele": "223", "natural": "peak"}}, {"name": "", "latitude": 41.7535326, "longitude": -74.0179016, "elevation": 204.2, "source": "osm", "_tags": {"ele": "204.2", "natural": "peak"}}, {"name": "", "latitude": 41.8690853, "longitude": -74.5631309, "elevation": 574.5, "source": "osm", "_tags": {"ele": "574.5", "natural": "peak"}}, {"name": "", "latitude": 41.8707032, "longitude": -74.5980586, "elevation": 575.7, "source": "osm", "_tags": {"ele": "575.7", "natural": "peak"}}, {"name": "Pigeon Hill", "latitude": 41.538532, "longitude": -74.5191017, "elevation": null, "source": "osm", "_tags": {"name": "Pigeon Hill", "natural": "peak", "note": "Former passenger pigeon nesting site."}}, {"name": "", "latitude": 41.9416636, "longitude": -74.5615829, "elevation": 773.5, "source": "osm", "_tags": {"ele": "773.5", "natural": "peak"}}, {"name": "", "latitude": 41.9602624, "longitude": -74.5112207, "elevation": 887.0, "source": "osm", "_tags": {"ele": "887", "natural": "peak"}}, {"name": "Breath Hill", "latitude": 41.9366557, "longitude": -74.3493054, "elevation": 783.0, "source": "osm", "_tags": {"ele": "783", "name": "Breath Hill", "natural": "peak"}}, {"name": "", "latitude": 41.9624268, "longitude": -74.3454966, "elevation": 941.0, "source": "osm", "_tags": {"ele": "941", "natural": "peak"}}, {"name": "", "latitude": 41.8663251, "longitude": -74.3401215, "elevation": 444.0, "source": "osm", "_tags": {"ele": "444", "natural": "peak"}}, {"name": "", "latitude": 41.8766902, "longitude": -74.4508173, "elevation": 747.0, "source": "osm", "_tags": {"ele": "747", "natural": "peak"}}, {"name": "", "latitude": 41.9453545, "longitude": -74.3403039, "elevation": 876.0, "source": "osm", "_tags": {"ele": "876", "natural": "peak"}}, {"name": "", "latitude": 41.7926582, "longitude": -74.3698082, "elevation": 405.0, "source": "osm", "_tags": {"ele": "405", "natural": "peak"}}, {"name": "", "latitude": 41.8136154, "longitude": -74.3860752, "elevation": 457.0, "source": "osm", "_tags": {"ele": "457", "natural": "peak"}}, {"name": "", "latitude": 41.7928566, "longitude": -74.3930704, "elevation": 387.0, "source": "osm", "_tags": {"ele": "387", "natural": "peak"}}, {"name": "", "latitude": 41.8027218, "longitude": -74.3692996, "elevation": 423.6, "source": "osm", "_tags": {"ele": "423.6", "natural": "peak"}}, {"name": "", "latitude": 41.8053338, "longitude": -74.4014175, "elevation": 414.5, "source": "osm", "_tags": {"ele": "414.5", "natural": "peak"}}, {"name": "South Twin", "latitude": 42.1029236, "longitude": -74.1373223, "elevation": 880.8, "source": "osm", "_tags": {"ele": "880.8", "name": "South Twin", "natural": "peak"}}, {"name": "", "latitude": 42.1338082, "longitude": -74.0630825, "elevation": 774.0, "source": "osm", "_tags": {"ele": "774", "natural": "peak"}}, {"name": "Pine Island Mountain", "latitude": 42.2201847, "longitude": -74.3330426, "elevation": 957.0, "source": "osm", "_tags": {"ele": "957", "name": "Pine Island Mountain", "natural": "peak"}}, {"name": "East Rusk", "latitude": 42.2007862, "longitude": -74.260737, "elevation": 1105.814, "source": "osm", "_tags": {"ele": "1105.814", "name": "East Rusk", "natural": "peak"}}, {"name": "", "latitude": 41.7265758, "longitude": -74.653855, "elevation": 456.0, "source": "osm", "_tags": {"ele": "456", "natural": "peak"}}, {"name": "", "latitude": 41.7456783, "longitude": -74.6587967, "elevation": 456.0, "source": "osm", "_tags": {"ele": "456", "natural": "peak"}}, {"name": "", "latitude": 41.747926, "longitude": -74.6422914, "elevation": 456.6, "source": "osm", "_tags": {"ele": "456.6", "natural": "peak"}}, {"name": "", "latitude": 41.7381773, "longitude": -74.6593278, "elevation": 420.0, "source": "osm", "_tags": {"ele": "420", "natural": "peak"}}, {"name": "", "latitude": 41.8460262, "longitude": -74.0966563, "elevation": 100.0, "source": "osm", "_tags": {"ele": "100", "natural": "peak"}}, {"name": "", "latitude": 41.5130965, "longitude": -74.5139384, "elevation": 442.0, "source": "osm", "_tags": {"ele": "442", "natural": "peak"}}, {"name": "", "latitude": 41.5217519, "longitude": -74.5051834, "elevation": 410.5, "source": "osm", "_tags": {"ele": "410.5", "natural": "peak"}}, {"name": "", "latitude": 41.5157484, "longitude": -74.5007001, "elevation": 110.5, "source": "osm", "_tags": {"ele": "110.5", "natural": "peak"}}, {"name": "", "latitude": 41.5482364, "longitude": -74.5576477, "elevation": 456.0, "source": "osm", "_tags": {"ele": "456", "natural": "peak"}}, {"name": "", "latitude": 41.5195788, "longitude": -74.4970339, "elevation": 400.0, "source": "osm", "_tags": {"ele": "400", "natural": "peak"}}, {"name": "", "latitude": 41.529167, "longitude": -74.4972066, "elevation": 426.0, "source": "osm", "_tags": {"ele": "426", "natural": "peak"}}, {"name": "", "latitude": 41.557534, "longitude": -74.475617, "elevation": 321.0, "source": "osm", "_tags": {"ele": "321", "natural": "peak"}}, {"name": "", "latitude": 41.5944736, "longitude": -74.4385778, "elevation": 431.0, "source": "osm", "_tags": {"ele": "431", "natural": "peak"}}, {"name": "", "latitude": 41.6147559, "longitude": -74.4789, "elevation": 394.0, "source": "osm", "_tags": {"ele": "394", "natural": "peak"}}, {"name": "", "latitude": 41.5935486, "longitude": -74.5526762, "elevation": 490.0, "source": "osm", "_tags": {"ele": "490", "natural": "peak"}}, {"name": "", "latitude": 41.5804925, "longitude": -74.5427284, "elevation": 480.0, "source": "osm", "_tags": {"ele": "480", "natural": "peak"}}, {"name": "", "latitude": 41.6000937, "longitude": -74.52179, "elevation": 458.0, "source": "osm", "_tags": {"ele": "458", "natural": "peak"}}, {"name": "", "latitude": 41.6123713, "longitude": -74.5108766, "elevation": 469.0, "source": "osm", "_tags": {"ele": "469", "natural": "peak"}}, {"name": "", "latitude": 41.5834274, "longitude": -74.5223318, "elevation": 472.0, "source": "osm", "_tags": {"ele": "472", "natural": "peak"}}, {"name": "", "latitude": 41.5890294, "longitude": -74.5381086, "elevation": 487.0, "source": "osm", "_tags": {"ele": "487", "natural": "peak"}}, {"name": "", "latitude": 41.5739804, "longitude": -74.5351259, "elevation": 489.0, "source": "osm", "_tags": {"ele": "489", "natural": "peak"}}, {"name": "", "latitude": 42.0539223, "longitude": -74.3536646, "elevation": 780.0, "source": "osm", "_tags": {"ele": "780", "natural": "peak"}}, {"name": "", "latitude": 42.0578201, "longitude": -74.3757381, "elevation": 866.0, "source": "osm", "_tags": {"ele": "866", "natural": "peak"}}, {"name": "", "latitude": 42.0712077, "longitude": -74.396964, "elevation": 1048.0, "source": "osm", "_tags": {"ele": "1048", "natural": "peak"}}, {"name": "", "latitude": 42.0646385, "longitude": -74.4489903, "elevation": 725.0, "source": "osm", "_tags": {"ele": "725", "natural": "peak"}}, {"name": "", "latitude": 42.1006889, "longitude": -74.4121968, "elevation": 900.0, "source": "osm", "_tags": {"ele": "900", "natural": "peak"}}, {"name": "", "latitude": 42.0942486, "longitude": -74.4384674, "elevation": 718.0, "source": "osm", "_tags": {"ele": "718", "natural": "peak"}}, {"name": "West Huckleberry Ridge", "latitude": 42.1071828, "longitude": -74.6752039, "elevation": 844.0, "source": "osm", "_tags": {"ele": "844", "name": "West Huckleberry Ridge", "natural": "peak"}}, {"name": "Huckleberry Ridge", "latitude": 42.0983684, "longitude": -74.6261338, "elevation": 863.0, "source": "osm", "_tags": {"ele": "863", "name": "Huckleberry Ridge", "natural": "peak"}}, {"name": "Belle Ayr Mountain", "latitude": 42.1157723, "longitude": -74.4975655, "elevation": 1029.0, "source": "osm", "_tags": {"ele": "1029", "name": "Belle Ayr Mountain", "natural": "peak", "wikidata": "Q34804978", "wikipedia": "en:Belle Ayr Mountain"}}, {"name": "", "latitude": 42.1378009, "longitude": -74.4295925, "elevation": 884.0, "source": "osm", "_tags": {"ele": "884", "natural": "peak"}}, {"name": "Belleayre Gondola Peak", "latitude": 42.1282915, "longitude": -74.5189568, "elevation": 1046.0, "source": "osm", "_tags": {"ele": "1046", "name": "Belleayre Gondola Peak", "natural": "peak"}}, {"name": "Brush Ridge", "latitude": 42.1674349, "longitude": -74.5079989, "elevation": 707.0, "source": "osm", "_tags": {"ele": "707", "name": "Brush Ridge", "natural": "peak"}}, {"name": "", "latitude": 41.936359, "longitude": -74.4690781, "elevation": 839.0, "source": "osm", "_tags": {"ele": "839", "natural": "peak"}}, {"name": "Sleeping Lion", "latitude": 42.1976194, "longitude": -74.4168462, "elevation": 1039.0, "source": "osm", "_tags": {"ele": "1039", "name": "Sleeping Lion", "natural": "peak"}}, {"name": "South Sherrill", "latitude": 42.1515598, "longitude": -74.3900499, "elevation": 879.0, "source": "osm", "_tags": {"ele": "879", "name": "South Sherrill", "natural": "peak"}}, {"name": "South Bearpen", "latitude": 42.246603, "longitude": -74.4925017, "elevation": 1040.0, "source": "osm", "_tags": {"ele": "1040", "name": "South Bearpen", "natural": "peak"}}, {"name": "Bearpen Flats", "latitude": 42.2368271, "longitude": -74.4986128, "elevation": 1036.0, "source": "osm", "_tags": {"ele": "1036", "name": "Bearpen Flats", "natural": "peak"}}, {"name": "South Vly", "latitude": 42.2294489, "longitude": -74.4383897, "elevation": 1024.0, "source": "osm", "_tags": {"ele": "1024", "name": "South Vly", "natural": "peak"}}, {"name": "Bearpen Mountain", "latitude": 42.2652179, "longitude": -74.4737802, "elevation": 1098.0, "source": "osm", "_tags": {"ele": "1098", "gnis:feature_id": "943334", "name": "Bearpen Mountain", "natural": "peak"}}, {"name": "South Broadstreet Hollow", "latitude": 42.1246724, "longitude": -74.3256104, "elevation": 854.0, "source": "osm", "_tags": {"ele": "854", "name": "South Broadstreet Hollow", "natural": "peak"}}, {"name": "", "latitude": 42.1378167, "longitude": -74.4295943, "elevation": 884.0, "source": "osm", "_tags": {"ele": "884", "natural": "peak"}}, {"name": "Mount Guardian", "latitude": 42.0681926, "longitude": -74.1326578, "elevation": 640.0, "source": "osm", "_tags": {"alt_name": "Guardian Mountain", "ele": "640", "gnis:feature_id": "951887", "name": "Mount Guardian", "natural": "peak"}}, {"name": "Huckleberry Hills", "latitude": 41.3958838, "longitude": -74.4264842, "elevation": 207.0, "source": "osm", "_tags": {"ele": "207", "name": "Huckleberry Hills", "natural": "peak"}}, {"name": "", "latitude": 41.6730435, "longitude": -74.6410832, "elevation": 448.0, "source": "osm", "_tags": {"ele": "448", "natural": "peak"}}, {"name": "", "latitude": 41.6542729, "longitude": -74.6298533, "elevation": 441.0, "source": "osm", "_tags": {"ele": "441", "natural": "peak"}}, {"name": "", "latitude": 41.6887416, "longitude": -74.6546627, "elevation": 491.0, "source": "osm", "_tags": {"ele": "491", "natural": "peak"}}, {"name": "Columbia Hill", "latitude": 41.7247277, "longitude": -74.688907, "elevation": null, "source": "osm", "_tags": {"name": "Columbia Hill", "natural": "peak"}}, {"name": "", "latitude": 41.9039444, "longitude": -74.2678023, "elevation": 327.0, "source": "osm", "_tags": {"ele": "327", "natural": "peak"}}, {"name": "", "latitude": 41.990803, "longitude": -74.2432915, "elevation": 517.0, "source": "osm", "_tags": {"ele": "517", "natural": "peak"}}, {"name": "Ticetonyk Mountain", "latitude": 42.0029749, "longitude": -74.2173846, "elevation": 765.0, "source": "osm", "_tags": {"alt_name": "Ticeteneyck", "ele": "765", "gnis:feature_id": "967505", "name": "Ticetonyk Mountain", "natural": "peak", "note": "The alternate spelling is on the DEC sign at the trailhead", "wikidata": "Q34812928"}}, {"name": "", "latitude": 41.9413993, "longitude": -74.1495688, "elevation": 212.0, "source": "osm", "_tags": {"ele": "212", "natural": "peak"}}, {"name": "Roses Point", "latitude": 41.456511, "longitude": -74.6064, "elevation": null, "source": "osm", "_tags": {"name": "Roses Point", "natural": "peak"}}, {"name": "", "latitude": 41.4679295, "longitude": -74.5952227, "elevation": 230.0, "source": "osm", "_tags": {"ele": "230", "natural": "peak"}}, {"name": "", "latitude": 41.4476293, "longitude": -74.5687643, "elevation": 385.0, "source": "osm", "_tags": {"ele": "385", "natural": "peak"}}, {"name": "", "latitude": 41.4103435, "longitude": -74.590896, "elevation": 400.0, "source": "osm", "_tags": {"ele": "400", "natural": "peak"}}, {"name": "", "latitude": 41.6949901, "longitude": -74.5091656, "elevation": 388.0, "source": "osm", "_tags": {"ele": "388", "natural": "peak"}}, {"name": "", "latitude": 41.7087999, "longitude": -74.5061873, "elevation": 391.0, "source": "osm", "_tags": {"ele": "391", "natural": "peak"}}, {"name": "", "latitude": 41.7439918, "longitude": -74.5797346, "elevation": 466.0, "source": "osm", "_tags": {"ele": "466", "natural": "peak"}}, {"name": "", "latitude": 41.7363601, "longitude": -74.5264562, "elevation": 369.0, "source": "osm", "_tags": {"ele": "369", "natural": "peak"}}, {"name": "", "latitude": 41.6495626, "longitude": -74.5161426, "elevation": 474.0, "source": "osm", "_tags": {"ele": "474", "natural": "peak"}}, {"name": "", "latitude": 41.6391541, "longitude": -74.6062335, "elevation": 446.0, "source": "osm", "_tags": {"ele": "446", "natural": "peak"}}, {"name": "", "latitude": 41.6336735, "longitude": -74.5805355, "elevation": 484.0, "source": "osm", "_tags": {"ele": "484", "natural": "peak"}}, {"name": "", "latitude": 41.6480497, "longitude": -74.5732699, "elevation": 486.0, "source": "osm", "_tags": {"ele": "486", "natural": "peak"}}, {"name": "Peach Hill", "latitude": 41.7350588, "longitude": -73.8733613, "elevation": 148.0, "source": "osm", "_tags": {"ele": "148", "name": "Peach Hill", "natural": "peak"}}, {"name": "View over Quarry", "latitude": 41.2950697, "longitude": -73.8444627, "elevation": null, "source": "osm", "_tags": {"name": "View over Quarry", "natural": "peak"}}, {"name": "Silver Hollow Notch Mountain", "latitude": 42.1228609, "longitude": -74.2271869, "elevation": 917.0, "source": "osm", "_tags": {"ele": "917", "name": "Silver Hollow Notch Mountain", "natural": "peak"}}, {"name": "Red Kill Ridge", "latitude": 42.2291463, "longitude": -74.5380062, "elevation": 948.0, "source": "osm", "_tags": {"ele": "948", "name": "Red Kill Ridge", "natural": "peak", "wikidata": "Q34865101"}}, {"name": "North Plattekill", "latitude": 42.2855279, "longitude": -74.6635328, "elevation": 1021.0, "source": "osm", "_tags": {"ele": "1021", "name": "North Plattekill", "natural": "peak"}}, {"name": "Hubbell Hill", "latitude": 42.2160419, "longitude": -74.6485866, "elevation": 917.0, "source": "osm", "_tags": {"ele": "917", "name": "Hubbell Hill", "natural": "peak"}}, {"name": "Dry Brook Ridge", "latitude": 42.1130364, "longitude": -74.6041347, "elevation": 1058.0, "source": "osm", "_tags": {"ele": "1058", "gnis:feature_id": "948688", "name": "Dry Brook Ridge", "natural": "peak"}}, {"name": "Dink", "latitude": 41.9970242, "longitude": -74.3629146, "elevation": 1110.0, "source": "osm", "_tags": {"ele": "1110", "name": "Dink", "natural": "peak"}}, {"name": "Twin Mountain South Summit", "latitude": 42.1185867, "longitude": -74.1254157, "elevation": 1085.0, "source": "osm", "_tags": {"ele": "1085", "name": "Twin Mountain South Summit", "natural": "peak"}}, {"name": "Caudal", "latitude": 42.2690287, "longitude": -74.1608906, "elevation": 1012.0, "source": "osm", "_tags": {"ele": "1012", "name": "Caudal", "natural": "peak"}},