[{"name": "Mount Ararat", "latitude": 41.7914726, "longitude": -75.4554594, "elevation": 803.0, "source": "osm", "_tags": {"ele": "803", "gnis:feature_id": "1168365", "name": "Mount Ararat", "natural": "peak", "wikidata": "Q6919429", "wikipedia": "en:Mount Ararat (Pennsylvania)"}}, {"name": "Bald Hill", "latitude": 41.3384255, "longitude": -74.9526698, "elevation": 468.0, "source": "osm", "_tags": {"ele": "468", "gnis:feature_id": "1168635", "name": "Bald Hill", "natural": "peak", "wikidata": "Q49009808"}}, {"name": "Bear Trap Mountain", "latitude": 41.3620341, "longitude": -75.2207333, "elevation": 529.0, "source": "osm", "_tags": {"ele": "529", "gnis:feature_id": "1168956", "name": "Bear Trap Mountain", "natural": "peak", "wikidata": "Q49011521"}}, {"name": "Belle Mountain", "latitude": 41.2920353, "longitude": -75.1440653, "elevation": 576.0, "source": "osm", "_tags": {"ele": "576", "gnis:feature_id": "1169159", "name": "Belle Mountain", "natural": "peak", "wikidata": "Q49011956"}}, {"name": "Big Hickory", "latitude": 41.7617551, "longitude": -75.234896, "elevation": 611.0, "source": "osm", "_tags": {"ele": "611", "gnis:feature_id": "1169512", "name": "Big Hickory", "natural": "peak"}}, {"name": "Bushkos Hill", "latitude": 41.5873016, "longitude": -75.6476886, "elevation": 417.0, "source": "osm", "_tags": {"ele": "417", "gnis:feature_id": "1170775", "name": "Bushkos Hill", "natural": "peak"}}, {"name": "Carey Hill", "latitude": 41.722302, "longitude": -75.6351872, "elevation": 498.0, "source": "osm", "_tags": {"ele": "498", "gnis:feature_id": "1171204", "name": "Carey Hill", "natural": "peak"}}, {"name": "Carpenter Hill", "latitude": 41.5164676, "longitude": -75.6740789, "elevation": 493.0, "source": "osm", "_tags": {"ele": "493", "gnis:feature_id": "1171244", "name": "Carpenter Hill", "natural": "peak"}}, {"name": "Cary Mountain", "latitude": 41.5414697, "longitude": -75.5740754, "elevation": 627.0, "source": "osm", "_tags": {"ele": "627", "gnis:feature_id": "1171292", "name": "Cary Mountain", "natural": "peak"}}, {"name": "Church Hill", "latitude": 41.5795234, "longitude": -75.6638003, "elevation": 399.0, "source": "osm", "_tags": {"ele": "399", "gnis:feature_id": "1171856", "name": "Church Hill", "natural": "peak"}}, {"name": "Church Hill", "latitude": 41.7820307, "longitude": -75.3365662, "elevation": 586.0, "source": "osm", "_tags": {"ele": "586", "gnis:feature_id": "1171857", "name": "Church Hill", "natural": "peak"}}, {"name": "Cobble Hill", "latitude": 41.6595232, "longitude": -75.6818554, "elevation": 405.0, "source": "osm", "_tags": {"ele": "405", "gnis:feature_id": "1172095", "name": "Cobble Hill", "natural": "peak"}}, {"name": "Coon Hill", "latitude": 41.3656369, "longitude": -75.6179664, "elevation": 608.0, "source": "osm", "_tags": {"ele": "608", "gnis:feature_id": "1172405", "name": "Coon Hill", "natural": "peak"}}, {"name": "Davidson Hill", "latitude": 41.6009128, "longitude": -75.640466, "elevation": 428.0, "source": "osm", "_tags": {"ele": "428", "gnis:feature_id": "1172980", "name": "Davidson Hill", "natural": "peak"}}, {"name": "East Mountain", "latitude": 41.74897, "longitude": -75.5774081, "elevation": 719.0, "source": "osm", "_tags": {"ele": "719", "gnis:feature_id": "1173848", "name": "East Mountain", "natural": "peak"}}, {"name": "Elk Hill", "latitude": 41.7106369, "longitude": -75.5626857, "elevation": 748.0, "source": "osm", "_tags": {"ele": "748", "gnis:feature_id": "1174113", "name": "Elk Hill", "natural": "peak"}}, {"name": "Finch Hill", "latitude": 41.6189702, "longitude": -75.5576858, "elevation": 532.0, "source": "osm", "_tags": {"ele": "532", "gnis:feature_id": "1174753", "name": "Finch Hill", "natural": "peak"}}, {"name": "Finn Hill", "latitude": 41.6314683, "longitude": -75.6510216, "elevation": 457.0, "source": "osm", "_tags": {"ele": "457", "gnis:feature_id": "1174767", "name": "Finn Hill", "natural": "peak"}}, {"name": "Flat Rock", "latitude": 41.7289755, "longitude": -75.3290665, "elevation": 452.0, "source": "osm", "_tags": {"ele": "452", "gnis:feature_id": "1174886", "name": "Flat Rock", "natural": "peak"}}, {"name": "Foster Hill", "latitude": 41.3317604, "longitude": -74.8054437, "elevation": 249.0, "source": "osm", "_tags": {"ele": "249", "gnis:feature_id": "1175039", "name": "Foster Hill", "natural": "peak", "wikidata": "Q49030169"}}, {"name": "Golf Hill", "latitude": 41.5848103, "longitude": -75.2712875, "elevation": 408.0, "source": "osm", "_tags": {"ele": "408", "gnis:feature_id": "1175789", "name": "Golf Hill", "natural": "peak"}}, {"name": "Gunn Hill", "latitude": 41.7003572, "longitude": -75.6532433, "elevation": 460.0, "source": "osm", "_tags": {"ele": "460", "gnis:feature_id": "1176320", "name": "Gunn Hill", "natural": "peak"}}, {"name": "Hawks Nest", "latitude": 41.9720296, "longitude": -75.3521188, "elevation": 539.0, "source": "osm", "_tags": {"ele": "539", "gnis:feature_id": "1176673", "name": "Hawks Nest", "natural": "peak"}}, {"name": "Hickory Knob", "latitude": 41.9859124, "longitude": -75.6829623, "elevation": 537.0, "source": "osm", "_tags": {"ele": "537", "gnis:feature_id": "1176964", "name": "Hickory Knob", "natural": "peak"}}, {"name": "High Knob", "latitude": 41.5931398, "longitude": -75.4310151, "elevation": 690.0, "source": "osm", "_tags": {"ele": "690", "gnis:feature_id": "1177007", "name": "High Knob", "natural": "peak"}}, {"name": "High Knob", "latitude": 41.2998133, "longitude": -75.1246201, "elevation": 624.0, "source": "osm", "_tags": {"ele": "624", "gnis:feature_id": "1177008", "name": "High Knob", "natural": "peak", "wikidata": "Q49036280"}}, {"name": "Hubbard Mountain", "latitude": 41.5153581, "longitude": -75.5965763, "elevation": 618.0, "source": "osm", "_tags": {"ele": "618", "gnis:feature_id": "1177532", "name": "Hubbard Mountain", "natural": "peak"}}, {"name": "Jones Hill", "latitude": 41.7861902, "longitude": -75.6771317, "elevation": 486.0, "source": "osm", "_tags": {"ele": "486", "gnis:feature_id": "1178146", "name": "Jones Hill", "natural": "peak"}}, {"name": "Kennedy Hill", "latitude": 41.5561908, "longitude": -75.6296327, "elevation": 451.0, "source": "osm", "_tags": {"ele": "451", "gnis:feature_id": "1178369", "name": "Kennedy Hill", "natural": "peak"}}, {"name": "Kennedy Hill", "latitude": 41.7995249, "longitude": -75.6065743, "elevation": 518.0, "source": "osm", "_tags": {"ele": "518", "gnis:feature_id": "1178370", "name": "Kennedy Hill", "natural": "peak"}}, {"name": "King Hill", "latitude": 41.9734156, "longitude": -75.5304575, "elevation": 506.0, "source": "osm", "_tags": {"ele": "506", "gnis:feature_id": "1178476", "name": "King Hill", "natural": "peak"}}, {"name": "Kingsbury Hill", "latitude": 41.9336967, "longitude": -75.3379524, "elevation": 554.0, "source": "osm", "_tags": {"ele": "554", "gnis:feature_id": "1178501", "name": "Kingsbury Hill", "natural": "peak"}}, {"name": "Locust Hill", "latitude": 41.9960914, "longitude": -75.6829905, "elevation": 523.0, "source": "osm", "_tags": {"ele": "523", "gnis:feature_id": "1179784", "name": "Locust Hill", "natural": "peak"}}, {"name": "Low Knob", "latitude": 41.312591, "longitude": -75.1212865, "elevation": 607.0, "source": "osm", "_tags": {"ele": "607", "gnis:feature_id": "1179998", "name": "Low Knob", "natural": "peak", "wikidata": "Q49047030"}}, {"name": "Madden Hill", "latitude": 41.3478687, "longitude": -75.0801734, "elevation": 472.0, "source": "osm", "_tags": {"ele": "472", "gnis:feature_id": "1180171", "name": "Madden Hill", "natural": "peak", "wikidata": "Q49047355"}}, {"name": "Maley Hill", "latitude": 41.3520352, "longitude": -75.0890625, "elevation": 470.0, "source": "osm", "_tags": {"ele": "470", "gnis:feature_id": "1180240", "name": "Maley Hill", "natural": "peak", "wikidata": "Q49047650"}}, {"name": "Mansfield Hill", "latitude": 41.7745313, "longitude": -75.3135099, "elevation": 580.0, "source": "osm", "_tags": {"ele": "580", "gnis:feature_id": "1180306", "name": "Mansfield Hill", "natural": "peak"}}, {"name": "Maple Hill", "latitude": 41.9559175, "longitude": -75.421288, "elevation": 604.0, "source": "osm", "_tags": {"ele": "604", "gnis:feature_id": "1180344", "name": "Maple Hill", "natural": "peak"}}, {"name": "Meyers Mountain", "latitude": 41.5298028, "longitude": -75.5837981, "elevation": 616.0, "source": "osm", "_tags": {"ele": "616", "gnis:feature_id": "1180988", "name": "Meyers Mountain", "natural": "peak"}}, {"name": "Moores Hill", "latitude": 41.8467515, "longitude": -75.3996228, "elevation": 657.0, "source": "osm", "_tags": {"ele": "657", "gnis:feature_id": "1181513", "name": "Moores Hill", "natural": "peak"}}, {"name": "Nettle Hill", "latitude": 41.8500836, "longitude": -75.4565692, "elevation": 693.0, "source": "osm", "_tags": {"ele": "693", "gnis:feature_id": "1182272", "name": "Nettle Hill", "natural": "peak"}}, {"name": "Newton Hill", "latitude": 41.5520239, "longitude": -75.637133, "elevation": 514.0, "source": "osm", "_tags": {"ele": "514", "gnis:feature_id": "1182415", "name": "Newton Hill", "natural": "peak"}}, {"name": "North Knob", "latitude": 41.7153592, "longitude": -75.5604633, "elevation": 817.0, "source": "osm", "_tags": {"ele": "817", "gnis:feature_id": "1182603", "name": "North Knob", "natural": "peak"}}, {"name": "Oak Hill", "latitude": 41.9870248, "longitude": -75.6212937, "elevation": 525.0, "source": "osm", "_tags": {"ele": "525", "gnis:feature_id": "1182769", "name": "Oak Hill", "natural": "peak"}}, {"name": "Penn Hill", "latitude": 41.9181391, "longitude": -75.4604566, "elevation": 586.0, "source": "osm", "_tags": {"ele": "586", "gnis:feature_id": "1183477", "name": "Penn Hill", "natural": "peak"}}, {"name": "Pine Hill", "latitude": 41.3481493, "longitude": -74.7723872, "elevation": 296.0, "source": "osm", "_tags": {"ele": "296", "gnis:feature_id": "1183829", "name": "Pine Hill", "natural": "peak", "wikidata": "Q49061578"}}, {"name": "Pinnacle Hill", "latitude": 41.2931375, "longitude": -75.6335226, "elevation": 564.0, "source": "osm", "_tags": {"ele": "564", "gnis:feature_id": "1183950", "name": "Pinnacle Hill", "natural": "peak"}}, {"name": "Round Hill", "latitude": 41.3159261, "longitude": -74.9201692, "elevation": 446.0, "source": "osm", "_tags": {"ele": "446", "gnis:feature_id": "1185518", "name": "Round Hill", "natural": "peak", "wikidata": "Q49069601"}}, {"name": "Round Hill", "latitude": 41.6850809, "longitude": -75.5829639, "elevation": 540.0, "source": "osm", "_tags": {"ele": "540", "gnis:feature_id": "1185519", "name": "Round Hill", "natural": "peak"}}, {"name": "Round Hill", "latitude": 41.9931379, "longitude": -75.5315682, "elevation": 567.0, "source": "osm", "_tags": {"ele": "567", "gnis:feature_id": "1185521", "name": "Round Hill", "natural": "peak"}}, {"name": "Salem Hill", "latitude": 41.5503613, "longitude": -75.4568493, "elevation": 686.0, "source": "osm", "_tags": {"ele": "686", "gnis:feature_id": "1186857", "name": "Salem Hill", "natural": "peak"}}, {"name": "Sarnoski Hill", "latitude": 41.56869, "longitude": -75.6660226, "elevation": 407.0, "source": "osm", "_tags": {"ele": "407", "gnis:feature_id": "1186983", "name": "Sarnoski Hill", "natural": "peak"}}, {"name": "Shrawder Mountain", "latitude": 41.9181403, "longitude": -75.3929545, "elevation": 637.0, "source": "osm", "_tags": {"ele": "637", "gnis:feature_id": "1187614", "name": "Shrawder Mountain", "natural": "peak"}}, {"name": "Slocum Hill", "latitude": 41.8520259, "longitude": -75.55935, "elevation": 612.0, "source": "osm", "_tags": {"ele": "612", "gnis:feature_id": "1187833", "name": "Slocum Hill", "natural": "peak"}}, {"name": "Slocum Hill", "latitude": 41.9359166, "longitude": -75.4740678, "elevation": 568.0, "source": "osm", "_tags": {"ele": "568", "gnis:feature_id": "1187834", "name": "Slocum Hill", "natural": "peak"}}, {"name": "Smith Hill", "latitude": 41.6089776, "longitude": -75.2196189, "elevation": 432.0, "source": "osm", "_tags": {"ele": "432", "gnis:feature_id": "1187872", "name": "Smith Hill", "natural": "peak"}}, {"name": "Smokey Mountain", "latitude": 41.9559126, "longitude": -75.6718513, "elevation": 476.0, "source": "osm", "_tags": {"ele": "476", "gnis:feature_id": "1187917", "name": "Smokey Mountain", "natural": "peak"}}, {"name": "Snake Hill", "latitude": 41.8359144, "longitude": -75.5796286, "elevation": 515.0, "source": "osm", "_tags": {"ele": "515", "gnis:feature_id": "1187928", "name": "Snake Hill", "natural": "peak"}}, {"name": "South Knob", "latitude": 41.7050813, "longitude": -75.5607412, "elevation": 792.0, "source": "osm", "_tags": {"ele": "792", "gnis:feature_id": "1188085", "name": "South Knob", "natural": "peak"}}, {"name": "Sugarloaf Mountain", "latitude": 41.8223058, "longitude": -75.4557365, "elevation": 771.0, "source": "osm", "_tags": {"ele": "771", "gnis:feature_id": "1188997", "name": "Sugarloaf Mountain", "natural": "peak"}}, {"name": "Supko Hill", "latitude": 41.6200797, "longitude": -75.6324101, "elevation": 445.0, "source": "osm", "_tags": {"ele": "445", "gnis:feature_id": "1189104", "name": "Supko Hill", "natural": "peak"}}, {"name": "Tarey Hill", "latitude": 41.3623125, "longitude": -75.135175, "elevation": 498.0, "source": "osm", "_tags": {"ele": "498", "gnis:feature_id": "1189279", "name": "Tarey Hill", "natural": "peak", "wikidata": "Q49081427"}}, {"name": "Taylor Hill", "latitude": 41.9575814, "longitude": -75.5690702, "elevation": 522.0, "source": "osm", "_tags": {"ele": "522", "gnis:feature_id": "1189308", "name": "Taylor Hill", "natural": "peak"}}, {"name": "The Milford Knob", "latitude": 41.3182689, "longitude": -74.8077656, "elevation": 202.0, "source": "osm", "_tags": {"ele": "202", "gnis:feature_id": "1189415", "name": "The Milford Knob", "natural": "peak"}}, {"name": "Thorn Hill", "latitude": 41.6475798, "longitude": -75.6299098, "elevation": 552.0, "source": "osm", "_tags": {"ele": "552", "gnis:feature_id": "1189523", "name": "Thorn Hill", "natural": "peak"}}, {"name": "Tiffany Hill", "latitude": 41.7686908, "longitude": -75.6429645, "elevation": 509.0, "source": "osm", "_tags": {"ele": "509", "gnis:feature_id": "1189566", "name": "Tiffany Hill", "natural": "peak"}}, {"name": "Tinker Hill", "latitude": 41.6886931, "longitude": -75.5287961, "elevation": 534.0, "source": "osm", "_tags": {"ele": "534", "gnis:feature_id": "1189584", "name": "Tinker Hill", "natural": "peak"}}, {"name": "Tyler Hill", "latitude": 41.7098107, "longitude": -75.1110032, "elevation": 469.0, "source": "osm", "_tags": {"ele": "469", "gnis:feature_id": "1190039", "name": "Tyler Hill", "natural": "peak"}}, {"name": "Vine Hill", "latitude": 41.5848109, "longitude": -75.1754509, "elevation": 463.0, "source": "osm", "_tags": {"ele": "463", "gnis:feature_id": "1190431", "name": "Vine Hill", "natural": "peak"}}, {"name": "Watts Hill", "latitude": 41.5923107, "longitude": -75.2565646, "elevation": 389.0, "source": "osm", "_tags": {"ele": "389", "gnis:feature_id": "1190703", "name": "Watts Hill", "natural": "peak"}}, {"name": "Weatherby Hill", "latitude": 41.541468, "longitude": -75.6546336, "elevation": 481.0, "source": "osm", "_tags": {"ele": "481", "gnis:feature_id": "1190734", "name": "Weatherby Hill", "natural": "peak"}}, {"name": "West Hill", "latitude": 41.3117575, "longitude": -75.1385093, "elevation": 605.0, "source": "osm", "_tags": {"ele": "605", "gnis:feature_id": "1191042", "name": "West Hill", "natural": "peak", "wikidata": "Q49088388"}}, {"name": "Oak Hill", "latitude": 41.9978578, "longitude": -75.6396274, "elevation": 522.0, "source": "osm", "_tags": {"ele": "522", "gnis:feature_id": "1193057", "name": "Oak Hill", "natural": "peak"}}, {"name": "Bald Hill", "latitude": 41.3987015, "longitude": -75.0729501, "elevation": 476.0, "source": "osm", "_tags": {"ele": "476", "gnis:feature_id": "1198349", "name": "Bald Hill", "natural": "peak"}}, {"name": "Bald Hill", "latitude": 41.4045357, "longitude": -74.9401685, "elevation": 464.0, "source": "osm", "_tags": {"ele": "464", "gnis:feature_id": "1198350", "name": "Bald Hill", "natural": "peak"}}, {"name": "Bell Mountain", "latitude": 41.477857, "longitude": -75.6604675, "elevation": 606.0, "source": "osm", "_tags": {"ele": "606", "gnis:feature_id": "1198408", "name": "Bell Mountain", "natural": "peak", "wikidata": "Q49011938"}}, {"name": "Big Hill", "latitude": 41.4117564, "longitude": -75.1637861, "elevation": 531.0, "source": "osm", "_tags": {"ele": "531", "gnis:feature_id": "1198427", "name": "Big Hill", "natural": "peak", "wikidata": "Q49012486"}}, {"name": "Briar Hill", "latitude": 41.4145334, "longitude": -75.2593446, "elevation": 426.0, "source": "osm", "_tags": {"ele": "426", "gnis:feature_id": "1198474", "name": "Briar Hill", "natural": "peak"}}, {"name": "Buckhorn Mountain", "latitude": 41.4548116, "longitude": -75.1543406, "elevation": 429.0, "source": "osm", "_tags": {"ele": "429", "gnis:feature_id": "1198494", "name": "Buckhorn Mountain", "natural": "peak", "wikidata": "Q49016307"}}, {"name": "Mount Cobb", "latitude": 41.4089718, "longitude": -75.4974069, "elevation": 555.0, "source": "osm", "_tags": {"ele": "555", "gnis:feature_id": "1198585", "name": "Mount Cobb", "natural": "peak"}}, {"name": "Gates Hill", "latitude": 41.3964788, "longitude": -75.1562862, "elevation": 514.0, "source": "osm", "_tags": {"ele": "514", "gnis:feature_id": "1198786", "name": "Gates Hill", "natural": "peak", "wikidata": "Q49031187"}}, {"name": "German Hill", "latitude": 41.4572426, "longitude": -74.9481048, "elevation": 386.0, "source": "osm", "_tags": {"ele": "386", "gnis:feature_id": "1198794", "name": "German Hill", "natural": "peak"}}, {"name": "Prospect Hill", "latitude": 41.4856364, "longitude": -75.5785203, "elevation": 281.0, "source": "osm", "_tags": {"ele": "281", "gnis:feature_id": "1199342", "name": "Prospect Hill", "natural": "peak"}}, {"name": "Shimers Mountain", "latitude": 41.4637006, "longitude": -75.0998943, "elevation": 382.0, "source": "osm", "_tags": {"ele": "382", "gnis:feature_id": "1199521", "name": "Shimers Mountain", "natural": "peak"}}, {"name": "Lackawanna Mountain", "latitude": 41.6584161, "longitude": -75.4899061, "elevation": 677.0, "source": "osm", "_tags": {"ele": "677", "gnis:feature_id": "1212966", "name": "Lackawanna Mountain", "natural": "peak"}}, {"name": "Bald Mountain", "latitude": 41.9028674, "longitude": -74.7243257, "elevation": 703.0, "source": "osm", "_tags": {"ele": "703", "gnis:feature_id": "942861", "name": "Bald Mountain", "natural": "peak", "wikidata": "Q34803456"}}, {"name": "Baldy", "latitude": 41.7659216, "longitude": -74.9623871, "elevation": 464.0, "source": "osm", "_tags": {"ele": "464", "gnis:feature_id": "942910", "name": "Baldy", "natural": "peak", "wikidata": "Q34804147"}}, {"name": "Barkaboom Mountain", "latitude": 42.0717554, "longitude": -74.7201571, "elevation": 916.0, "source": "osm", "_tags": {"ele": "916", "gnis:feature_id": "943007", "name": "Barkaboom Mountain", "natural": "peak", "wikidata": "Q34804298"}}, {"name": "Baxter Mountain", "latitude": 42.0111988, "longitude": -75.034332, "elevation": 614.0, "source": "osm", "_tags": {"ele": "614", "gnis:feature_id": "943178", "name": "Baxter Mountain", "natural": "peak", "wikidata": "Q34804521"}}, {"name": "Bear Spring Mountain", "latitude": 42.1450856, "longitude": -75.1212793, "elevation": 746.0, "source": "osm", "_tags": {"ele": "746", "gnis:feature_id": "943309", "name": "Bear Spring Mountain", "natural": "peak", "wikidata": "Q34804718"}}, {"name": "Beech Hill", "latitude": 42.0456442, "longitude": -74.7854363, "elevation": 867.0, "source": "osm", "_tags": {"ele": "867", "gnis:feature_id": "943505", "name": "Beech Hill", "natural": "peak", "wikidata": "Q34804842"}}, {"name": "Big Fork Mountain", "latitude": 41.9298099, "longitude": -75.1140569, "elevation": 665.0, "source": "osm", "_tags": {"ele": "665", "gnis:feature_id": "943884", "name": "Big Fork Mountain", "natural": "peak", "wikidata": "Q34805224"}}, {"name": "Bittersweet Hill", "latitude": 41.943143, "longitude": -75.1660027, "elevation": 679.0, "source": "osm", "_tags": {"ele": "679", "gnis:feature_id": "944061", "name": "Bittersweet Hill", "natural": "peak", "wikidata": "Q34805439"}}, {"name": "Bobell Hill", "latitude": 42.2739658, "longitude": -75.6807443, "elevation": 546.0, "source": "osm", "_tags": {"ele": "546", "gnis:feature_id": "944375", "name": "Bobell Hill", "natural": "peak", "wikidata": "Q34805844"}}, {"name": "Bouchoux Hill", "latitude": 41.8806433, "longitude": -75.1698924, "elevation": 538.0, "source": "osm", "_tags": {"ele": "538", "gnis:feature_id": "944484", "name": "Bouchoux Hill", "natural": "peak", "wikidata": "Q34805960"}}, {"name": "Brace Hill", "latitude": 42.1203644, "longitude": -75.013498, "elevation": 752.0, "source": "osm", "_tags": {"ele": "752", "gnis:feature_id": "944561", "name": "Brace Hill", "natural": "peak", "wikidata": "Q34806057"}}, {"name": "Brock Mountain", "latitude": 42.0525879, "longitude": -74.9032173, "elevation": 763.0, "source": "osm", "_tags": {"ele": "763", "gnis:feature_id": "944800", "name": "Brock Mountain", "natural": "peak"}}, {"name": "Bryden Hill", "latitude": 42.1292535, "longitude": -74.9271066, "elevation": 758.0, "source": "osm", "_tags": {"ele": "758", "gnis:feature_id": "945000", "name": "Bryden Hill", "natural": "peak", "wikidata": "Q34806445"}}, {"name": "Buck Knoll", "latitude": 41.4514814, "longitude": -74.7340519, "elevation": 417.0, "source": "osm", "_tags": {"ele": "417", "gnis:feature_id": "945029", "name": "Buck Knoll", "natural": "peak"}}, {"name": "Bullock Hill", "latitude": 42.2023062, "longitude": -75.2585066, "elevation": 604.0, "source": "osm", "_tags": {"ele": "604", "gnis:feature_id": "945163", "name": "Bullock Hill", "natural": "peak", "wikidata": "Q34806877"}}, {"name": "Burnside Hill", "latitude": 42.1689718, "longitude": -75.3790657, "elevation": 623.0, "source": "osm", "_tags": {"ele": "623", "gnis:feature_id": "945242", "name": "Burnside Hill", "natural": "peak", "wikidata": "Q34807034"}}, {"name": "Calhoun Hill", "latitude": 42.2217527, "longitude": -74.8071032, "elevation": 631.0, "source": "osm", "_tags": {"ele": "631", "gnis:feature_id": "945457", "name": "Calhoun Hill", "natural": "peak", "wikidata": "Q34807375"}}, {"name": "", "latitude": 42.0567543, "longitude": -74.9479407, "elevation": 677.0, "source": "osm", "_tags": {"ele": "677", "natural": "peak"}}, {"name": "Carroll Hill", "latitude": 42.183417, "longitude": -75.296841, "elevation": 655.0, "source": "osm", "_tags": {"ele": "655", "gnis:feature_id": "945910", "name": "Carroll Hill", "natural": "peak", "wikidata": "Q34807708"}}, {"name": "Chapin Hill", "latitude": 41.6014789, "longitude": -74.8373864, "elevation": 435.0, "source": "osm", "_tags": {"ele": "435", "gnis:feature_id": "946386", "name": "Chapin Hill", "natural": "peak", "wikidata": "Q34808472"}}, {"name": "Chuck Hill", "latitude": 41.7959222, "longitude": -74.7751618, "elevation": 613.0, "source": "osm", "_tags": {"ele": "613", "gnis:feature_id": "946660", "name": "Chuck Hill", "natural": "peak", "wikidata": "Q34808720"}}, {"name": "Clabber Peak", "latitude": 42.1298068, "longitude": -75.2787843, "elevation": 656.0, "source": "osm", "_tags": {"ele": "656", "gnis:feature_id": "946722", "name": "Clabber Peak", "natural": "peak", "wikidata": "Q34808762"}}, {"name": "Colchester Mountain", "latitude": 42.1442528, "longitude": -75.040721, "elevation": 733.0, "source": "osm", "_tags": {"ele": "733", "gnis:feature_id": "947023", "name": "Colchester Mountain", "natural": "peak", "wikidata": "Q34809141"}}, {"name": "Conklin Hill", "latitude": 42.1048094, "longitude": -74.9232177, "elevation": 711.0, "source": "osm", "_tags": {"ele": "711", "gnis:feature_id": "947294", "name": "Conklin Hill", "natural": "peak", "wikidata": "Q34809390"}}, {"name": "Coon Hill", "latitude": 41.9956418, "longitude": -75.282672, "elevation": 576.0, "source": "osm", "_tags": {"ele": "576", "gnis:feature_id": "947374", "name": "Coon Hill", "natural": "peak", "wikidata": "Q34809516"}}, {"name": "Couse Hill", "latitude": 42.2561941, "longitude": -75.2726742, "elevation": 641.0, "source": "osm", "_tags": {"ele": "641", "gnis:feature_id": "947568", "name": "Couse Hill", "natural": "peak", "wikidata": "Q34809730"}}, {"name": "Craig Hill", "latitude": 42.2206415, "longitude": -74.8507155, "elevation": 811.0, "source": "osm", "_tags": {"ele": "811", "gnis:feature_id": "947637", "name": "Craig Hill", "natural": "peak", "wikidata": "Q34809752"}}, {"name": "Crane Hill", "latitude": 42.1384186, "longitude": -75.1898926, "elevation": 708.0, "source": "osm", "_tags": {"ele": "708", "gnis:feature_id": "947695", "name": "Crane Hill", "natural": "peak", "wikidata": "Q34809814"}}, {"name": "Cross Mountain", "latitude": 42.080922, "longitude": -74.6957121, "elevation": 714.0, "source": "osm", "_tags": {"ele": "714", "gnis:feature_id": "947806", "name": "Cross Mountain", "natural": "peak", "wikidata": "Q34809900"}}, {"name": "Deep Hollow Hill", "latitude": 41.6064777, "longitude": -75.0265568, "elevation": 380.0, "source": "osm", "_tags": {"ele": "380", "gnis:feature_id": "948173", "name": "Deep Hollow Hill", "natural": "peak", "wikidata": "Q35737188"}}, {"name": "Devils Backbone", "latitude": 42.2034193, "longitude": -74.8948834, "elevation": 739.0, "source": "osm", "_tags": {"ele": "739", "gnis:feature_id": "948360", "name": "Devils Backbone", "natural": "peak"}}, {"name": "Dingle Hill", "latitude": 42.1625871, "longitude": -74.7362683, "elevation": 862.0, "source": "osm", "_tags": {"ele": "862", "gnis:feature_id": "948463", "name": "Dingle Hill", "natural": "peak", "wikidata": "Q49024926"}}, {"name": "Dunk Hill", "latitude": 42.2114738, "longitude": -75.1098902, "elevation": 624.0, "source": "osm", "_tags": {"ele": "624", "gnis:feature_id": "948797", "name": "Dunk Hill", "natural": "peak", "wikidata": "Q49026242"}}, {"name": "Dunk Hill", "latitude": 42.2586954, "longitude": -75.0857226, "elevation": 666.0, "source": "osm", "_tags": {"ele": "666", "gnis:feature_id": "948798", "name": "Dunk Hill", "natural": "peak"}}, {"name": "East Hill", "latitude": 41.7978664, "longitude": -74.8787745, "elevation": 536.0, "source": "osm", "_tags": {"ele": "536", "gnis:feature_id": "949107", "name": "East Hill", "natural": "peak", "wikidata": "Q34914500"}}, {"name": "Elm Tree Ridge", "latitude": 41.9356431, "longitude": -75.157947, "elevation": 655.0, "source": "osm", "_tags": {"ele": "655", "gnis:feature_id": "949559", "name": "Elm Tree Ridge", "natural": "peak", "wikidata": "Q34822056"}}, {"name": "Farmers Hill", "latitude": 42.18842, "longitude": -74.7401572, "elevation": 602.0, "source": "osm", "_tags": {"ele": "602", "gnis:feature_id": "949912", "name": "Farmers Hill", "natural": "peak", "wikidata": "Q34868126"}}, {"name": "Fords Hill", "latitude": 42.1742536, "longitude": -74.742935, "elevation": 860.0, "source": "osm", "_tags": {"ele": "860", "gnis:feature_id": "950379", "name": "Fords Hill", "natural": "peak", "wikidata": "Q34822217"}}, {"name": "Fork Mountain", "latitude": 42.1009197, "longitude": -75.0704441, "elevation": 741.0, "source": "osm", "_tags": {"ele": "741", "gnis:feature_id": "950443", "name": "Fork Mountain", "natural": "peak", "wikidata": "Q34822276"}}, {"name": "Fuller Hill", "latitude": 42.0203657, "longitude": -74.9912753, "elevation": 751.0, "source": "osm", "_tags": {"ele": "751", "gnis:feature_id": "950782", "name": "Fuller Hill", "natural": "peak", "wikidata": "Q34915228"}}, {"name": "Fulton Hill", "latitude": 41.7389773, "longitude": -74.9682207, "elevation": 392.0, "source": "osm", "_tags": {"ele": "392", "gnis:feature_id": "950797", "name": "Fulton Hill", "natural": "peak", "wikidata": "Q34915267"}}, {"name": "Fyffe Cobble", "latitude": 42.1953638, "longitude": -74.931551, "elevation": 723.0, "source": "osm", "_tags": {"ele": "723", "gnis:feature_id": "950825", "name": "Fyffe Cobble", "natural": "peak", "wikidata": "Q34915332"}}, {"name": "Gallop Hill", "latitude": 42.2525837, "longitude": -75.2051718, "elevation": 685.0, "source": "osm", "_tags": {"ele": "685", "gnis:feature_id": "950858", "name": "Gallop Hill", "natural": "peak", "wikidata": "Q34915505"}}, {"name": "Grants Hill", "latitude": 41.8434222, "longitude": -74.8212729, "elevation": 642.0, "source": "osm", "_tags": {"ele": "642", "gnis:feature_id": "951523", "name": "Grants Hill", "natural": "peak", "wikidata": "Q34822712"}}, {"name": "Gray Hill", "latitude": 41.9178668, "longitude": -74.801827, "elevation": 661.0, "source": "osm", "_tags": {"ele": "661", "gnis:feature_id": "951605", "name": "Gray Hill", "natural": "peak", "wikidata": "Q34822954"}}, {"name": "Grays Mountain", "latitude": 42.1786979, "longitude": -74.751824, "elevation": 878.0, "source": "osm", "_tags": {"ele": "878", "gnis:feature_id": "951613", "name": "Grays Mountain", "natural": "peak", "wikidata": "Q34822964"}}, {"name": "Greens Hill", "latitude": 41.6503674, "longitude": -74.8218303, "elevation": 435.0, "source": "osm", "_tags": {"ele": "435", "gnis:feature_id": "951765", "name": "Greens Hill", "natural": "peak", "wikidata": "Q34870316"}}, {"name": "Hawk Mountain", "latitude": 42.0170309, "longitude": -75.2343373, "elevation": 630.0, "source": "osm", "_tags": {"ele": "630", "gnis:feature_id": "952399", "name": "Hawk Mountain", "natural": "peak", "wikidata": "Q34823688"}}, {"name": "Hawks Nest", "latitude": 41.4187041, "longitude": -74.7321078, "elevation": 305.0, "source": "osm", "_tags": {"ele": "305", "gnis:feature_id": "952411", "name": "Hawks Nest", "natural": "peak", "wikidata": "Q34823698"}}, {"name": "Hawks Nest", "latitude": 41.8648101, "longitude": -75.101557, "elevation": 545.0, "source": "osm", "_tags": {"ele": "545", "gnis:feature_id": "952412", "name": "Hawks Nest", "natural": "peak", "wikidata": "Q34823710"}}, {"name": "Hemlock Knoll", "latitude": 42.1761978, "longitude": -74.7954363, "elevation": 585.0, "source": "osm", "_tags": {"ele": "585", "gnis:feature_id": "952561", "name": "Hemlock Knoll", "natural": "peak", "wikidata": "Q34921745"}}, {"name": "Hill 16", "latitude": 41.8200884, "longitude": -74.9321084, "elevation": 584.0, "source": "osm", "_tags": {"ele": "584", "gnis:feature_id": "952804", "name": "Hill 16", "natural": "peak", "wikidata": "Q34922417"}}, {"name": "Hodges Hill", "latitude": 42.287027, "longitude": -75.2354501, "elevation": 606.0, "source": "osm", "_tags": {"ele": "606", "gnis:feature_id": "952918", "name": "Hodges Hill", "natural": "peak", "wikidata": "Q34922641"}}, {"name": "Mount Holly", "latitude": 42.1475858, "longitude": -75.0776667, "elevation": 686.0, "source": "osm", "_tags": {"ele": "686", "gnis:feature_id": "953011", "name": "Mount Holly", "natural": "peak", "wikidata": "Q34881545"}}, {"name": "Houck Mountain", "latitude": 42.1114748, "longitude": -75.1460021, "elevation": 748.0, "source": "osm", "_tags": {"ele": "748", "gnis:feature_id": "953276", "name": "Houck Mountain", "natural": "peak", "wikidata": "Q34824232"}}, {"name": "Hunt Hill", "latitude": 42.0734215, "longitude": -74.7971033, "elevation": 657.0, "source": "osm", "_tags": {"ele": "657", "gnis:feature_id": "953458", "name": "Hunt Hill", "natural": "peak"}}, {"name": "Hust Hill", "latitude": 41.8142551, "longitude": -74.9434976, "elevation": 588.0, "source": "osm", "_tags": {"ele": "588", "gnis:feature_id": "953536", "name": "Hust Hill", "natural": "peak", "wikidata": "Q34824705"}}, {"name": "Jensen Hill", "latitude": 41.8670322, "longitude": -75.1543365, "elevation": 513.0, "source": "osm", "_tags": {"ele": "513", "gnis:feature_id": "953999", "name": "Jensen Hill", "natural": "peak", "wikidata": "Q34876385"}}, {"name": "Johnny Ridge", "latitude": 41.9259208, "longitude": -75.1718364, "elevation": 595.0, "source": "osm", "_tags": {"ele": "595", "gnis:feature_id": "954090", "name": "Johnny Ridge", "natural": "peak", "wikidata": "Q34876773"}}, {"name": "Loomis Mountain", "latitude": 42.2284174, "longitude": -75.1990602, "elevation": 689.0, "source": "osm", "_tags": {"ele": "689", "gnis:feature_id": "955967", "name": "Loomis Mountain", "natural": "peak", "wikidata": "Q34925890"}}, {"name": "Lumbert Hill", "latitude": 42.2856396, "longitude": -75.0198864, "elevation": 667.0, "source": "osm", "_tags": {"ele": "667", "gnis:feature_id": "956149", "name": "Lumbert Hill", "natural": "peak", "wikidata": "Q34926256"}}, {"name": "Mandrake Hill", "latitude": 41.8381438, "longitude": -74.9893315, "elevation": 587.0, "source": "osm", "_tags": {"ele": "587", "gnis:feature_id": "956340", "name": "Mandrake Hill", "natural": "peak", "wikidata": "Q34926963"}}, {"name": "Mary Smith Hill", "latitude": 42.0436995, "longitude": -74.833771, "elevation": 846.0, "source": "osm", "_tags": {"ele": "846", "gnis:feature_id": "956618", "name": "Mary Smith Hill", "natural": "peak", "wikidata": "Q34826995"}}, {"name": "McCoys Knob", "latitude": 41.9020316, "longitude": -75.2587837, "elevation": 518.0, "source": "osm", "_tags": {"ele": "518", "gnis:feature_id": "956748", "name": "McCoys Knob", "natural": "peak", "wikidata": "Q49048693"}}, {"name": "Meekers Hill", "latitude": 42.1411987, "longitude": -74.7207124, "elevation": 770.0, "source": "osm", "_tags": {"ele": "770", "gnis:feature_id": "956913", "name": "Meekers Hill", "natural": "peak", "wikidata": "Q34827360"}}, {"name": "Michigan Hill", "latitude": 42.1336944, "longitude": -75.3751763, "elevation": 621.0, "source": "osm", "_tags": {"ele": "621", "gnis:feature_id": "957071", "name": "Michigan Hill", "natural": "peak", "wikidata": "Q34827572"}}, {"name": "Middle Mountain", "latitude": 42.0403664, "longitude": -74.7954366, "elevation": 906.0, "source": "osm", "_tags": {"ele": "906", "gnis:feature_id": "957122", "name": "Middle Mountain", "natural": "peak", "wikidata": "Q34827654"}}, {"name": "Mill Mountain", "latitude": 42.2628631, "longitude": -74.7340455, "elevation": 800.0, "source": "osm", "_tags": {"ele": "800", "gnis:feature_id": "957252", "name": "Mill Mountain", "natural": "peak", "wikidata": "Q34827846"}}, {"name": "Morton Hill", "latitude": 41.9906441, "longitude": -74.914329, "elevation": 765.0, "source": "osm", "_tags": {"ele": "765", "gnis:feature_id": "957721", "name": "Morton Hill", "natural": "peak", "wikidata": "Q34880148", "wikipedia": "en:Morton Hill (New York)"}}, {"name": "Murphy Hill", "latitude": 42.1311981, "longitude": -74.8676606, "elevation": 703.0, "source": "osm", "_tags": {"ele": "703", "gnis:feature_id": "958183", "name": "Murphy Hill", "natural": "peak", "wikidata": "Q34884202"}}, {"name": "Neff Hill", "latitude": 42.2772985, "longitude": -75.4374037, "elevation": 525.0, "source": "osm", "_tags": {"ele": "525", "gnis:feature_id": "958330", "name": "Neff Hill", "natural": "peak"}}, {"name": "Page Pond Hill", "latitude": 42.1475817, "longitude": -75.495458, "elevation": 612.0, "source": "osm", "_tags": {"ele": "612", "gnis:feature_id": "959755", "name": "Page Pond Hill", "natural": "peak", "wikidata": "Q34828585"}}, {"name": "Palmer Hill", "latitude": 42.2628617, "longitude": -75.1329465, "elevation": 625.0, "source": "osm", "_tags": {"ele": "625", "gnis:feature_id": "959787", "name": "Palmer Hill", "natural": "peak", "wikidata": "Q34828675"}}, {"name": "Perch Lake Mountain", "latitude": 42.1011988, "longitude": -74.8126592, "elevation": 703.0, "source": "osm", "_tags": {"ele": "703", "gnis:feature_id": "960179", "name": "Perch Lake Mountain", "natural": "peak", "wikidata": "Q34829455"}}, {"name": "Pine Hill", "latitude": 42.1836964, "longitude": -75.0854448, "elevation": 665.0, "source": "osm", "_tags": {"ele": "665", "gnis:feature_id": "960462", "name": "Pine Hill", "natural": "peak", "wikidata": "Q34893825"}}, {"name": "Pine Hill", "latitude": 42.2823038, "longitude": -75.3435096, "elevation": 612.0, "source": "osm", "_tags": {"ele": "612", "gnis:feature_id": "960464", "name": "Pine Hill", "natural": "peak", "wikidata": "Q34893849"}}, {"name": "Mount Pisgah", "latitude": 42.2211973, "longitude": -74.7357125, "elevation": 1018.0, "source": "osm", "_tags": {"ele": "1018", "gnis:feature_id": "960632", "name": "Mount Pisgah", "natural": "peak", "wikidata": "Q34883083"}}, {"name": "Mount Pleasant", "latitude": 42.287302, "longitude": -75.4951817, "elevation": 447.0, "source": "osm", "_tags": {"ele": "447", "gnis:feature_id": "960742", "name": "Mount Pleasant", "natural": "peak", "wikidata": "Q34883190"}}, {"name": "Point Mountain", "latitude": 41.9489753, "longitude": -75.287395, "elevation": 421.0, "source": "osm", "_tags": {"ele": "421", "gnis:feature_id": "960829", "name": "Point Mountain", "natural": "peak", "wikidata": "Q34896461"}}, {"name": "Prospect Hill", "latitude": 42.1625862, "longitude": -74.9748857, "elevation": 783.0, "source": "osm", "_tags": {"ele": "783", "gnis:feature_id": "961169", "name": "Prospect Hill", "natural": "peak", "wikidata": "Q34899403"}}, {"name": "Rattle Hill", "latitude": 41.9734226, "longitude": -74.7693253, "elevation": 788.0, "source": "osm", "_tags": {"ele": "788", "gnis:feature_id": "962212", "name": "Rattle Hill", "natural": "peak", "wikidata": "Q34829536"}}, {"name": "Rattlesnake Hill", "latitude": 41.8931433, "longitude": -75.159892, "elevation": 563.0, "source": "osm", "_tags": {"ele": "563", "gnis:feature_id": "962219", "name": "Rattlesnake Hill", "natural": "peak", "wikidata": "Q34829574"}}, {"name": "Red Hill", "latitude": 42.0917503, "longitude": -75.3857316, "elevation": 536.0, "source": "osm", "_tags": {"ele": "536", "gnis:feature_id": "962288", "name": "Red Hill", "natural": "peak", "wikidata": "Q34829790"}}, {"name": "Renard Hill", "latitude": 42.0961982, "longitude": -74.9596076, "elevation": 689.0, "source": "osm", "_tags": {"ele": "689", "gnis:feature_id": "962380", "name": "Renard Hill", "natural": "peak", "wikidata": "Q34829943"}}, {"name": "Revonah Hill", "latitude": 41.8184223, "longitude": -74.7618278, "elevation": 653.0, "source": "osm", "_tags": {"ele": "653", "gnis:feature_id": "962417", "name": "Revonah Hill", "natural": "peak", "wikidata": "Q34829993"}}, {"name": "Rock Rift Mountain", "latitude": 42.0739751, "longitude": -75.171836, "elevation": 730.0, "source": "osm", "_tags": {"ele": "730", "gnis:feature_id": "962731", "name": "Rock Rift Mountain", "natural": "peak", "wikidata": "Q34830516"}}, {"name": "Rodgers Hill", "latitude": 41.9817551, "longitude": -74.9412742, "elevation": 755.0, "source": "osm", "_tags": {"ele": "755", "gnis:feature_id": "962798", "name": "Rodgers Hill", "natural": "peak", "wikidata": "Q34830668", "wikipedia": "en:Rodgers Hill"}}, {"name": "Round Top", "latitude": 41.6509231, "longitude": -74.7948854, "elevation": 410.0, "source": "osm", "_tags": {"ele": "410", "gnis:feature_id": "963017", "name": "Round Top", "natural": "peak", "wikidata": "Q34831376"}}, {"name": "Round Top", "latitude": 41.9003668, "longitude": -74.816272, "elevation": 557.0, "source": "osm", "_tags": {"ele": "557", "gnis:feature_id": "963018", "name": "Round Top", "natural": "peak", "wikidata": "Q34831387"}}, {"name": "Scotch Mountain", "latitude": 42.2398076, "longitude": -74.9207173, "elevation": 749.0, "source": "osm", "_tags": {"ele": "749", "gnis:feature_id": "964668", "name": "Scotch Mountain", "natural": "peak", "wikidata": "Q34904488"}}, {"name": "Sidney Mountain", "latitude": 42.2773034, "longitude": -75.3860112, "elevation": 570.0, "source": "osm", "_tags": {"ele": "570", "gnis:feature_id": "965215", "name": "Sidney Mountain", "natural": "peak", "wikidata": "Q34832515"}}, {"name": "South Mountain", "latitude": 42.1386966, "longitude": -75.1415576, "elevation": 740.0, "source": "osm", "_tags": {"ele": "740", "gnis:feature_id": "965817", "name": "South Mountain", "natural": "peak", "wikidata": "Q34834130"}}, {"name": "Speedwell Mountain", "latitude": 42.1006402, "longitude": -75.3054514, "elevation": 618.0, "source": "osm", "_tags": {"ele": "618", "gnis:feature_id": "965976", "name": "Speedwell Mountain", "natural": "peak", "wikidata": "Q34834978"}}, {"name": "Stadel Mountain", "latitude": 41.9967548, "longitude": -74.9923865, "elevation": 678.0, "source": "osm", "_tags": {"ele": "678", "gnis:feature_id": "966196", "name": "Stadel Mountain", "natural": "peak", "wikidata": "Q34910600"}}, {"name": "Starkweather Hill", "latitude": 42.127864, "longitude": -75.0509992, "elevation": 776.0, "source": "osm", "_tags": {"ele": "776", "gnis:feature_id": "966258", "name": "Starkweather Hill", "natural": "peak", "wikidata": "Q34930047"}}, {"name": "Sugarloaf Mountain", "latitude": 42.0686987, "longitude": -74.926829, "elevation": 648.0, "source": "osm", "_tags": {"ele": "648", "gnis:feature_id": "966728", "name": "Sugarloaf Mountain", "natural": "peak"}}, {"name": "Swiss Hill", "latitude": 41.7736995, "longitude": -74.9296088, "elevation": 442.0, "source": "osm", "_tags": {"ele": "442", "gnis:feature_id": "966944", "name": "Swiss Hill", "natural": "peak", "wikidata": "Q34810914"}}, {"name": "Taylor Hill", "latitude": 41.8806434, "longitude": -75.1332246, "elevation": 563.0, "source": "osm", "_tags": {"ele": "563", "gnis:feature_id": "967088", "name": "Taylor Hill", "natural": "peak", "wikidata": "Q34811707"}}, {"name": "The Cobble", "latitude": 42.2553627, "longitude": -75.0096086, "elevation": 714.0, "source": "osm", "_tags": {"ele": "714", "gnis:feature_id": "967219", "name": "The Cobble", "natural": "peak", "wikidata": "Q34812213"}}, {"name": "Tink Hill", "latitude": 41.466203, "longitude": -74.7871085, "elevation": 426.0, "source": "osm", "_tags": {"ele": "426", "gnis:feature_id": "967543", "name": "Tink Hill", "natural": "peak", "wikidata": "Q34813054"}}, {"name": "Touchmenot Mountain", "latitude": 42.0481444, "longitude": -74.740713, "elevation": 842.0, "source": "osm", "_tags": {"ele": "842", "gnis:feature_id": "967685", "name": "Touchmenot Mountain", "natural": "peak", "wikidata": "Q34813753"}}, {"name": "Tower Mountain", "latitude": 42.1095298, "longitude": -75.2260046, "elevation": 707.0, "source": "osm", "_tags": {"ele": "707", "gnis:feature_id": "967692", "name": "Tower Mountain", "natural": "peak", "wikidata": "Q34813838"}}, {"name": "Trout Brook Mountain", "latitude": 42.0689759, "longitude": -75.0462768, "elevation": 688.0, "source": "osm", "_tags": {"ele": "688", "gnis:feature_id": "967871", "name": "Trout Brook Mountain", "natural": "peak", "wikidata": "Q34814263"}}, {"name": "Twadell Mountain", "latitude": 42.003143, "longitude": -75.1171119, "elevation": 699.0, "source": "osm", "_tags": {"ele": "699", "gnis:feature_id": "968017", "name": "Twadell Mountain", "natural": "peak", "wikidata": "Q34815223"}}, {"name": "Walnut Mountain", "latitude": 41.7873112, "longitude": -74.7684951, "elevation": 634.0, "source": "osm", "_tags": {"ele": "634", "gnis:feature_id": "968714", "name": "Walnut Mountain", "natural": "peak", "wikidata": "Q34818651"}}, {"name": "Walton Mountain", "latitude": 42.1656405, "longitude": -75.1990597, "elevation": 654.0, "source": "osm", "_tags": {"ele": "654", "gnis:feature_id": "968739", "name": "Walton Mountain", "natural": "peak", "wikidata": "Q34818691"}}, {"name": "Burnt Hill", "latitude": 41.9637, "longitude": -74.8515497, "elevation": 700.0, "source": "osm", "_tags": {"ele": "700", "gnis:feature_id": "969933", "name": "Burnt Hill", "natural": "peak", "wikidata": "Q34807120"}}, {"name": "Sam Miller Hill", "latitude": 41.8742546, "longitude": -75.0873899, "elevation": 535.0, "source": "osm", "_tags": {"ele": "535", "gnis:feature_id": "970576", "name": "Sam Miller Hill", "natural": "peak", "wikidata": "Q34902983"}}, {"name": "Tarbell Hill", "latitude": 42.0670274, "longitude": -75.4546222, "elevation": 580.0, "source": "osm", "_tags": {"ele": "580", "gnis:feature_id": "974064", "name": "Tarbell Hill", "natural": "peak", "wikidata": "Q34811575"}}, {"name": "Beech Mountain", "latitude": 41.9811912, "longitude": -74.704162, "elevation": 950.0, "source": "osm", "_tags": {"ele": "950", "name": "Beech Mountain", "natural": "peak"}}, {"name": "Mongaup Mountain", "latitude": 41.9934945, "longitude": -74.6993963, "elevation": 968.0, "source": "osm", "_tags": {"ele": "968", "name": "Mongaup Mountain", "natural": "peak"}}, {"name": "Hodge Pond Hill", "latitude": 41.9811266, "longitude": -74.731733, "elevation": 909.0, "source": "osm", "_tags": {"ele": "909", "name": "Hodge Pond Hill", "natural": "peak"}}, {"name": "", "latitude": 41.9905593, "longitude": -74.7687474, "elevation": 777.0, "source": "osm", "_tags": {"ele": "777", "natural": "peak"}}, {"name": "", "latitude": 42.0399261, "longitude": -74.7949904, "elevation": 906.7, "source": "osm", "_tags": {"ele": "906.7", "natural": "peak"}}, {"name": "", "latitude": 42.0173224, "longitude": -74.8650151, "elevation": 814.0, "source": "osm", "_tags": {"ele": "814", "natural": "peak"}}, {"name": "", "latitude": 42.0011803, "longitude": -74.8576575, "elevation": 757.0, "source": "osm", "_tags": {"ele": "757", "natural": "peak"}}, {"name": "", "latitude": 41.9925937, "longitude": -74.8795669, "elevation": 766.0, "source": "osm", "_tags": {"ele": "766", "natural": "peak"}}, {"name": "", "latitude": 42.0139118, "longitude": -74.8548144, "elevation": 745.0, "source": "osm", "_tags": {"ele": "745", "natural": "peak"}}, {"name": "", "latitude": 41.9500437, "longitude": -74.8371697, "elevation": 649.0, "source": "osm", "_tags": {"ele": "649", "natural": "peak"}}, {"name": "", "latitude": 42.0111026, "longitude": -74.8035778, "elevation": 792.0, "source": "osm", "_tags": {"ele": "792", "natural": "peak"}}, {"name": "", "latitude": 42.0385161, "longitude": -74.8801795, "elevation": 742.5, "source": "osm", "_tags": {"ele": "742.5", "natural": "peak"}}, {"name": "Brock Mountain", "latitude": 42.052135, "longitude": -74.9032495, "elevation": 766.0, "source": "osm", "_tags": {"ele": "766", "name": "Brock Mountain", "natural": "peak"}}, {"name": "Brock Mountain", "latitude": 42.0439174, "longitude": -74.8962771, "elevation": 841.0, "source": "osm", "_tags": {"ele": "841", "name": "Brock Mountain", "natural": "peak"}}, {"name": "Campbell Mountain", "latitude": 42.0604872, "longitude": -74.9595139, "elevation": 717.0, "source": "osm", "_tags": {"ele": "717", "gnis:feature_id": "945705", "name": "Campbell Mountain", "natural": "peak"}}, {"name": "", "latitude": 42.0556575, "longitude": -74.969054, "elevation": 680.0, "source": "osm", "_tags": {"ele": "680", "natural": "peak"}}, {"name": "Cherry Ridge", "latitude": 42.0240696, "longitude": -74.9710699, "elevation": 793.0, "source": "osm", "_tags": {"ele": "793", "name": "Cherry Ridge", "natural": "peak"}}, {"name": "Cherry Ridge", "latitude": 42.0127288, "longitude": -74.9609419, "elevation": 801.0, "source": "osm", "_tags": {"ele": "801", "name": "Cherry Ridge", "natural": "peak"}}, {"name": "", "latitude": 42.0435821, "longitude": -74.9242729, "elevation": 777.0, "source": "osm", "_tags": {"ele": "777", "natural": "peak"}}, {"name": "Sugarloaf Mountain", "latitude": 42.0619719, "longitude": -74.9175266, "elevation": 651.0, "source": "osm", "_tags": {"ele": "651", "name": "Sugarloaf Mountain", "natural": "peak"}}, {"name": "", "latitude": 42.0470575, "longitude": -74.9330147, "elevation": 750.0, "source": "osm", "_tags": {"ele": "750", "natural": "peak"}}, {"name": "", "latitude": 42.0354957, "longitude": -74.9401226, "elevation": 770.0, "source": "osm", "_tags": {"ele": "770", "natural": "peak"}}, {"name": "", "latitude": 42.0581708, "longitude": -74.7714717, "elevation": 887.0, "source": "osm", "_tags": {"ele": "887", "natural": "peak"}}, {"name": "", "latitude": 42.022626, "longitude": -74.9451568, "elevation": 768.0, "source": "osm", "_tags": {"ele": "768", "natural": "peak"}}, {"name": "", "latitude": 42.0060898, "longitude": -74.8751327, "elevation": 768.7, "source": "osm", "_tags": {"ele": "768.7", "natural": "peak"}}, {"name": "", "latitude": 42.0173083, "longitude": -74.8366494, "elevation": 704.0, "source": "osm", "_tags": {"ele": "704", "natural": "peak"}}, {"name": "", "latitude": 41.9998257, "longitude": -74.8803694, "elevation": 757.5, "source": "osm", "_tags": {"ele": "757.5", "natural": "peak"}}, {"name": "", "latitude": 42.0384468, "longitude": -74.757212, "elevation": 797.0, "source": "osm", "_tags": {"ele": "797", "natural": "peak"}}, {"name": "", "latitude": 42.02054, "longitude": -74.912359, "elevation": 796.0, "source": "osm", "_tags": {"ele": "796", "natural": "peak"}}, {"name": "", "latitude": 41.9810251, "longitude": -74.9580186, "elevation": 510.0, "source": "osm", "_tags": {"ele": "510", "natural": "peak"}}, {"name": "Hunt Hill", "latitude": 42.0746419, "longitude": -74.803095, "elevation": 716.0, "source": "osm", "_tags": {"ele": "716", "name": "Hunt Hill", "natural": "peak"}}, {"name": "Barkaboom Mountain", "latitude": 42.0619162, "longitude": -74.7025722, "elevation": 945.0, "source": "osm", "_tags": {"ele": "945", "name": "Barkaboom Mountain", "natural": "peak"}}, {"name": "", "latitude": 41.6956492, "longitude": -74.6985535, "elevation": 489.0, "source": "osm", "_tags": {"ele": "489", "natural": "peak"}}, {"name": "", "latitude": 41.7355401, "longitude": -74.6949014, "elevation": 467.0, "source": "osm", "_tags": {"ele": "467", "natural": "peak"}}, {"name": "", "latitude": 41.7099691, "longitude": -74.7157078, "elevation": 455.0, "source": "osm", "_tags": {"ele": "455", "natural": "peak"}}, {"name": "", "latitude": 41.6797997, "longitude": -74.7067953, "elevation": 507.5, "source": "osm", "_tags": {"ele": "507.5", "natural": "peak"}}, {"name": "", "latitude": 41.7038485, "longitude": -74.7011992, "elevation": 492.0, "source": "osm", "_tags": {"ele": "492", "natural": "peak"}}, {"name": "", "latitude": 41.7355674, "longitude": -74.738248, "elevation": 460.0, "source": "osm", "_tags": {"ele": "460", "natural": "peak"}}, {"name": "", "latitude": 41.6265162, "longitude": -74.7739081, "elevation": 412.0, "source": "osm", "_tags": {"ele": "412", "natural": "peak"}}, {"name": "", "latitude": 41.6872313, "longitude": -74.8534705, "elevation": 440.4, "source": "osm", "_tags": {"ele": "440.4", "natural": "peak"}}, {"name": "", "latitude": 41.7193015, "longitude": -74.8298955, "elevation": 440.4, "source": "osm", "_tags": {"ele": "440.4", "natural": "peak"}}, {"name": "", "latitude": 41.7202593, "longitude": -74.8209497, "elevation": 421.0, "source": "osm", "_tags": {"ele": "421", "natural": "peak"}}, {"name": "", "latitude": 41.6266349, "longitude": -74.8573205, "elevation": 412.0, "source": "osm", "_tags": {"ele": "412", "natural": "peak"}}, {"name": "", "latitude": 41.5014811, "longitude": -74.8155019, "elevation": 460.0, "source": "osm", "_tags": {"ele": "460", "natural": "peak"}}, {"name": "", "latitude": 41.5998219, "longitude": -74.8159161, "elevation": 423.0, "source": "osm", "_tags": {"ele": "423", "natural": "peak"}}, {"name": "", "latitude": 41.581896, "longitude": -74.8289237, "elevation": 416.0, "source": "osm", "_tags": {"ele": "416", "natural": "peak"}}, {"name": "", "latitude": 41.5315324, "longitude": -74.8022647, "elevation": 435.25, "source": "osm", "_tags": {"ele": "435.25", "natural": "peak"}}, {"name": "", "latitude": 41.5503812, "longitude": -74.8214993, "elevation": 416.0, "source": "osm", "_tags": {"ele": "416", "natural": "peak"}}, {"name": "", "latitude": 41.5478375, "longitude": -74.8601575, "elevation": 417.5, "source": "osm", "_tags": {"ele": "417.5", "natural": "peak"}}, {"name": "", "latitude": 41.9241657, "longitude": -74.7058029, "elevation": 656.0, "source": "osm", "_tags": {"ele": "656", "natural": "peak"}}, {"name": "", "latitude": 41.9539783, "longitude": -74.723635, "elevation": 771.0, "source": "osm", "_tags": {"ele": "771", "natural": "peak"}}, {"name": "", "latitude": 41.6784679, "longitude": -74.7485679, "elevation": 428.0, "source": "osm", "_tags": {"ele": "428", "natural": "peak"}}, {"name": "", "latitude": 41.7961221, "longitude": -74.7142245, "elevation": 464.0, "source": "osm", "_tags": {"ele": "464", "natural": "peak"}}, {"name": "", "latitude": 41.7711841, "longitude": -74.7192999, "elevation": 461.0, "source": "osm", "_tags": {"ele": "461", "natural": "peak"}}, {"name": "", "latitude": 41.7888278, "longitude": -74.7396077, "elevation": 508.0, "source": "osm", "_tags": {"ele": "508", "natural": "peak"}}, {"name": "", "latitude": 41.4724466, "longitude": -74.9440269, "elevation": 334.0, "source": "osm", "_tags": {"ele": "334", "natural": "peak"}}, {"name": "", "latitude": 41.4725197, "longitude": -74.9275048, "elevation": 351.0, "source": "osm", "_tags": {"ele": "351", "natural": "peak"}}, {"name": "", "latitude": 41.4708702, "longitude": -74.9583402, "elevation": 362.0, "source": "osm", "_tags": {"ele": "362", "natural": "peak"}}, {"name": "Montage Mountain", "latitude": 41.3477895, "longitude": -75.6498991, "elevation": 602.0, "source": "osm", "_tags": {"ele": "602", "ele:ft": "1999", "name": "Montage Mountain", "natural": "peak"}}, {"name": "Tarburner Ridge", "latitude": 41.3524614, "longitude": -74.9337252, "elevation": 447.0, "source": "osm", "_tags": {"ele": "447", "name": "Tarburner Ridge", "natural": "peak", "wikidata": "Q49697925"}}, {"name": "Little Pisgah Mountain", "latitude": 42.1991941, "longitude": -74.7232011, "elevation": 924.0, "source": "osm", "_tags": {"ele": "924", "name": "Little Pisgah Mountain", "natural": "peak"}}, {"name": "Cabot Mountain", "latitude": 42.0535303, "longitude": -74.7612944, "elevation": 905.0, "source": "osm", "_tags": {"ele": "905", "name": "Cabot Mountain", "natural": "peak"}}, {"name": "Burleigh Ridge", "latitude": 41.3413086, "longitude": -75.1017737, "elevation": null, "source": "osm", "_tags": {"name": "Burleigh Ridge", "natural": "peak"}}, {"name": "", "latitude": 42.2714183, "longitude": -74.9082399, "elevation": null, "source": "osm", "_tags": {"natural": "peak"}}, {"name": "Mount Crawford", "latitude": 42.2616526, "longitude": -74.911995, "elevation": 635.0, "source": "osm", "_tags": {"ele": "635", "name": "Mount Crawford", "natural": "peak"}}, {"name": "Baby Bell", "latitude": 41.4640774, "longitude": -75.6799655, "elevation": 588.0, "source": "osm", "_tags": {"ele": "588", "name": "Baby Bell", "natural": "peak"}}, {"name": "", "latitude": 41.4037508, "longitude": -75.289137, "elevation": 448.0, "source": "osm", "_tags": {"ele": "448", "natural": "peak"}}, {"name": "", "latitude": 41.8419517, "longitude": -74.7317164, "elevation": 665.0, "source": "osm", "_tags": {"ele": "665", "natural": "peak"}}, {"name": "", "latitude": 41.8373288, "longitude": -74.7390813, "elevation": 647.0, "source": "osm", "_tags": {"ele": "647", "natural": "peak"}}, {"name": "", "latitude": 41.9348523, "longitude": -74.6978244, "elevation": 758.0, "source": "osm", "_tags": {"ele": "758", "natural": "peak"}}, {"name": "", "latitude": 41.9709092, "longitude": -74.7320813, "elevation": 835.0, "source": "osm", "_tags": {"ele": "835", "natural": "peak"}}, {"name": "", "latitude": 41.9815108, "longitude": -74.7487405, "elevation": 824.0, "source": "osm", "_tags": {"ele": "824", "natural": "peak"}}, {"name": "", "latitude": 41.9802157, "longitude": -74.8035748, "elevation": 679.0, "source": "osm", "_tags": {"ele": "679", "natural": "peak"}}, {"name": "", "latitude": 41.9619831, "longitude": -74.8112522, "elevation": 732.0, "source": "osm", "_tags": {"ele": "732", "natural": "peak"}}, {"name": "", "latitude": 41.9833718, "longitude": -74.8764424, "elevation": 728.0, "source": "osm", "_tags": {"ele": "728", "natural": "peak"}}, {"name": "", "latitude": 41.973253, "longitude": -74.8789573, "elevation": 641.0, "source": "osm", "_tags": {"ele": "641", "natural": "peak"}}, {"name": "", "latitude": 42.0303041, "longitude": -74.9153799, "elevation": 830.5, "source": "osm", "_tags": {"ele": "830.5", "natural": "peak"}}, {"name": "", "latitude": 42.0225529, "longitude": -74.9323484, "elevation": 812.0, "source": "osm", "_tags": {"ele": "812", "natural": "peak"}}, {"name": "", "latitude": 42.0601933, "longitude": -74.9784129, "elevation": 654.0, "source": "osm", "_tags": {"ele": "654", "natural": "peak"}}, {"name": "", "latitude": 42.054812, "longitude": -74.9872672, "elevation": 684.0, "source": "osm", "_tags": {"ele": "684", "natural": "peak"}}, {"name": "", "latitude": 42.0510947, "longitude": -75.0035478, "elevation": 607.0, "source": "osm", "_tags": {"ele": "607", "natural": "peak"}}, {"name": "Jehu Mountain", "latitude": 41.9519029, "longitude": -75.1828465, "elevation": null, "source": "osm", "_tags": {"gnis:feature_id": "2791719", "name": "Jehu Mountain", "natural": "peak"}}, {"name": "Fuller Hill", "latitude": 42.0348527, "longitude": -75.0152529, "elevation": 693.0, "source": "osm", "_tags": {"ele": "693", "name": "Fuller Hill", "natural": "peak"}}, {"name": "", "latitude": 42.0768521, "longitude": -75.1198125, "elevation": 671.0, "source": "osm", "_tags": {"ele": "671", "natural": "peak"}}, {"name": "", "latitude": 41.4436593, "longitude": -74.9637079, "elevation": 412.0, "source": "osm", "_tags": {"ele": "412", "natural": "peak"}}, {"name": "East Mary Smith Hill", "latitude": 42.0329544, "longitude": -74.819542, "elevation": 896.0, "source": "osm", "_tags": {"ele": "896", "name": "East Mary Smith Hill", "natural": "peak"}}, {"name": "Turnwood", "latitude": 42.0143655, "longitude": -74.72395, "elevation": 866.0, "source": "osm", "_tags": {"ele": "866", "name": "Turnwood", "natural": "peak"}}]