[{"name": "Bunker Hill", "latitude": 42.2430778, "longitude": -89.4942802, "elevation": 294.0, "source": "osm", "_tags": {"ele": "294", "gnis:feature_id": "405197", "name": "Bunker Hill", "natural": "peak"}}, {"name": "Buffalo Rock", "latitude": 41.3236451, "longitude": -88.9200788, "elevation": 170.0, "source": "osm", "_tags": {"ele": "170", "gnis:feature_id": "405166", "name": "Buffalo Rock", "natural": "peak"}}, {"name": "Coffman Bluff", "latitude": 42.1736356, "longitude": -89.5203907, "elevation": 289.0, "source": "osm", "_tags": {"ele": "289", "gnis:feature_id": "406331", "name": "Coffman Bluff", "natural": "peak"}}, {"name": "Devils Backbone", "latitude": 41.9883632, "longitude": -89.3512166, "elevation": 274.0, "source": "osm", "_tags": {"ele": "274", "gnis:feature_id": "407157", "name": "Devils Backbone", "natural": "peak"}}, {"name": "Owls Head", "latitude": 41.2953147, "longitude": -89.4773146, "elevation": 181.0, "source": "osm", "_tags": {"ele": "181", "gnis:feature_id": "415280", "name": "Owls Head", "natural": "peak"}}, {"name": "Piety Hill", "latitude": 41.3078126, "longitude": -89.0792494, "elevation": 189.0, "source": "osm", "_tags": {"ele": "189", "gnis:feature_id": "415649", "name": "Piety Hill", "natural": "peak"}}, {"name": "Turtle Mound", "latitude": 42.2739088, "longitude": -89.0909395, "elevation": 218.0, "source": "osm", "_tags": {"access": "yes", "archaeological_site": "earthwork", "description": "Ancient Native American Mounds that are used for burials, ceremonies, and spiritual gatherings.", "ele": "218", "gnis:feature_id": "1829622", "historic": "archaeological_site", "historic:civilization": "hopewell", "name": "Turtle Mound", "natural": "peak", "reg_name": "Beattie Park Mounds"}}, {"name": "", "latitude": 41.9951684, "longitude": -89.479755, "elevation": 71.0, "source": "osm", "_tags": {"ele": "71", "natural": "peak"}}, {"name": "", "latitude": 41.9954393, "longitude": -89.4725503, "elevation": 72.0, "source": "osm", "_tags": {"ele": "72", "natural": "peak"}}, {"name": "Cherry Slag Pile", "latitude": 41.4327052, "longitude": -89.2151591, "elevation": null, "source": "osm", "_tags": {"name": "Cherry Slag Pile", "name_1": "The Mound", "name_2": "The Dump", "name_3": "Cherry Jumbo", "name_4": "Cherry Shale Pile", "natural": "peak", "note": "Site of the Cherry Mine Disaster.", "source_1": "http://guitarjourney.tripod.com/cherrycoalminedisaster/"}}, {"name": "", "latitude": 41.9520334, "longitude": -89.3963621, "elevation": 73.0, "source": "osm", "_tags": {"ele": "73", "natural": "peak"}}, {"name": "", "latitude": 41.9596546, "longitude": -89.396321, "elevation": 68.0, "source": "osm", "_tags": {"ele": "68", "natural": "peak"}}, {"name": "", "latitude": 41.9738088, "longitude": -89.3957598, "elevation": 266.5, "source": "osm", "_tags": {"ele": "266.5", "natural": "peak"}}, {"name": "", "latitude": 41.973745, "longitude": -89.3854387, "elevation": 251.0, "source": "osm", "_tags": {"ele": "251", "natural": "peak"}}, {"name": "", "latitude": 41.9808675, "longitude": -89.3768342, "elevation": 69.0, "source": "osm", "_tags": {"ele": "69", "natural": "peak"}}, {"name": "Catfish Effigy", "latitude": 41.3233139, "longitude": -88.9207596, "elevation": null, "source": "osm", "_tags": {"name": "Catfish Effigy", "natural": "peak"}}, {"name": "Frog Effigy", "latitude": 41.3238739, "longitude": -88.9179915, "elevation": null, "source": "osm", "_tags": {"name": "Frog Effigy", "natural": "peak"}}, {"name": "Water Strider Effigy", "latitude": 41.3252879, "longitude": -88.9155614, "elevation": null, "source": "osm", "_tags": {"name": "Water Strider Effigy", "natural": "peak"}}, {"name": "Castle Rock", "latitude": 41.969537, "longitude": -89.3779418, "elevation": 228.0, "source": "osm", "_tags": {"ele": "228", "name": "Castle Rock", "natural": "peak"}}, {"name": "Bald Hill", "latitude": 42.0956272, "longitude": -89.377301, "elevation": 281.0, "source": "osm", "_tags": {"ele": "281", "name": "Bald Hill", "natural": "peak"}}, {"name": "Starved Rock", "latitude": 41.3212955, "longitude": -88.9901416, "elevation": 167.0, "source": "osm", "_tags": {"ele": "167", "gnis:feature_id": "419059", "name": "Starved Rock", "natural": "peak"}}, {"name": "Pine Rock", "latitude": 42.0023084, "longitude": -89.2577979, "elevation": null, "source": "osm", "_tags": {"name": "Pine Rock", "natural": "peak"}}, {"name": "", "latitude": 41.8951118, "longitude": -89.4029108, "elevation": null, "source": "osm", "_tags": {"natural": "peak"}}, {"name": "Lookout Point", "latitude": 42.2835357, "longitude": -89.0625139, "elevation": null, "source": "osm", "_tags": {"gnis:feature_id": "1829350", "name": "Lookout Point", "natural": "peak"}}]