[{"name": "Mount Holden", "latitude": 41.6643819, "longitude": -87.0528875, "elevation": 194.0, "source": "osm", "_tags": {"ele": "194", "gnis:feature_id": "436308", "name": "Mount Holden", "natural": "peak"}}, {"name": "Mount Jackson", "latitude": 41.6627875, "longitude": -87.050574, "elevation": 192.0, "source": "osm", "_tags": {"ele": "192", "gnis:feature_id": "436901", "name": "Mount Jackson", "natural": "peak", "old_name": "Mount Green"}}, {"name": "Mount Tom", "latitude": 41.6627427, "longitude": -87.0561824, "elevation": 193.0, "source": "osm", "_tags": {"ele": "193", "gnis:feature_id": "444809", "name": "Mount Tom", "natural": "peak"}}, {"name": "Mount Baldy", "latitude": 41.7082345, "longitude": -86.9273267, "elevation": 185.0, "source": "osm", "_tags": {"ele": "185", "gnis:feature_id": "1852053", "name": "Mount Baldy", "natural": "peak", "wikidata": "Q16982263", "wikipedia": "en:Mount Baldy (sand dune)"}}, {"name": "", "latitude": 41.6824617, "longitude": -87.5727986, "elevation": 208.78, "source": "osm", "_tags": {"ele": "208.78", "natural": "peak", "note": "Highest point in City of Chicago"}}, {"name": "Sled Hill", "latitude": 41.5146349, "longitude": -87.3955074, "elevation": null, "source": "osm", "_tags": {"alt_name": "Sledding Hill", "name": "Sled Hill", "natural": "peak"}}, {"name": "Fort Hill", "latitude": 41.6594134, "longitude": -87.0649882, "elevation": null, "source": "osm", "_tags": {"name": "Fort Hill", "natural": "peak"}}, {"name": "Mount Miner", "latitude": 41.6608434, "longitude": -87.0575076, "elevation": null, "source": "osm", "_tags": {"name": "Mount Miner", "natural": "peak"}}, {"name": "Johnson's Hill", "latitude": 41.6619844, "longitude": -87.0607787, "elevation": null, "source": "osm", "_tags": {"name": "Johnson's Hill", "natural": "peak"}}, {"name": "Mount Russell", "latitude": 41.665766, "longitude": -87.042357, "elevation": null, "source": "osm", "_tags": {"name": "Mount Russell", "natural": "peak"}}, {"name": "Mount Morse", "latitude": 41.6785372, "longitude": -87.0138359, "elevation": null, "source": "osm", "_tags": {"name": "Mount Morse", "natural": "peak"}}, {"name": "Barnett Hill", "latitude": 41.6697092, "longitude": -87.0314063, "elevation": null, "source": "osm", "_tags": {"name": "Barnett Hill", "natural": "peak"}}, {"name": "Scallop Dune", "latitude": 41.6240234, "longitude": -87.2080147, "elevation": null, "source": "osm", "_tags": {"name": "Scallop Dune", "natural": "peak"}}, {"name": "Mount Lieber", "latitude": 41.6154801, "longitude": -87.2382703, "elevation": 214.0, "source": "osm", "_tags": {"ele": "214", "name": "Mount Lieber", "natural": "peak"}}, {"name": "Mount Chicago", "latitude": 41.6185281, "longitude": -87.2197524, "elevation": null, "source": "osm", "_tags": {"name": "Mount Chicago", "natural": "peak"}}, {"name": "Ski Hill", "latitude": 41.6219969, "longitude": -87.192963, "elevation": null, "source": "osm", "_tags": {"name": "Ski Hill", "natural": "peak"}}, {"name": "Smoking Dune", "latitude": 41.6218797, "longitude": -87.2040508, "elevation": null, "source": "osm", "_tags": {"name": "Smoking Dune", "natural": "peak"}}, {"name": "Suicide Hill", "latitude": 41.6250052, "longitude": -87.201897, "elevation": null, "source": "osm", "_tags": {"name": "Suicide Hill", "natural": "peak"}}, {"name": "Chanute Hill", "latitude": 41.6177565, "longitude": -87.2662866, "elevation": 195.0, "source": "osm", "_tags": {"ele": "195", "name": "Chanute Hill", "name:etymology:wikidata": "Q1351565", "name:etymology:wikipedia": "en:Octave Chanute", "natural": "peak"}}, {"name": "Crescent Dune", "latitude": 41.7145236, "longitude": -86.9195894, "elevation": null, "source": "osm", "_tags": {"name": "Crescent Dune", "natural": "peak"}}, {"name": "Arbor Hill", "latitude": 41.552329, "longitude": -87.4439439, "elevation": null, "source": "osm", "_tags": {"name": "Arbor Hill", "natural": "peak"}}, {"name": "Big Hill", "latitude": 41.4030034, "longitude": -87.6060345, "elevation": null, "source": "osm", "_tags": {"alt_name": "Sledding Hill", "name": "Big Hill", "natural": "peak"}}, {"name": "", "latitude": 41.6089278, "longitude": -87.1938819, "elevation": null, "source": "osm", "_tags": {"natural": "peak"}}, {"name": "", "latitude": 41.6100106, "longitude": -87.1996147, "elevation": null, "source": "osm", "_tags": {"natural": "peak"}}, {"name": "", "latitude": 41.6071213, "longitude": -87.1975267, "elevation": null, "source": "osm", "_tags": {"natural": "peak"}}, {"name": "", "latitude": 41.6283212, "longitude": -87.1801895, "elevation": null, "source": "osm", "_tags": {"natural": "peak"}}, {"name": "Mount Tuthill", "latitude": 41.645925, "longitude": -87.1138005, "elevation": null, "source": "osm", "_tags": {"alt_name": "Cowles Dune", "name": "Mount Tuthill", "natural": "peak"}}, {"name": "Petingill Dune", "latitude": 41.6522898, "longitude": -87.0861025, "elevation": null, "source": "osm", "_tags": {"alt_name": "Clubhouse Dune", "name": "Petingill Dune", "natural": "peak"}}, {"name": "Mount Tim", "latitude": 41.6511168, "longitude": -87.091795, "elevation": null, "source": "osm", "_tags": {"name": "Mount Tim", "natural": "peak"}}, {"name": "", "latitude": 41.648629, "longitude": -87.0990623, "elevation": null, "source": "osm", "_tags": {"natural": "peak"}}, {"name": "Mount Bentley", "latitude": 41.6473889, "longitude": -87.1086715, "elevation": null, "source": "osm", "_tags": {"name": "Mount Bentley", "natural": "peak"}}, {"name": "Mount Leman", "latitude": 41.6492295, "longitude": -87.0941751, "elevation": null, "source": "osm", "_tags": {"name": "Mount Leman", "natural": "peak"}}, {"name": "Hamilton Slide", "latitude": 41.6550503, "longitude": -87.0763626, "elevation": null, "source": "osm", "_tags": {"name": "Hamilton Slide", "natural": "peak"}}, {"name": "Mount Roper", "latitude": 41.6874243, "longitude": -86.9761111, "elevation": null, "source": "osm", "_tags": {"name": "Mount Roper", "natural": "peak"}}, {"name": "Mount Ashley", "latitude": 41.6879753, "longitude": -86.9897691, "elevation": null, "source": "osm", "_tags": {"name": "Mount Ashley", "natural": "peak"}}, {"name": "", "latitude": 41.6902865, "longitude": -86.9715752, "elevation": null, "source": "osm", "_tags": {"natural": "peak"}}, {"name": "Mount Wells", "latitude": 41.6825276, "longitude": -87.0012021, "elevation": null, "source": "osm", "_tags": {"name": "Mount Wells", "natural": "peak"}}, {"name": "Mount White", "latitude": 41.6812785, "longitude": -87.0040972, "elevation": null, "source": "osm", "_tags": {"name": "Mount White", "natural": "peak"}}, {"name": "Greens Hill", "latitude": 41.6836953, "longitude": -86.999617, "elevation": null, "source": "osm", "_tags": {"name": "Greens Hill", "natural": "peak"}}, {"name": "Gleason Heights", "latitude": 41.6766279, "longitude": -87.0062768, "elevation": null, "source": "osm", "_tags": {"name": "Gleason Heights", "natural": "peak"}}, {"name": "", "latitude": 41.6855913, "longitude": -86.9852101, "elevation": null, "source": "osm", "_tags": {"natural": "peak"}}, {"name": "Brown’s Ridge", "latitude": 41.694845, "longitude": -86.9662359, "elevation": null, "source": "osm", "_tags": {"name": "Brown’s Ridge", "natural": "peak"}}, {"name": "Dimple Dune", "latitude": 41.7006609, "longitude": -86.9577601, "elevation": null, "source": "osm", "_tags": {"name": "Dimple Dune", "natural": "peak"}}, {"name": "Mount Jensen", "latitude": 41.7050825, "longitude": -86.9460657, "elevation": null, "source": "osm", "_tags": {"name": "Mount Jensen", "natural": "peak"}}, {"name": "Mount Allinson", "latitude": 41.7030479, "longitude": -86.9485119, "elevation": null, "source": "osm", "_tags": {"name": "Mount Allinson", "natural": "peak"}}, {"name": "Mount McCray", "latitude": 41.7063641, "longitude": -86.939092, "elevation": null, "source": "osm", "_tags": {"name": "Mount McCray", "natural": "peak"}}, {"name": "Sledding Hill", "latitude": 41.5179382, "longitude": -87.5105397, "elevation": null, "source": "osm", "_tags": {"name": "Sledding Hill", "natural": "peak"}}, {"name": "Mount Aiko", "latitude": 41.68357, "longitude": -86.9864205, "elevation": null, "source": "osm", "_tags": {"name": "Mount Aiko", "natural": "peak"}}, {"name": "Bismarck Hill", "latitude": 41.7266342, "longitude": -86.8947633, "elevation": null, "source": "osm", "_tags": {"name": "Bismarck Hill", "natural": "peak"}}, {"name": "Mount Everest", "latitude": 41.622761, "longitude": -87.1961019, "elevation": null, "source": "osm", "_tags": {"addr:street": "Sand Track Walking trail", "name": "Mount Everest", "natural": "peak", "note": "Yes, this dune is really named Mount Everest. See _Images of America: Ogden Dunes_, page 96, for a published reference, and stop deleting features without first checking whether they exist."}}, {"name": "Mount Bridgeport", "latitude": 41.8427641, "longitude": -87.6479511, "elevation": null, "source": "osm", "_tags": {"description": "\"Mount Bridgeport\" is a colloquial name.", "name": "Mount Bridgeport", "natural": "peak"}}, {"name": "", "latitude": 41.6236961, "longitude": -87.1652864, "elevation": 200.0, "source": "osm", "_tags": {"ele": "200", "natural": "peak"}}, {"name": "", "latitude": 41.6210881, "longitude": -87.1644606, "elevation": 205.0, "source": "osm", "_tags": {"ele": "205", "natural": "peak"}}, {"name": "", "latitude": 41.7139411, "longitude": -86.9147596, "elevation": null, "source": "osm", "_tags": {"natural": "peak"}}, {"name": "Continental Divide Point", "latitude": 41.4205619, "longitude": -87.0875153, "elevation": null, "source": "osm", "_tags": {"name": "Continental Divide Point", "natural": "peak", "note": "Water flows two directions here (or so the mapper believes)"}}, {"name": "Mount Hobo", "latitude": 41.6747324, "longitude": -87.0229722, "elevation": null, "source": "osm", "_tags": {"name": "Mount Hobo", "natural": "peak"}}, {"name": "Soldier Field Sledding Hill", "latitude": 41.8582788, "longitude": -87.6137739, "elevation": null, "source": "osm", "_tags": {"name": "Soldier Field Sledding Hill", "natural": "peak"}}]