[{"name": "Bald Mountain", "latitude": 42.7427373, "longitude": -107.3558984, "elevation": 2258.0, "source": "osm", "_tags": {"ele": "2258", "gnis:feature_id": "1585070", "name": "Bald Mountain", "natural": "peak", "wikidata": "Q49010257"}}, {"name": "Bills Peak", "latitude": 42.5280125, "longitude": -107.5895161, "elevation": 2259.0, "source": "osm", "_tags": {"ele": "2259", "gnis:feature_id": "1585544", "name": "Bills Peak", "natural": "peak", "wikidata": "Q49012893"}}, {"name": "Black Mountain", "latitude": 42.7694036, "longitude": -107.4386788, "elevation": 2448.0, "source": "osm", "_tags": {"ele": "2448", "gnis:feature_id": "1585598", "name": "Black Mountain", "natural": "peak", "wikidata": "Q49013877"}}, {"name": "Black Rock Mountain", "latitude": 42.6116272, "longitude": -107.0369983, "elevation": 2014.0, "source": "osm", "_tags": {"ele": "2014", "gnis:feature_id": "1585617", "name": "Black Rock Mountain", "natural": "peak", "wikidata": "Q49014009"}}, {"name": "Breadpan Hill", "latitude": 42.651905, "longitude": -107.0667218, "elevation": 2027.0, "source": "osm", "_tags": {"ele": "2027", "gnis:feature_id": "1585890", "name": "Breadpan Hill", "natural": "peak", "wikidata": "Q49015314"}}, {"name": "Broad Mesa", "latitude": 42.9913514, "longitude": -107.169506, "elevation": 1837.0, "source": "osm", "_tags": {"ele": "1837", "gnis:feature_id": "1585937", "name": "Broad Mesa", "natural": "peak", "wikidata": "Q49015468"}}, {"name": "Countryman Peak", "latitude": 42.5221796, "longitude": -107.4703454, "elevation": 2226.0, "source": "osm", "_tags": {"ele": "2226", "gnis:feature_id": "1587089", "name": "Countryman Peak", "natural": "peak", "wikidata": "Q49022369"}}, {"name": "Cranner Rock", "latitude": 42.4555125, "longitude": -107.5422921, "elevation": 1926.0, "source": "osm", "_tags": {"ele": "1926", "gnis:feature_id": "1587183", "name": "Cranner Rock", "natural": "peak", "wikidata": "Q49022787"}}, {"name": "Dam Rock", "latitude": 42.4996788, "longitude": -107.626184, "elevation": 1899.0, "source": "osm", "_tags": {"ele": "1899", "gnis:feature_id": "1587336", "name": "Dam Rock", "natural": "peak", "wikidata": "Q49023550"}}, {"name": "Deadman Butte", "latitude": 43.2866296, "longitude": -107.2128437, "elevation": 2122.0, "source": "osm", "_tags": {"ele": "2122", "gnis:feature_id": "1587427", "name": "Deadman Butte", "natural": "peak", "wikidata": "Q49023879"}}, {"name": "Dome Rock", "latitude": 42.2966271, "longitude": -106.7714294, "elevation": 2150.0, "source": "osm", "_tags": {"ele": "2150", "gnis:feature_id": "1587707", "name": "Dome Rock", "natural": "peak", "wikidata": "Q49025399"}}, {"name": "Fales Rocks", "latitude": 42.8544052, "longitude": -107.2781192, "elevation": 1918.0, "source": "osm", "_tags": {"ele": "1918", "gnis:feature_id": "1588376", "name": "Fales Rocks", "natural": "peak", "wikidata": "Q49028474"}}, {"name": "Flat Top", "latitude": 42.6171846, "longitude": -106.7228196, "elevation": 1953.0, "source": "osm", "_tags": {"ele": "1953", "gnis:feature_id": "1588569", "name": "Flat Top", "natural": "peak", "wikidata": "Q49029456"}}, {"name": "Fort Ridge", "latitude": 42.4530146, "longitude": -107.1197774, "elevation": 2186.0, "source": "osm", "_tags": {"ele": "2186", "gnis:feature_id": "1588647", "name": "Fort Ridge", "natural": "peak", "wikidata": "Q49030076"}}, {"name": "Garfield Peak", "latitude": 42.7824603, "longitude": -107.2647849, "elevation": 2503.0, "source": "osm", "_tags": {"ele": "2503", "gnis:feature_id": "1588814", "name": "Garfield Peak", "natural": "peak", "wikidata": "Q5523094", "wikipedia": "en:Garfield Peak (Wyoming)"}}, {"name": "Goat Mountain", "latitude": 42.7377374, "longitude": -107.3308976, "elevation": 2429.0, "source": "osm", "_tags": {"ele": "2429", "gnis:feature_id": "1588942", "name": "Goat Mountain", "natural": "peak", "wikidata": "Q49031855"}}, {"name": "Granite Mountain", "latitude": 42.4491255, "longitude": -107.150334, "elevation": 2081.0, "source": "osm", "_tags": {"ele": "2081", "gnis:feature_id": "1589036", "name": "Granite Mountain", "natural": "peak", "wikidata": "Q49032806"}}, {"name": "Great Stone Face POI", "latitude": 42.4855124, "longitude": -107.5700708, "elevation": 2049.0, "source": "osm", "_tags": {"ele": "2049", "gnis:feature_id": "1589106", "name": "Great Stone Face POI", "natural": "peak", "wikidata": "Q49033385"}}, {"name": "Heaths Peak", "latitude": 42.3116267, "longitude": -106.8525438, "elevation": 2447.0, "source": "osm", "_tags": {"ele": "2447", "gnis:feature_id": "1589461", "name": "Heaths Peak", "natural": "peak", "wikidata": "Q49035789"}}, {"name": "Henry Peak", "latitude": 42.3855123, "longitude": -107.5789597, "elevation": 2140.0, "source": "osm", "_tags": {"ele": "2140", "gnis:feature_id": "1589486", "name": "Henry Peak", "natural": "peak", "wikidata": "Q49036033"}}, {"name": "Horse Heaven", "latitude": 42.7146837, "longitude": -107.0133874, "elevation": 2258.0, "source": "osm", "_tags": {"ele": "2258", "gnis:feature_id": "1589703", "name": "Horse Heaven", "natural": "peak", "wikidata": "Q49037199"}}, {"name": "Independence Rock", "latitude": 42.4941258, "longitude": -107.132556, "elevation": 1833.0, "source": "osm", "_tags": {"boundary": "protected_area", "ele": "1833", "gnis:feature_id": "1589867", "heritage": "2", "heritage:operator": "nrhp", "name": "Independence Rock", "natural": "peak", "nrhp:criteria": "(A)", "nrhp:inscription_date": "January 20, 1961", "nrhp:nhl": "yes", "protection_title": "protected_site", "ref:nrhp": "66000757", "wikidata": "Q944336", "wikipedia": "en:Independence Rock (Wyoming)"}}, {"name": "Jamerman Rock", "latitude": 42.516901, "longitude": -107.6500736, "elevation": 1979.0, "source": "osm", "_tags": {"ele": "1979", "gnis:feature_id": "1590047", "name": "Jamerman Rock", "natural": "peak", "wikidata": "Q49039542"}}, {"name": "Lankin Dome", "latitude": 42.5316238, "longitude": -107.5606262, "elevation": 2342.0, "source": "osm", "_tags": {"ele": "2342", "gnis:feature_id": "1590520", "name": "Lankin Dome", "natural": "peak", "wikidata": "Q49043475"}}, {"name": "Lone Mountain", "latitude": 42.5746799, "longitude": -107.4842349, "elevation": 2382.0, "source": "osm", "_tags": {"ele": "2382", "gnis:feature_id": "1590935", "name": "Lone Mountain", "natural": "peak", "wikidata": "Q49046167"}}, {"name": "Maverick Butte", "latitude": 42.944127, "longitude": -107.4572916, "elevation": 2117.0, "source": "osm", "_tags": {"ele": "2117", "gnis:feature_id": "1591268", "name": "Maverick Butte", "natural": "peak", "wikidata": "Q49048379"}}, {"name": "McIntosh Peak", "latitude": 42.5196794, "longitude": -107.5220138, "elevation": 2429.0, "source": "osm", "_tags": {"ele": "2429", "gnis:feature_id": "1591338", "name": "McIntosh Peak", "natural": "peak", "wikidata": "Q49048853"}}, {"name": "Moonstone", "latitude": 42.5313462, "longitude": -107.5181248, "elevation": 2295.0, "source": "osm", "_tags": {"ele": "2295", "gnis:feature_id": "1591726", "name": "Moonstone", "natural": "peak", "wikidata": "Q49051374"}}, {"name": "Needles Eye Butte", "latitude": 43.1013507, "longitude": -107.3161781, "elevation": 1855.0, "source": "osm", "_tags": {"ele": "1855", "gnis:feature_id": "1591978", "name": "Needles Eye Butte", "natural": "peak", "wikidata": "Q49056585"}}, {"name": "Notches Dome", "latitude": 43.1846868, "longitude": -107.0331149, "elevation": 1875.0, "source": "osm", "_tags": {"ele": "1875", "gnis:feature_id": "1592312", "name": "Notches Dome", "natural": "peak", "wikidata": "Q49057669"}}, {"name": "Pathfinder Mountain", "latitude": 42.4813495, "longitude": -106.8772687, "elevation": 2028.0, "source": "osm", "_tags": {"ele": "2028", "gnis:feature_id": "1592612", "name": "Pathfinder Mountain", "natural": "peak", "wikidata": "Q49060150"}}, {"name": "Point of Rocks", "latitude": 42.4021807, "longitude": -107.1606117, "elevation": 2100.0, "source": "osm", "_tags": {"ele": "2100", "gnis:feature_id": "1592894", "name": "Point of Rocks", "natural": "peak", "wikidata": "Q49062914"}}, {"name": "Pyramid Peak", "latitude": 42.3421822, "longitude": -106.8725449, "elevation": 2488.0, "source": "osm", "_tags": {"ele": "2488", "gnis:feature_id": "1593077", "name": "Pyramid Peak", "natural": "peak", "wikidata": "Q49065834"}}, {"name": "Rattlesnake Hill", "latitude": 42.917464, "longitude": -106.8669951, "elevation": 1846.0, "source": "osm", "_tags": {"ele": "1846", "gnis:feature_id": "1593196", "name": "Rattlesnake Hill", "natural": "peak", "wikidata": "Q49066810"}}, {"name": "Saddle Rock", "latitude": 42.7219049, "longitude": -107.1681147, "elevation": 2310.0, "source": "osm", "_tags": {"ele": "2310", "gnis:feature_id": "1593740", "name": "Saddle Rock", "natural": "peak", "wikidata": "Q49070736"}}, {"name": "Sagehen Hill", "latitude": 42.7299606, "longitude": -107.1589477, "elevation": 2345.0, "source": "osm", "_tags": {"ele": "2345", "gnis:feature_id": "1593773", "name": "Sagehen Hill", "natural": "peak", "wikidata": "Q49070823"}}, {"name": "Sarcophagus Butte", "latitude": 42.8185697, "longitude": -107.6253512, "elevation": 1975.0, "source": "osm", "_tags": {"ele": "1975", "gnis:feature_id": "1593945", "name": "Sarcophagus Butte", "natural": "peak", "wikidata": "Q49071433"}}, {"name": "Savage Peak", "latitude": 42.4891249, "longitude": -107.2786721, "elevation": 2331.0, "source": "osm", "_tags": {"ele": "2331", "gnis:feature_id": "1593953", "name": "Savage Peak", "natural": "peak", "wikidata": "Q49071540"}}, {"name": "Shirttail Butte", "latitude": 43.1124642, "longitude": -107.032003, "elevation": 1772.0, "source": "osm", "_tags": {"ele": "1772", "gnis:feature_id": "1594270", "name": "Shirttail Butte", "natural": "peak", "wikidata": "Q49073385"}}, {"name": "Split Rock", "latitude": 42.4810681, "longitude": -107.529513, "elevation": 2189.0, "source": "osm", "_tags": {"description": "historic natural landmark for emigrants on the Oregon Trail", "ele": "2189", "gnis:feature_id": "1594792", "heritage": "2", "heritage:operator": "nrhp", "historic": "landmark", "landmark": "yes", "name": "Split Rock", "natural": "peak", "wikidata": "Q48790913", "wikipedia": "en:Split Rock (Wyoming)"}}, {"name": "Square Top Butte", "latitude": 42.9285744, "longitude": -106.9964444, "elevation": 1881.0, "source": "osm", "_tags": {"ele": "1881", "gnis:feature_id": "1594938", "name": "Square Top Butte", "natural": "peak", "wikidata": "Q49077115"}}, {"name": "Steamboat Rock", "latitude": 42.5555158, "longitude": -107.0189415, "elevation": 1798.0, "source": "osm", "_tags": {"ele": "1798", "gnis:feature_id": "1595012", "name": "Steamboat Rock", "natural": "peak", "wikidata": "Q49077888"}}, {"name": "Sweetwater Rocks", "latitude": 42.4599584, "longitude": -107.2320036, "elevation": 2095.0, "source": "osm", "_tags": {"ele": "2095", "gnis:feature_id": "1595246", "name": "Sweetwater Rocks", "natural": "peak", "wikidata": "Q49080505"}}, {"name": "Sweetwater Rocks", "latitude": 42.5102365, "longitude": -107.2147812, "elevation": 1946.0, "source": "osm", "_tags": {"ele": "1946", "gnis:feature_id": "1595247", "name": "Sweetwater Rocks", "natural": "peak"}}, {"name": "The Chimneys", "latitude": 42.3092934, "longitude": -106.836373, "elevation": 2475.0, "source": "osm", "_tags": {"ele": "2475", "gnis:feature_id": "1595424", "name": "The Chimneys", "natural": "peak", "wikidata": "Q49082271"}}, {"name": "Vinegar Hill", "latitude": 42.6369051, "longitude": -107.046721, "elevation": 1972.0, "source": "osm", "_tags": {"ele": "1972", "gnis:feature_id": "1595937", "name": "Vinegar Hill", "natural": "peak", "wikidata": "Q49087060"}}, {"name": "West Sage Hen Rocks", "latitude": 42.6307911, "longitude": -107.5492372, "elevation": 2144.0, "source": "osm", "_tags": {"ele": "2144", "gnis:feature_id": "1596246", "name": "West Sage Hen Rocks", "natural": "peak", "wikidata": "Q49088720"}}, {"name": "Whiskey Peak", "latitude": 42.3121786, "longitude": -107.6450732, "elevation": 2499.0, "source": "osm", "_tags": {"ele": "2499", "gnis:feature_id": "1596289", "name": "Whiskey Peak", "natural": "peak", "wikidata": "Q49089056"}}, {"name": "Wild Horse Butte", "latitude": 42.9588502, "longitude": -107.3081209, "elevation": 1918.0, "source": "osm", "_tags": {"ele": "1918", "gnis:feature_id": "1596355", "name": "Wild Horse Butte", "natural": "peak", "wikidata": "Q49089873"}}, {"name": "Pine Mountain", "latitude": 43.0041315, "longitude": -106.8506064, "elevation": 1782.0, "source": "osm", "_tags": {"ele": "1782", "gnis:feature_id": "1877612", "name": "Pine Mountain", "natural": "peak"}}, {"name": "Green Mountain", "latitude": 42.3122741, "longitude": -107.5732494, "elevation": null, "source": "osm", "_tags": {"gnis:feature_id": "1597168", "name": "Green Mountain", "natural": "peak", "wikidata": "Q49033701"}}, {"name": "Bairoil Benchmark", "latitude": 42.2975833, "longitude": -107.6440167, "elevation": 2654.0, "source": "osm", "_tags": {"ele": "2654", "man_made": "survey_point", "name": "Bairoil Benchmark", "natural": "peak", "ref": "NR0455"}}, {"name": "", "latitude": 42.5108579, "longitude": -107.6718468, "elevation": 1996.0, "source": "osm", "_tags": {"ele": "1996", "natural": "peak"}}, {"name": "", "latitude": 42.5044791, "longitude": -107.648305, "elevation": 2038.0, "source": "osm", "_tags": {"ele": "2038", "natural": "peak"}}, {"name": "Murphee Benchmark", "latitude": 42.5781667, "longitude": -107.61735, "elevation": 2146.0, "source": "osm", "_tags": {"ele": "2146", "man_made": "survey_point", "name": "Murphee Benchmark", "natural": "peak", "ref": "NR0482"}}, {"name": "", "latitude": 42.5641313, "longitude": -107.602671, "elevation": 2121.0, "source": "osm", "_tags": {"ele": "2121", "natural": "peak"}}, {"name": "", "latitude": 42.5451843, "longitude": -107.5574183, "elevation": 2182.0, "source": "osm", "_tags": {"ele": "2182", "natural": "peak"}}, {"name": "", "latitude": 42.4977042, "longitude": -107.5235474, "elevation": 2225.0, "source": "osm", "_tags": {"ele": "2225", "natural": "peak"}}, {"name": "", "latitude": 42.54301, "longitude": -107.60247, "elevation": 2178.0, "source": "osm", "_tags": {"ele": "2178", "natural": "peak"}}, {"name": "", "latitude": 42.52685, "longitude": -107.49868, "elevation": 2301.0, "source": "osm", "_tags": {"ele": "2301", "natural": "peak"}}, {"name": "", "latitude": 42.52924, "longitude": -107.47118, "elevation": 2353.0, "source": "osm", "_tags": {"ele": "2353", "natural": "peak"}}, {"name": "", "latitude": 42.54982, "longitude": -107.45524, "elevation": 2295.0, "source": "osm", "_tags": {"ele": "2295", "natural": "peak"}}, {"name": "", "latitude": 42.4843065, "longitude": -107.4406672, "elevation": 1976.0, "source": "osm", "_tags": {"ele": "1976", "natural": "peak"}}, {"name": "Nemo Benchmark", "latitude": 42.52355, "longitude": -107.3777, "elevation": 2255.0, "source": "osm", "_tags": {"ele": "2255", "man_made": "survey_point", "name": "Nemo Benchmark", "natural": "peak", "ref": "NR0407"}}, {"name": "", "latitude": 42.5744, "longitude": -107.3776, "elevation": 2293.0, "source": "osm", "_tags": {"ele": "2293", "natural": "peak"}}, {"name": "Sanford Benchmark", "latitude": 42.5295667, "longitude": -107.0203167, "elevation": 1940.0, "source": "osm", "_tags": {"ele": "1940", "man_made": "survey_point", "name": "Sanford Benchmark", "natural": "peak", "ref": "NR0401"}}, {"name": "Pete Benchmark", "latitude": 42.6560333, "longitude": -107.2993667, "elevation": 2196.0, "source": "osm", "_tags": {"ele": "2196", "man_made": "survey_point", "name": "Pete Benchmark", "natural": "peak", "ref": "NR0404"}}, {"name": "Sacawee Benchmark", "latitude": 42.6484167, "longitude": -107.37525, "elevation": 2246.0, "source": "osm", "_tags": {"ele": "2246", "man_made": "survey_point", "name": "Sacawee Benchmark", "natural": "peak", "ref": "NR0406"}}, {"name": "", "latitude": 42.6369, "longitude": -107.3529, "elevation": 2289.0, "source": "osm", "_tags": {"ele": "2289", "natural": "peak"}}, {"name": "", "latitude": 42.6773086, "longitude": -107.3896033, "elevation": 2428.0, "source": "osm", "_tags": {"ele": "2428", "natural": "peak"}}, {"name": "", "latitude": 42.7904, "longitude": -107.3366, "elevation": 2466.0, "source": "osm", "_tags": {"ele": "2466", "natural": "peak"}}, {"name": "", "latitude": 42.7471, "longitude": -107.2315, "elevation": 2466.0, "source": "osm", "_tags": {"ele": "2466", "natural": "peak"}}, {"name": "", "latitude": 42.7910213, "longitude": -106.7366436, "elevation": 1841.0, "source": "osm", "_tags": {"ele": "1841", "natural": "peak"}}, {"name": "Fork Benchmark", "latitude": 42.3386167, "longitude": -107.42215, "elevation": 2237.0, "source": "osm", "_tags": {"ele": "2237", "man_made": "survey_point", "name": "Fork Benchmark", "natural": "peak", "ref": "NR0449"}}, {"name": "Rocky Benchmark", "latitude": 42.6110167, "longitude": -107.19635, "elevation": 2180.0, "source": "osm", "_tags": {"ele": "2180", "man_made": "survey_point", "material": "bronze", "name": "Rocky Benchmark", "natural": "peak", "ref": "NR0403"}}, {"name": "", "latitude": 42.600854, "longitude": -107.2317742, "elevation": 2718.0, "source": "osm", "_tags": {"ele": "2718", "natural": "peak"}}, {"name": "", "latitude": 42.5377309, "longitude": -107.2844478, "elevation": 2240.0, "source": "osm", "_tags": {"ele": "2240", "natural": "peak"}}, {"name": "", "latitude": 42.4665258, "longitude": -107.2613895, "elevation": 2185.0, "source": "osm", "_tags": {"ele": "2185", "natural": "peak"}}, {"name": "Granite Ridge", "latitude": 42.4462623, "longitude": -106.9726189, "elevation": 2037.0, "source": "osm", "_tags": {"ele": "2037", "name": "Granite Ridge", "natural": "peak"}}, {"name": "Buzzard Benchmark", "latitude": 42.3749, "longitude": -107.0205667, "elevation": 1955.0, "source": "osm", "_tags": {"ele": "1955", "man_made": "survey_point", "material": "bronze", "name": "Buzzard Benchmark", "natural": "peak", "ref": "NR0429"}}, {"name": "", "latitude": 42.3882167, "longitude": -106.9058788, "elevation": 1986.0, "source": "osm", "_tags": {"ele": "1986", "natural": "peak"}}, {"name": "", "latitude": 42.3512773, "longitude": -106.9239287, "elevation": 2009.0, "source": "osm", "_tags": {"ele": "2009", "natural": "peak"}}, {"name": "", "latitude": 42.3402254, "longitude": -106.9218273, "elevation": 1993.0, "source": "osm", "_tags": {"ele": "1993", "natural": "peak"}}, {"name": "", "latitude": 42.3692596, "longitude": -106.8438845, "elevation": 2296.0, "source": "osm", "_tags": {"ele": "2296", "natural": "peak"}}, {"name": "Tops Benchmark", "latitude": 42.3620167, "longitude": -106.7919333, "elevation": 2351.0, "source": "osm", "_tags": {"ele": "2351", "man_made": "survey_point", "material": "bronze", "name": "Tops Benchmark", "natural": "peak", "ref": "NR0545"}}]