[{"name": "Mislatnah Peak", "latitude": 42.306219, "longitude": -124.0559178, "elevation": 945.0, "source": "osm", "_tags": {"ele": "945", "gnis:feature_id": "1116472", "name": "Mislatnah Peak", "natural": "peak"}}, {"name": "Anderson Mountain", "latitude": 43.0389994, "longitude": -124.0128751, "elevation": 429.0, "source": "osm", "_tags": {"ele": "429", "gnis:feature_id": "1116936", "name": "Anderson Mountain", "natural": "peak"}}, {"name": "Beaver Hill", "latitude": 43.204832, "longitude": -124.3028907, "elevation": 186.0, "source": "osm", "_tags": {"ele": "186", "gnis:feature_id": "1117446", "name": "Beaver Hill", "natural": "peak"}}, {"name": "Bennett Butte", "latitude": 42.9589978, "longitude": -124.2731616, "elevation": 637.0, "source": "osm", "_tags": {"ele": "637", "gnis:feature_id": "1117525", "name": "Bennett Butte", "natural": "peak"}}, {"name": "Bill Peak", "latitude": 43.0156642, "longitude": -124.3126089, "elevation": 460.0, "source": "osm", "_tags": {"ele": "460", "gnis:feature_id": "1117698", "name": "Bill Peak", "natural": "peak"}}, {"name": "Budd Mountain", "latitude": 43.1976102, "longitude": -124.1873301, "elevation": 119.0, "source": "osm", "_tags": {"ele": "119", "gnis:feature_id": "1118254", "name": "Budd Mountain", "natural": "peak"}}, {"name": "Buzzard Butte", "latitude": 42.9806643, "longitude": -124.2764957, "elevation": 545.0, "source": "osm", "_tags": {"ele": "545", "gnis:feature_id": "1118415", "name": "Buzzard Butte", "natural": "peak"}}, {"name": "Canfield Hill", "latitude": 42.4864979, "longitude": -124.3526014, "elevation": 357.0, "source": "osm", "_tags": {"ele": "357", "gnis:feature_id": "1118561", "name": "Canfield Hill", "natural": "peak"}}, {"name": "Coos Mountain", "latitude": 43.2768963, "longitude": -123.9002405, "elevation": 759.5616, "source": "osm", "_tags": {"ele": "759.5616", "gnis:feature_id": "1119257", "name": "Coos Mountain", "natural": "peak"}}, {"name": "Grizzly Mountain", "latitude": 42.3972205, "longitude": -124.3652594, "elevation": 687.0, "source": "osm", "_tags": {"ele": "687", "gnis:feature_id": "1121448", "name": "Grizzly Mountain", "natural": "peak"}}, {"name": "Hungry Mountain", "latitude": 43.2001105, "longitude": -124.1245496, "elevation": 255.0, "source": "osm", "_tags": {"ele": "255", "gnis:feature_id": "1122136", "name": "Hungry Mountain", "natural": "peak"}}, {"name": "Kenyon Mountain", "latitude": 43.001503, "longitude": -123.7786962, "elevation": 1006.0, "source": "osm", "_tags": {"ele": "1006", "gnis:feature_id": "1122703", "name": "Kenyon Mountain", "natural": "peak", "url": "https://www.peakbagger.com/peak.aspx?pid=32514", "website": "https://www.peakbagger.com/peak.aspx?pid=32514"}}, {"name": "Kimball Hill", "latitude": 42.4846396, "longitude": -124.2954022, "elevation": 509.6256, "source": "osm", "_tags": {"ele": "509.6256", "gnis:feature_id": "1122733", "name": "Kimball Hill", "natural": "peak"}}, {"name": "Morton Butte", "latitude": 42.9462194, "longitude": -124.4351104, "elevation": 155.0, "source": "osm", "_tags": {"ele": "155", "gnis:feature_id": "1124377", "name": "Morton Butte", "natural": "peak"}}, {"name": "Ninemile Mountain", "latitude": 42.7842802, "longitude": -123.7073002, "elevation": 1204.0, "source": "osm", "_tags": {"ele": "1204", "gnis:feature_id": "1124689", "name": "Ninemile Mountain", "natural": "peak"}}, {"name": "Noble Hill", "latitude": 43.242055, "longitude": -124.1589965, "elevation": 261.0, "source": "osm", "_tags": {"ele": "261", "gnis:feature_id": "1124700", "name": "Noble Hill", "natural": "peak"}}, {"name": "Rink Peak", "latitude": 43.1664993, "longitude": -124.1164931, "elevation": 319.0, "source": "osm", "_tags": {"ele": "319", "gnis:feature_id": "1126045", "name": "Rink Peak", "natural": "peak"}}, {"name": "Robbins Butte", "latitude": 43.0006651, "longitude": -124.1331571, "elevation": 241.0, "source": "osm", "_tags": {"ele": "241", "gnis:feature_id": "1126104", "name": "Robbins Butte", "natural": "peak"}}, {"name": "Round Top", "latitude": 42.9389974, "longitude": -124.3967758, "elevation": 333.0, "source": "osm", "_tags": {"ele": "333", "gnis:feature_id": "1126335", "name": "Round Top", "natural": "peak"}}, {"name": "Schneider Butte", "latitude": 43.0212211, "longitude": -124.095656, "elevation": 344.0, "source": "osm", "_tags": {"ele": "344", "gnis:feature_id": "1126646", "name": "Schneider Butte", "natural": "peak"}}, {"name": "Shuck Mountain", "latitude": 43.1287213, "longitude": -124.1392711, "elevation": 292.0, "source": "osm", "_tags": {"ele": "292", "gnis:feature_id": "1126935", "name": "Shuck Mountain", "natural": "peak"}}, {"name": "Signal Buttes", "latitude": 42.4164969, "longitude": -124.285375, "elevation": 1059.0, "source": "osm", "_tags": {"ele": "1059", "gnis:feature_id": "1126951", "name": "Signal Buttes", "natural": "peak"}}, {"name": "Sugarloaf Mountain", "latitude": 43.0634435, "longitude": -124.0778783, "elevation": 446.0, "source": "osm", "_tags": {"ele": "446", "gnis:feature_id": "1127700", "name": "Sugarloaf Mountain", "natural": "peak"}}, {"name": "Thomas Mountain", "latitude": 43.0381685, "longitude": -123.8361998, "elevation": 773.0, "source": "osm", "_tags": {"ele": "773", "gnis:feature_id": "1128024", "name": "Thomas Mountain", "natural": "peak"}}, {"name": "Vondergreen Hill", "latitude": 42.507054, "longitude": -124.3912147, "elevation": 259.0, "source": "osm", "_tags": {"ele": "259", "gnis:feature_id": "1128563", "name": "Vondergreen Hill", "natural": "peak"}}, {"name": "Watches Butte", "latitude": 42.9370534, "longitude": -124.269272, "elevation": 577.0, "source": "osm", "_tags": {"ele": "577", "gnis:feature_id": "1128709", "name": "Watches Butte", "natural": "peak"}}, {"name": "White Mountain", "latitude": 42.8831642, "longitude": -124.3973293, "elevation": 667.0, "source": "osm", "_tags": {"ele": "667", "gnis:feature_id": "1128984", "name": "White Mountain", "natural": "peak"}}, {"name": "Racetrack Hill", "latitude": 42.45261, "longitude": -124.3859373, "elevation": 96.0, "source": "osm", "_tags": {"ele": "96", "gnis:feature_id": "1134138", "name": "Racetrack Hill", "natural": "peak"}}, {"name": "Star Mountain", "latitude": 42.7694783, "longitude": -124.2379361, "elevation": 665.0736, "source": "osm", "_tags": {"ele": "665.0736", "gnis:feature_id": "1134627", "name": "Star Mountain", "natural": "peak"}}, {"name": "Rumley Hill", "latitude": 42.4734426, "longitude": -124.3637134, "elevation": 131.0, "source": "osm", "_tags": {"ele": "131", "gnis:feature_id": "1134965", "name": "Rumley Hill", "natural": "peak"}}, {"name": "Suicide Rock", "latitude": 42.9101103, "longitude": -124.0506517, "elevation": 195.0, "source": "osm", "_tags": {"ele": "195", "gnis:feature_id": "1135672", "name": "Suicide Rock", "natural": "peak"}}, {"name": "Pyramid Rock", "latitude": 42.9308323, "longitude": -124.0567972, "elevation": 505.0536, "source": "osm", "_tags": {"ele": "505.0536", "gnis:feature_id": "1135673", "name": "Pyramid Rock", "natural": "peak"}}, {"name": "Calf Ranch Mountain", "latitude": 42.8931646, "longitude": -124.2631594, "elevation": 729.0, "source": "osm", "_tags": {"ele": "729", "gnis:feature_id": "1136114", "name": "Calf Ranch Mountain", "natural": "peak"}}, {"name": "Cotton Butte", "latitude": 42.9564977, "longitude": -124.2951066, "elevation": 554.0, "source": "osm", "_tags": {"ele": "554", "gnis:feature_id": "1136178", "name": "Cotton Butte", "natural": "peak"}}, {"name": "Cribbins Hill", "latitude": 43.028443, "longitude": -124.1484361, "elevation": 170.0, "source": "osm", "_tags": {"ele": "170", "gnis:feature_id": "1136192", "name": "Cribbins Hill", "natural": "peak"}}, {"name": "Lampa Mountain", "latitude": 43.1084427, "longitude": -124.2609425, "elevation": 243.0, "source": "osm", "_tags": {"ele": "243", "gnis:feature_id": "1136459", "name": "Lampa Mountain", "natural": "peak"}}, {"name": "Little Edson Butte", "latitude": 42.8820533, "longitude": -124.3181605, "elevation": 507.0, "source": "osm", "_tags": {"ele": "507", "gnis:feature_id": "1136486", "name": "Little Edson Butte", "natural": "peak"}}, {"name": "Anvil Mountain", "latitude": 42.7418804, "longitude": -124.3546393, "elevation": 746.4552, "source": "osm", "_tags": {"ele": "746.4552", "gnis:feature_id": "1137269", "name": "Anvil Mountain", "natural": "peak"}}, {"name": "Mount Avery", "latitude": 42.790303, "longitude": -124.2507926, "elevation": 816.864, "source": "osm", "_tags": {"ele": "816.864", "gnis:feature_id": "1137357", "name": "Mount Avery", "natural": "peak"}}, {"name": "Bald Knob", "latitude": 42.6937211, "longitude": -124.0392576, "elevation": 1102.0, "source": "osm", "_tags": {"ele": "1102", "gnis:feature_id": "1137443", "name": "Bald Knob", "natural": "peak"}}, {"name": "Bald Mountain", "latitude": 42.438985, "longitude": -123.9132372, "elevation": 1211.6, "source": "osm", "_tags": {"ele": "1211.6", "gnis:feature_id": "1137449", "name": "Bald Mountain", "natural": "peak"}}, {"name": "Barklow Mountain", "latitude": 42.7475014, "longitude": -124.1537732, "elevation": 1094.232, "source": "osm", "_tags": {"ele": "1094.232", "gnis:feature_id": "1137517", "name": "Barklow Mountain", "natural": "peak"}}, {"name": "Big Craggies", "latitude": 42.340108, "longitude": -124.0578628, "elevation": 1382.0, "source": "osm", "_tags": {"ele": "1382", "gnis:feature_id": "1137999", "name": "Big Craggies", "natural": "peak"}}, {"name": "Mount Billingslea", "latitude": 42.3464982, "longitude": -123.915357, "elevation": 1264.0, "source": "osm", "_tags": {"ele": "1264", "gnis:feature_id": "1138117", "name": "Mount Billingslea", "natural": "peak"}}, {"name": "Bingham Mountain", "latitude": 42.8800454, "longitude": -124.1045043, "elevation": 696.7728, "source": "osm", "_tags": {"ele": "696.7728", "gnis:feature_id": "1138136", "name": "Bingham Mountain", "natural": "peak"}}, {"name": "Bobs Garden Mountain", "latitude": 42.640666, "longitude": -123.9225848, "elevation": 1300.0, "source": "osm", "_tags": {"ele": "1300", "gnis:feature_id": "1138373", "name": "Bobs Garden Mountain", "natural": "peak"}}, {"name": "Mount Bolivar", "latitude": 42.7917515, "longitude": -123.8362365, "elevation": 1316.431, "source": "osm", "_tags": {"ele": "1316.431", "gnis:feature_id": "1138396", "name": "Mount Bolivar", "natural": "peak"}}, {"name": "Bone Mountain", "latitude": 42.9169192, "longitude": -123.847186, "elevation": 1112.825, "source": "osm", "_tags": {"ele": "1112.825", "gnis:feature_id": "1138413", "name": "Bone Mountain", "natural": "peak"}}, {"name": "Brandy Peak", "latitude": 42.5975542, "longitude": -123.8803987, "elevation": 1614.83, "source": "osm", "_tags": {"ele": "1614.83", "gnis:feature_id": "1138573", "name": "Brandy Peak", "natural": "peak"}}, {"name": "Bray Mountain", "latitude": 42.7632573, "longitude": -124.1441196, "elevation": 1010.717, "source": "osm", "_tags": {"ele": "1010.717", "gnis:feature_id": "1138583", "name": "Bray Mountain", "natural": "peak"}}, {"name": "Brushy Bald Mountain", "latitude": 42.5439975, "longitude": -124.3225998, "elevation": 761.0, "source": "osm", "_tags": {"ele": "761", "gnis:feature_id": "1138725", "name": "Brushy Bald Mountain", "natural": "peak"}}, {"name": "Brushy Mountain", "latitude": 42.6217756, "longitude": -124.1181477, "elevation": 1077.0, "source": "osm", "_tags": {"ele": "1077", "gnis:feature_id": "1138732", "name": "Brushy Mountain", "natural": "peak"}}, {"name": "Mount Butler", "latitude": 42.7673316, "longitude": -124.2603781, "elevation": 884.0, "source": "osm", "_tags": {"ele": "884", "gnis:feature_id": "1139052", "name": "Mount Butler", "natural": "peak"}}, {"name": "Buzzards Roost", "latitude": 42.4953862, "longitude": -124.028141, "elevation": 304.0, "source": "osm", "_tags": {"ele": "304", "gnis:feature_id": "1139085", "name": "Buzzards Roost", "natural": "peak"}}, {"name": "Cedar Mountain", "latitude": 42.5184455, "longitude": -123.7089625, "elevation": 1322.0, "source": "osm", "_tags": {"ele": "1322", "gnis:feature_id": "1139525", "name": "Cedar Mountain", "natural": "peak"}}, {"name": "China Mountain", "latitude": 42.7258509, "longitude": -124.4061142, "elevation": 483.108, "source": "osm", "_tags": {"ele": "483.108", "gnis:feature_id": "1139689", "name": "China Mountain", "natural": "peak"}}, {"name": "China Peak", "latitude": 42.7820537, "longitude": -124.3128796, "elevation": 622.0, "source": "osm", "_tags": {"ele": "622", "gnis:feature_id": "1139690", "name": "China Peak", "natural": "peak"}}, {"name": "Chinaman Hat", "latitude": 42.4315983, "longitude": -123.8691382, "elevation": 1080.2, "source": "osm", "_tags": {"ele": "1080.2", "gnis:feature_id": "1139693", "name": "Chinaman Hat", "natural": "peak"}}, {"name": "Chismore Butte", "latitude": 42.6395531, "longitude": -124.2864879, "elevation": 796.0, "source": "osm", "_tags": {"ele": "796", "gnis:feature_id": "1139706", "name": "Chismore Butte", "natural": "peak"}}, {"name": "Coffee Butte", "latitude": 42.5909415, "longitude": -124.2650975, "elevation": 448.0, "source": "osm", "_tags": {"ele": "448", "gnis:feature_id": "1139888", "name": "Coffee Butte", "natural": "peak"}}, {"name": "Colebrook Butte", "latitude": 42.5945536, "longitude": -124.3648241, "elevation": 627.0, "source": "osm", "_tags": {"ele": "627", "gnis:feature_id": "1139980", "name": "Colebrook Butte", "natural": "peak"}}, {"name": "Collier Butte", "latitude": 42.3658772, "longitude": -124.1289108, "elevation": 1284.0, "source": "osm", "_tags": {"ele": "1284", "gnis:feature_id": "1139990", "name": "Collier Butte", "natural": "peak"}}, {"name": "Copper Mountain", "latitude": 42.7187437, "longitude": -124.1733205, "elevation": 1085.698, "source": "osm", "_tags": {"ele": "1085.698", "gnis:feature_id": "1140107", "name": "Copper Mountain", "natural": "peak"}}, {"name": "Devils Half Acre", "latitude": 42.6445535, "longitude": -124.1339822, "elevation": 1069.0, "source": "osm", "_tags": {"ele": "1069", "gnis:feature_id": "1140983", "name": "Devils Half Acre", "natural": "peak"}}, {"name": "Diamond Peak", "latitude": 42.7857613, "longitude": -123.8541779, "elevation": 1208.532, "source": "osm", "_tags": {"ele": "1208.532", "gnis:feature_id": "1141003", "name": "Diamond Peak", "natural": "peak"}}, {"name": "Edson Butte", "latitude": 42.8720533, "longitude": -124.3351051, "elevation": 820.0, "source": "osm", "_tags": {"ele": "820", "gnis:feature_id": "1141686", "name": "Edson Butte", "natural": "peak"}}, {"name": "Eightmile Prairie Mountain", "latitude": 42.857331, "longitude": -124.4003841, "elevation": 712.0, "source": "osm", "_tags": {"ele": "712", "gnis:feature_id": "1141708", "name": "Eightmile Prairie Mountain", "natural": "peak"}}, {"name": "Fairview Mountain", "latitude": 42.3717741, "longitude": -124.1803689, "elevation": 1210.0, "source": "osm", "_tags": {"ele": "1210", "gnis:feature_id": "1141950", "name": "Fairview Mountain", "natural": "peak"}}, {"name": "Fall Mountain", "latitude": 42.5953861, "longitude": -124.2148177, "elevation": 658.0, "source": "osm", "_tags": {"ele": "658", "gnis:feature_id": "1141993", "name": "Fall Mountain", "natural": "peak"}}, {"name": "Father Mountain", "latitude": 42.6859424, "longitude": -124.3286625, "elevation": 867.156, "source": "osm", "_tags": {"ele": "867.156", "gnis:feature_id": "1142030", "name": "Father Mountain", "natural": "peak"}}, {"name": "First Prairie Mountain", "latitude": 42.5451077, "longitude": -124.2553741, "elevation": 759.0, "source": "osm", "_tags": {"ele": "759", "gnis:feature_id": "1142142", "name": "First Prairie Mountain", "natural": "peak"}}, {"name": "Fish Hook Peak", "latitude": 42.5314403, "longitude": -123.9117038, "elevation": 1533.144, "source": "osm", "_tags": {"ele": "1533.144", "gnis:feature_id": "1142157", "name": "Fish Hook Peak", "natural": "peak"}}, {"name": "Flat Top", "latitude": 42.4292775, "longitude": -123.7950757, "elevation": 1377.0, "source": "osm", "_tags": {"ele": "1377", "gnis:feature_id": "1142244", "name": "Flat Top", "natural": "peak"}}, {"name": "Freeland Mountain", "latitude": 42.4934452, "longitude": -123.7200737, "elevation": 1378.0, "source": "osm", "_tags": {"ele": "1378", "gnis:feature_id": "1142438", "name": "Freeland Mountain", "natural": "peak"}}, {"name": "Gold Basin Butte", "latitude": 42.3117767, "longitude": -123.8406315, "elevation": 1466.0, "source": "osm", "_tags": {"ele": "1466", "gnis:feature_id": "1142803", "name": "Gold Basin Butte", "natural": "peak"}}, {"name": "Gold Mountain", "latitude": 42.8462913, "longitude": -123.7912373, "elevation": 1061.923, "source": "osm", "_tags": {"ele": "1061.923", "gnis:feature_id": "1142823", "name": "Gold Mountain", "natural": "peak"}}, {"name": "Granite Butte", "latitude": 42.3412206, "longitude": -123.8928561, "elevation": 1308.0, "source": "osm", "_tags": {"ele": "1308", "gnis:feature_id": "1142913", "name": "Granite Butte", "natural": "peak"}}, {"name": "Granite Peak", "latitude": 42.7528878, "longitude": -124.1405797, "elevation": 970.788, "source": "osm", "_tags": {"ele": "970.788", "gnis:feature_id": "1142929", "name": "Granite Peak", "natural": "peak"}}, {"name": "Grassy Knob", "latitude": 42.7481647, "longitude": -124.3792688, "elevation": 650.0, "source": "osm", "_tags": {"ele": "650", "gnis:feature_id": "1142971", "name": "Grassy Knob", "natural": "peak"}}, {"name": "Green Craggie", "latitude": 42.3278856, "longitude": -124.0948088, "elevation": 1155.0, "source": "osm", "_tags": {"ele": "1155", "gnis:feature_id": "1143025", "name": "Green Craggie", "natural": "peak"}}, {"name": "Green Knob", "latitude": 42.6076094, "longitude": -124.0181434, "elevation": 1054.0, "source": "osm", "_tags": {"ele": "1054", "gnis:feature_id": "1143033", "name": "Green Knob", "natural": "peak"}}, {"name": "Grouslous Mountain", "latitude": 42.8626088, "longitude": -124.3806615, "elevation": 755.0, "source": "osm", "_tags": {"ele": "755", "gnis:feature_id": "1143140", "name": "Grouslous Mountain", "natural": "peak"}}, {"name": "Hayward Peak", "latitude": 42.3555897, "longitude": -123.9342012, "elevation": 1307.592, "source": "osm", "_tags": {"ele": "1307.592", "gnis:feature_id": "1143422", "name": "Hayward Peak", "natural": "peak"}}, {"name": "Heather Mountain", "latitude": 42.3228865, "longitude": -123.9545247, "elevation": 1231.0, "source": "osm", "_tags": {"ele": "1231", "gnis:feature_id": "1143439", "name": "Heather Mountain", "natural": "peak"}}, {"name": "Hobson Horn", "latitude": 42.551778, "longitude": -123.7836883, "elevation": 1429.0, "source": "osm", "_tags": {"ele": "1429", "gnis:feature_id": "1143626", "name": "Hobson Horn", "natural": "peak"}}, {"name": "Hood Mountain", "latitude": 42.9151101, "longitude": -124.0792641, "elevation": 498.0, "source": "osm", "_tags": {"ele": "498", "gnis:feature_id": "1143704", "name": "Hood Mountain", "natural": "peak"}}, {"name": "Horse Mountain", "latitude": 42.3765005, "longitude": -123.7328506, "elevation": 1065.0, "source": "osm", "_tags": {"ele": "1065", "gnis:feature_id": "1143772", "name": "Horse Mountain", "natural": "peak"}}, {"name": "Horse Sign Butte", "latitude": 42.4426081, "longitude": -124.0561972, "elevation": 1121.0, "source": "osm", "_tags": {"ele": "1121", "gnis:feature_id": "1143788", "name": "Horse Sign Butte", "natural": "peak"}}, {"name": "Hubbard Mound", "latitude": 42.4770564, "longitude": -124.4244675, "elevation": 65.8, "source": "osm", "_tags": {"ele": "65.8", "gnis:feature_id": "1143865", "name": "Hubbard Mound", "natural": "peak"}}, {"name": "Humbug Mountain", "latitude": 42.6785825, "longitude": -124.4356424, "elevation": 535.2, "source": "osm", "_tags": {"ele": "535.2", "name": "Humbug Mountain", "natural": "peak", "wikidata": "Q5940513"}}, {"name": "Iron Mountain", "latitude": 42.6974999, "longitude": -124.1417924, "elevation": 1242.06, "source": "osm", "_tags": {"ele": "1242.06", "gnis:feature_id": "1144117", "name": "Iron Mountain", "natural": "peak"}}, {"name": "Johnson Mountain", "latitude": 42.7987664, "longitude": -124.0998007, "elevation": 932.3832, "source": "osm", "_tags": {"ele": "932.3832", "gnis:feature_id": "1144360", "name": "Johnson Mountain", "natural": "peak"}}, {"name": "Kelsey Peak", "latitude": 42.7288991, "longitude": -123.7720696, "elevation": 1042.721, "source": "osm", "_tags": {"ele": "1042.721", "gnis:feature_id": "1144546", "name": "Kelsey Peak", "natural": "peak"}}, {"name": "Ketchin Butte", "latitude": 42.8857283, "longitude": -123.8188453, "elevation": 1134.466, "source": "osm", "_tags": {"ele": "1134.466", "gnis:feature_id": "1144576", "name": "Ketchin Butte", "natural": "peak"}}, {"name": "Lake of the Woods Mountain", "latitude": 42.5932037, "longitude": -124.1295112, "elevation": 1042.1, "source": "osm", "_tags": {"ele": "1042.1", "gnis:feature_id": "1144742", "name": "Lake of the Woods Mountain", "natural": "peak"}}, {"name": "Lawson Butte", "latitude": 42.4859415, "longitude": -124.0617536, "elevation": 743.0, "source": "osm", "_tags": {"ele": "743", "gnis:feature_id": "1144890", "name": "Lawson Butte", "natural": "peak"}}, {"name": "Lobster Hill", "latitude": 42.5253856, "longitude": -124.2739859, "elevation": 712.0, "source": "osm", "_tags": {"ele": "712", "gnis:feature_id": "1145313", "name": "Lobster Hill", "natural": "peak"}}, {"name": "Madden Butte", "latitude": 42.8414975, "longitude": -124.4670517, "elevation": 223.0, "source": "osm", "_tags": {"ele": "223", "gnis:feature_id": "1145719", "name": "Madden Butte", "natural": "peak"}}, {"name": "Milbury Mountain", "latitude": 42.7009424, "longitude": -124.2570433, "elevation": 816.0, "source": "osm", "_tags": {"ele": "816", "gnis:feature_id": "1146199", "name": "Milbury Mountain", "natural": "peak"}}, {"name": "Mineral Hill", "latitude": 42.3064966, "longitude": -124.1325882, "elevation": 1115.0, "source": "osm", "_tags": {"ele": "1115", "gnis:feature_id": "1146315", "name": "Mineral Hill", "natural": "peak"}}, {"name": "Moon Mountain", "latitude": 42.7837203, "longitude": -124.3181575, "elevation": 594.0, "source": "osm", "_tags": {"ele": "594", "gnis:feature_id": "1146422", "name": "Moon Mountain", "natural": "peak"}}, {"name": "Mule Mountain", "latitude": 42.7304907, "longitude": -123.9098271, "elevation": 895.8072, "source": "osm", "_tags": {"ele": "895.8072", "gnis:feature_id": "1146639", "name": "Mule Mountain", "natural": "peak"}}, {"name": "Nome Peak", "latitude": 42.3478879, "longitude": -123.8464655, "elevation": 1220.0, "source": "osm", "_tags": {"ele": "1220", "gnis:feature_id": "1146869", "name": "Nome Peak", "natural": "peak"}}, {"name": "Ophir Mountain", "latitude": 42.6561953, "longitude": -124.1375704, "elevation": 1208.837, "source": "osm", "_tags": {"ele": "1208.837", "gnis:feature_id": "1147254", "name": "Ophir Mountain", "natural": "peak"}}, {"name": "Panther Mountain", "latitude": 42.6667, "longitude": -124.2428726, "elevation": 999.744, "source": "osm", "_tags": {"ele": "999.744", "gnis:feature_id": "1147400", "name": "Panther Mountain", "natural": "peak"}}, {"name": "Pearse Peak", "latitude": 42.7033368, "longitude": -124.3600603, "elevation": 683.0568, "source": "osm", "_tags": {"ele": "683.0568", "gnis:feature_id": "1147527", "name": "Pearse Peak", "natural": "peak"}}, {"name": "Pearsoll Peak", "latitude": 42.2988481, "longitude": -123.845789, "elevation": 1553.9, "source": "osm", "_tags": {"ele": "1553.9", "gnis:feature_id": "1147528", "name": "Pearsoll Peak", "natural": "peak", "wikidata": "Q7158302", "wikipedia": "en:Pearsoll Peak"}}, {"name": "Pebble Hill", "latitude": 42.5134414, "longitude": -124.100089, "elevation": 914.0, "source": "osm", "_tags": {"ele": "914", "gnis:feature_id": "1147551", "name": "Pebble Hill", "natural": "peak"}}, {"name": "Pinnacle Point", "latitude": 42.6926109, "longitude": -123.9217527, "elevation": 691.0, "source": "osm", "_tags": {"ele": "691", "gnis:feature_id": "1147746", "name": "Pinnacle Point", "natural": "peak"}}, {"name": "Potato Illahe Mountain", "latitude": 42.5481636, "longitude": -124.1570366, "elevation": 553.0, "source": "osm", "_tags": {"ele": "553", "gnis:feature_id": "1147937", "name": "Potato Illahe Mountain", "natural": "peak"}}, {"name": "Purple Mountain", "latitude": 42.7026565, "longitude": -124.3530117, "elevation": 718.7184, "source": "osm", "_tags": {"ele": "718.7184", "gnis:feature_id": "1148056", "name": "Purple Mountain", "natural": "peak", "wikidata": "Q14709205"}}, {"name": "Quosatana Butte", "latitude": 42.4139962, "longitude": -124.2281492, "elevation": 993.0, "source": "osm", "_tags": {"ele": "993", "gnis:feature_id": "1148111", "name": "Quosatana Butte", "natural": "peak"}}, {"name": "Raspberry Mountain", "latitude": 42.55122, "longitude": -124.0061971, "elevation": 846.0, "source": "osm", "_tags": {"ele": "846", "gnis:feature_id": "1148226", "name": "Raspberry Mountain", "natural": "peak"}}, {"name": "Rusty Butte", "latitude": 42.7792762, "longitude": -124.2078767, "elevation": 736.0, "source": "osm", "_tags": {"ele": "736", "gnis:feature_id": "1148864", "name": "Rusty Butte", "natural": "peak"}}, {"name": "Saddle Mountain", "latitude": 42.4020522, "longitude": -124.1306446, "elevation": 1290.0, "source": "osm", "_tags": {"ele": "1290", "gnis:feature_id": "1148908", "name": "Saddle Mountain", "natural": "peak"}}, {"name": "Saddle Peaks", "latitude": 42.7679295, "longitude": -123.8734345, "elevation": 1249.68, "source": "osm", "_tags": {"ele": "1249.68", "gnis:feature_id": "1148911", "name": "Saddle Peaks", "natural": "peak"}}, {"name": "Salmon Mountain", "latitude": 42.7715467, "longitude": -124.1674343, "elevation": 966.216, "source": "osm", "_tags": {"ele": "966.216", "gnis:feature_id": "1148982", "name": "Salmon Mountain", "natural": "peak"}}, {"name": "Samison Mountain", "latitude": 42.992643, "longitude": -124.0424078, "elevation": 505.968, "source": "osm", "_tags": {"ele": "505.968", "gnis:feature_id": "1149012", "name": "Samison Mountain", "natural": "peak"}}, {"name": "Sand Rock Mountain", "latitude": 42.8153882, "longitude": -124.0389826, "elevation": 797.0, "source": "osm", "_tags": {"ele": "797", "gnis:feature_id": "1149044", "name": "Sand Rock Mountain", "natural": "peak"}}, {"name": "Second Prairie Mountain", "latitude": 42.5528857, "longitude": -124.217317, "elevation": 839.0, "source": "osm", "_tags": {"ele": "839", "gnis:feature_id": "1149209", "name": "Second Prairie Mountain", "natural": "peak"}}, {"name": "Sevenmile Peak", "latitude": 42.5056635, "longitude": -124.1037001, "elevation": 919.0, "source": "osm", "_tags": {"ele": "919", "gnis:feature_id": "1149262", "name": "Sevenmile Peak", "natural": "peak"}}, {"name": "Silver Butte", "latitude": 42.772331, "longitude": -124.4945496, "elevation": 56.0, "source": "osm", "_tags": {"ele": "56", "gnis:feature_id": "1149480", "name": "Silver Butte", "natural": "peak"}}, {"name": "Silver Peak", "latitude": 42.4792756, "longitude": -123.9598048, "elevation": 1234.0, "source": "osm", "_tags": {"ele": "1234", "gnis:feature_id": "1149504", "name": "Silver Peak", "natural": "peak"}}, {"name": "Skookumhouse Butte", "latitude": 42.4798296, "longitude": -124.213149, "elevation": 662.0, "source": "osm", "_tags": {"ele": "662", "gnis:feature_id": "1149624", "name": "Skookumhouse Butte", "natural": "peak"}}, {"name": "Snow Camp Mountain", "latitude": 42.3442742, "longitude": -124.165368, "elevation": 1286.0, "source": "osm", "_tags": {"ele": "1286", "gnis:feature_id": "1149802", "name": "Snow Camp Mountain", "natural": "peak"}}, {"name": "Soldier Camp Mountain", "latitude": 42.5584414, "longitude": -124.1920382, "elevation": 990.0, "source": "osm", "_tags": {"ele": "990", "gnis:feature_id": "1149863", "name": "Soldier Camp Mountain", "natural": "peak"}}, {"name": "South Bend Mountain", "latitude": 42.3964975, "longitude": -123.9775821, "elevation": 1043.0, "source": "osm", "_tags": {"ele": "1043", "gnis:feature_id": "1149902", "name": "South Bend Mountain", "natural": "peak"}}, {"name": "Squirrel Peak", "latitude": 42.5776101, "longitude": -123.915083, "elevation": 1425.0, "source": "osm", "_tags": {"ele": "1425", "gnis:feature_id": "1150310", "name": "Squirrel Peak", "natural": "peak"}}, {"name": "Stone Butte", "latitude": 42.8717752, "longitude": -124.4367744, "elevation": 422.0, "source": "osm", "_tags": {"ele": "422", "gnis:feature_id": "1150443", "name": "Stone Butte", "natural": "peak"}}, {"name": "Sugarloaf Mountain", "latitude": 42.3984407, "longitude": -124.2198154, "elevation": 1078.0, "source": "osm", "_tags": {"ele": "1078", "gnis:feature_id": "1150552", "name": "Sugarloaf Mountain", "natural": "peak"}}, {"name": "Sugarloaf Mountain", "latitude": 42.5556657, "longitude": -123.8986929, "elevation": 1514.0, "source": "osm", "_tags": {"ele": "1514", "gnis:feature_id": "1150553", "name": "Sugarloaf Mountain", "natural": "peak"}}, {"name": "Sugarloaf Mountain", "latitude": 42.8373316, "longitude": -124.2339903, "elevation": 734.0, "source": "osm", "_tags": {"ele": "734", "gnis:feature_id": "1150555", "name": "Sugarloaf Mountain", "natural": "peak"}}, {"name": "Summit Mountain", "latitude": 42.8703865, "longitude": -124.3937177, "elevation": 711.0, "source": "osm", "_tags": {"ele": "711", "gnis:feature_id": "1150629", "name": "Summit Mountain", "natural": "peak"}}, {"name": "Sundown Mountain", "latitude": 42.310388, "longitude": -124.3509362, "elevation": 646.0, "source": "osm", "_tags": {"ele": "646", "gnis:feature_id": "1150659", "name": "Sundown Mountain", "natural": "peak"}}, {"name": "Taylor Mountain", "latitude": 42.4967788, "longitude": -123.7000729, "elevation": 1326.0, "source": "osm", "_tags": {"ele": "1326", "gnis:feature_id": "1150922", "name": "Taylor Mountain", "natural": "peak"}}, {"name": "Tincup Peak", "latitude": 42.3131646, "longitude": -123.92119, "elevation": 1373.0, "source": "osm", "_tags": {"ele": "1373", "gnis:feature_id": "1151269", "name": "Tincup Peak", "natural": "peak"}}, {"name": "Ulmer Mountain", "latitude": 42.5417757, "longitude": -124.3578794, "elevation": 375.0, "source": "osm", "_tags": {"ele": "375", "gnis:feature_id": "1151632", "name": "Ulmer Mountain", "natural": "peak"}}, {"name": "Woodby Mountain", "latitude": 42.8528084, "longitude": -124.0122116, "elevation": 881.1768, "source": "osm", "_tags": {"ele": "881.1768", "gnis:feature_id": "1152621", "name": "Woodby Mountain", "natural": "peak"}}, {"name": "York Butte", "latitude": 42.3992771, "longitude": -123.8203541, "elevation": 1286.0, "source": "osm", "_tags": {"ele": "1286", "gnis:feature_id": "1152747", "name": "York Butte", "natural": "peak"}}, {"name": "August Knob", "latitude": 42.7869099, "longitude": -123.8070551, "elevation": 1211.275, "source": "osm", "_tags": {"ele": "1211.275", "gnis:feature_id": "1154617", "name": "August Knob", "natural": "peak"}}, {"name": "Gobblers Knob", "latitude": 42.8163742, "longitude": -123.9469641, "elevation": 1133.856, "source": "osm", "_tags": {"ele": "1133.856", "gnis:feature_id": "1154626", "name": "Gobblers Knob", "natural": "peak"}}, {"name": "Tomcat Hill", "latitude": 42.4192775, "longitude": -124.4123286, "elevation": 116.0, "source": "osm", "_tags": {"ele": "116", "gnis:feature_id": "1154864", "name": "Tomcat Hill", "natural": "peak"}}, {"name": "Pine Point", "latitude": 42.2901087, "longitude": -124.2970426, "elevation": 393.0, "source": "osm", "_tags": {"ele": "393", "gnis:feature_id": "1154870", "name": "Pine Point", "natural": "peak"}}, {"name": "Jacoby Butte", "latitude": 42.357052, "longitude": -124.1464783, "elevation": 1223.0, "source": "osm", "_tags": {"ele": "1223", "gnis:feature_id": "1155721", "name": "Jacoby Butte", "natural": "peak"}}, {"name": "Burnt Mountain", "latitude": 43.2190014, "longitude": -123.8345365, "elevation": 685.0, "source": "osm", "_tags": {"ele": "685", "gnis:feature_id": "1157223", "name": "Burnt Mountain", "natural": "peak"}}, {"name": "Sheeps Head", "latitude": 43.1334451, "longitude": -123.9250948, "elevation": 706.0, "source": "osm", "_tags": {"ele": "706", "gnis:feature_id": "1157227", "name": "Sheeps Head", "natural": "peak"}}, {"name": "Whoorey Mountain", "latitude": 42.9803875, "longitude": -124.1242675, "elevation": 410.0, "source": "osm", "_tags": {"ele": "410", "gnis:feature_id": "1157877", "name": "Whoorey Mountain", "natural": "peak"}}, {"name": "Bald Mountain", "latitude": 42.6707337, "longitude": -124.3610103, "elevation": 902.208, "source": "osm", "_tags": {"ele": "902.208", "gnis:feature_id": "1158114", "name": "Bald Mountain", "natural": "peak"}}, {"name": "Rocky Peak", "latitude": 42.6600896, "longitude": -124.3473381, "elevation": 926.592, "source": "osm", "_tags": {"ele": "926.592", "gnis:feature_id": "1158456", "name": "Rocky Peak", "natural": "peak"}}, {"name": "Split Mountain", "latitude": 43.1201124, "longitude": -123.8728699, "elevation": 703.0, "source": "osm", "_tags": {"ele": "703", "gnis:feature_id": "1160644", "name": "Split Mountain", "natural": "peak"}}, {"name": "Scott Mountain", "latitude": 43.077613, "longitude": -123.8270334, "elevation": 820.0, "source": "osm", "_tags": {"ele": "820", "gnis:feature_id": "1160645", "name": "Scott Mountain", "natural": "peak"}}, {"name": "Table Rock", "latitude": 42.8190207, "longitude": -123.9045285, "elevation": 1160.069, "source": "osm", "_tags": {"ele": "1160.069", "gnis:feature_id": "1161537", "name": "Table Rock", "natural": "peak"}}, {"name": "Cemetery Hill", "latitude": 42.7444555, "longitude": -124.5036867, "elevation": null, "source": "osm", "_tags": {"name": "Cemetery Hill", "natural": "peak"}}, {"name": "Blue", "latitude": 43.2710293, "longitude": -124.0864865, "elevation": 488.0, "source": "osm", "_tags": {"ele": "488", "name": "Blue", "natural": "peak"}}, {"name": "", "latitude": 43.2537735, "longitude": -124.0970775, "elevation": 427.0, "source": "osm", "_tags": {"ele": "427", "natural": "peak"}}, {"name": "High Point", "latitude": 43.2423396, "longitude": -124.1990682, "elevation": 175.0, "source": "osm", "_tags": {"ele": "175", "name": "High Point", "natural": "peak"}}, {"name": "", "latitude": 43.2272864, "longitude": -123.7367207, "elevation": 199.6, "source": "osm", "_tags": {"ele": "199.6", "natural": "peak"}}, {"name": "", "latitude": 43.2322672, "longitude": -123.7273729, "elevation": 790.6, "source": "osm", "_tags": {"ele": "790.6", "natural": "peak"}}, {"name": "Hanging Rock", "latitude": 42.740002, "longitude": -123.9322749, "elevation": 1194.816, "source": "osm", "_tags": {"ele": "1194.816", "gnis:feature_id": "1161385", "name": "Hanging Rock", "natural": "peak"}}, {"name": "Bear Camp Mountain", "latitude": 42.6322488, "longitude": -123.8313165, "elevation": null, "source": "osm", "_tags": {"name": "Bear Camp Mountain", "natural": "peak"}}, {"name": "Cedar Point", "latitude": 42.5532332, "longitude": -124.357195, "elevation": null, "source": "osm", "_tags": {"gnis:feature_id": "1139526", "name": "Cedar Point", "natural": "peak"}}, {"name": "", "latitude": 42.9273157, "longitude": -124.065016, "elevation": 554.1264, "source": "osm", "_tags": {"ele": "554.1264", "natural": "peak"}}, {"name": "Game Lake Peak", "latitude": 42.4305177, "longitude": -124.0923746, "elevation": 1341.425, "source": "osm", "_tags": {"ele": "1341.425", "name": "Game Lake Peak", "natural": "peak"}}]