[{"name": "Bear Mountain", "latitude": 42.4360736, "longitude": -106.5416989, "elevation": 2280.0, "source": "osm", "_tags": {"ele": "2280", "gnis:feature_id": "1585269", "name": "Bear Mountain", "natural": "peak", "wikidata": "Q49011481"}}, {"name": "Bear Rock", "latitude": 42.5249665, "longitude": -105.7666674, "elevation": 2289.0, "source": "osm", "_tags": {"ele": "2289", "gnis:feature_id": "1585278", "name": "Bear Rock", "natural": "peak", "wikidata": "Q49011506"}}, {"name": "Bessemer Mountain", "latitude": 42.7382971, "longitude": -106.5542025, "elevation": 1905.0, "source": "osm", "_tags": {"ele": "1905", "gnis:feature_id": "1585407", "name": "Bessemer Mountain", "natural": "peak", "wikidata": "Q49012207"}}, {"name": "Blizzard Heights", "latitude": 43.0783003, "longitude": -105.7211088, "elevation": 1771.0, "source": "osm", "_tags": {"ele": "1771", "gnis:feature_id": "1585661", "name": "Blizzard Heights", "natural": "peak", "wikidata": "Q49014232"}}, {"name": "Blue Hill", "latitude": 43.0633001, "longitude": -105.9850083, "elevation": 1842.0, "source": "osm", "_tags": {"ele": "1842", "gnis:feature_id": "1585681", "name": "Blue Hill", "natural": "peak", "wikidata": "Q49014363"}}, {"name": "Buffalo Peak", "latitude": 42.5096883, "longitude": -105.8533381, "elevation": 2844.0, "source": "osm", "_tags": {"ele": "2844", "gnis:feature_id": "1586067", "name": "Buffalo Peak", "natural": "peak", "wikidata": "Q49016472"}}, {"name": "Caffee Point", "latitude": 42.5430222, "longitude": -105.7344437, "elevation": 2218.0, "source": "osm", "_tags": {"ele": "2218", "gnis:feature_id": "1586271", "name": "Caffee Point", "natural": "peak", "wikidata": "Q49017543"}}, {"name": "Campbell Hill", "latitude": 42.9716329, "longitude": -106.0944588, "elevation": 1720.0, "source": "osm", "_tags": {"ele": "1720", "gnis:feature_id": "1586319", "name": "Campbell Hill", "natural": "peak", "wikidata": "Q49017809"}}, {"name": "Casper Mountain", "latitude": 42.7524683, "longitude": -106.3144694, "elevation": 2390.0, "source": "osm", "_tags": {"ele": "2390", "gnis:feature_id": "1586429", "name": "Casper Mountain", "natural": "peak", "wikidata": "Q1858241", "wikipedia": "en:Casper Mountain"}}, {"name": "Chalk Mountain", "latitude": 42.3446849, "longitude": -106.473918, "elevation": 2434.0, "source": "osm", "_tags": {"ele": "2434", "gnis:feature_id": "1586566", "name": "Chalk Mountain", "natural": "peak", "wikidata": "Q49019728"}}, {"name": "Cherry Mountain", "latitude": 42.5113548, "longitude": -105.9061182, "elevation": 2786.0, "source": "osm", "_tags": {"ele": "2786", "gnis:feature_id": "1586620", "name": "Cherry Mountain", "natural": "peak"}}, {"name": "Clarkson Hill", "latitude": 42.6649629, "longitude": -106.684763, "elevation": 1885.0, "source": "osm", "_tags": {"ele": "1885", "gnis:feature_id": "1586742", "name": "Clarkson Hill", "natural": "peak", "wikidata": "Q49020876"}}, {"name": "Coal Hill", "latitude": 43.0235779, "longitude": -105.8486141, "elevation": 1744.0, "source": "osm", "_tags": {"ele": "1744", "gnis:feature_id": "1586829", "name": "Coal Hill", "natural": "peak", "wikidata": "Q49021158"}}, {"name": "Coal Mountain", "latitude": 42.7357973, "longitude": -106.484755, "elevation": 2058.0, "source": "osm", "_tags": {"ele": "2058", "gnis:feature_id": "1586851", "name": "Coal Mountain", "natural": "peak", "wikidata": "Q49021183"}}, {"name": "Davis Peak", "latitude": 42.614871, "longitude": -105.9609286, "elevation": 2557.0, "source": "osm", "_tags": {"ele": "2557", "gnis:feature_id": "1587373", "man_made": "survey_point", "name": "Davis Peak", "natural": "peak", "ref": "NQ0668", "wikidata": "Q49023746"}}, {"name": "Hatterman Hill", "latitude": 42.6374667, "longitude": -105.7158314, "elevation": 2099.0, "source": "osm", "_tags": {"ele": "2099", "gnis:feature_id": "1589378", "name": "Hatterman Hill", "natural": "peak", "wikidata": "Q49035288"}}, {"name": "Haystack Buttes", "latitude": 42.5521855, "longitude": -106.4811417, "elevation": 1860.0, "source": "osm", "_tags": {"ele": "1860", "gnis:feature_id": "1589434", "name": "Haystack Buttes", "natural": "peak", "wikidata": "Q49035571"}}, {"name": "Hermit Rock", "latitude": 42.6671889, "longitude": -105.7424989, "elevation": 2052.0, "source": "osm", "_tags": {"ele": "2052", "gnis:feature_id": "1589492", "name": "Hermit Rock", "natural": "peak", "wikidata": "Q49036078"}}, {"name": "Horse Peak", "latitude": 42.4016295, "longitude": -106.4891966, "elevation": 2293.0, "source": "osm", "_tags": {"ele": "2293", "gnis:feature_id": "1589710", "name": "Horse Peak", "natural": "peak", "wikidata": "Q49037405"}}, {"name": "Johnson Hill", "latitude": 42.9621883, "longitude": -106.1233492, "elevation": 1707.0, "source": "osm", "_tags": {"ele": "1707", "gnis:feature_id": "1590175", "name": "Johnson Hill", "natural": "peak", "wikidata": "Q49040048"}}, {"name": "Lacy Mountain", "latitude": 42.6360773, "longitude": -105.8408369, "elevation": 2300.0, "source": "osm", "_tags": {"ele": "2300", "gnis:feature_id": "1590451", "name": "Lacy Mountain", "natural": "peak", "wikidata": "Q49043124"}}, {"name": "Limestone Hill", "latitude": 42.7457973, "longitude": -106.4875329, "elevation": 1773.0, "source": "osm", "_tags": {"ele": "1773", "gnis:feature_id": "1590691", "name": "Limestone Hill", "natural": "peak", "wikidata": "Q49044300"}}, {"name": "Lookout Peak", "latitude": 42.6230212, "longitude": -105.9794542, "elevation": 2429.0, "source": "osm", "_tags": {"ele": "2429", "gnis:feature_id": "1591006", "name": "Lookout Peak", "natural": "peak", "wikidata": "Q49046750"}}, {"name": "Muddy Mountain", "latitude": 42.6810755, "longitude": -106.2491883, "elevation": 2521.0, "source": "osm", "_tags": {"ele": "2521", "gnis:feature_id": "1591883", "name": "Muddy Mountain", "natural": "peak"}}, {"name": "Oil Mountain", "latitude": 42.7921861, "longitude": -106.6514295, "elevation": 1807.0, "source": "osm", "_tags": {"ele": "1807", "gnis:feature_id": "1592368", "name": "Oil Mountain", "natural": "peak", "wikidata": "Q49058268"}}, {"name": "Peterson Mountain", "latitude": 42.5641328, "longitude": -105.8527822, "elevation": 2505.0, "source": "osm", "_tags": {"ele": "2505", "gnis:feature_id": "1592692", "name": "Peterson Mountain", "natural": "peak", "wikidata": "Q49060855"}}, {"name": "Point of Rocks", "latitude": 42.5216334, "longitude": -105.7194432, "elevation": 2321.0, "source": "osm", "_tags": {"ele": "2321", "gnis:feature_id": "1592895", "name": "Point of Rocks", "natural": "peak", "wikidata": "Q49062916"}}, {"name": "Pole Mountain", "latitude": 42.5769104, "longitude": -105.8958396, "elevation": 2352.0, "source": "osm", "_tags": {"ele": "2352", "gnis:feature_id": "1592933", "name": "Pole Mountain", "natural": "peak", "wikidata": "Q49063062"}}, {"name": "Protsmans Knob", "latitude": 42.6346877, "longitude": -105.9966772, "elevation": 2243.0, "source": "osm", "_tags": {"ele": "2243", "gnis:feature_id": "1593047", "name": "Protsmans Knob", "natural": "peak", "wikidata": "Q49064305"}}, {"name": "Red Butte", "latitude": 43.0488557, "longitude": -105.8611146, "elevation": 1800.0, "source": "osm", "_tags": {"ele": "1800", "gnis:feature_id": "1593240", "name": "Red Butte", "natural": "peak", "wikidata": "Q49067133"}}, {"name": "Red Buttes", "latitude": 42.7438529, "longitude": -106.504756, "elevation": 1832.0, "source": "osm", "_tags": {"ele": "1832", "gnis:feature_id": "1593246", "name": "Red Buttes", "natural": "peak", "wikidata": "Q49067153"}}, {"name": "Round Hill", "latitude": 42.6594111, "longitude": -105.722776, "elevation": 1990.0, "source": "osm", "_tags": {"ele": "1990", "gnis:feature_id": "1593668", "name": "Round Hill", "natural": "peak", "wikidata": "Q49069636"}}, {"name": "Standing Rock", "latitude": 42.5496886, "longitude": -105.8011133, "elevation": 2224.0, "source": "osm", "_tags": {"ele": "2224", "gnis:feature_id": "1594972", "name": "Standing Rock", "natural": "peak"}}, {"name": "Sullivan Mountain", "latitude": 42.5977441, "longitude": -105.8275031, "elevation": 2357.0, "source": "osm", "_tags": {"ele": "2357", "gnis:feature_id": "1595169", "name": "Sullivan Mountain", "natural": "peak", "wikidata": "Q49079826"}}, {"name": "Teapot Rock", "latitude": 43.2333168, "longitude": -106.3109913, "elevation": 1616.0, "source": "osm", "_tags": {"ele": "1616", "gnis:feature_id": "1595340", "heritage": "2", "heritage:operator": "nrhp", "historic": "yes", "name": "Teapot Rock", "natural": "peak", "ref:nrhp": "74002028", "wikidata": "Q7691715", "wikipedia": "en:Teapot Rock"}}, {"name": "Top of the World", "latitude": 42.9249668, "longitude": -105.7719444, "elevation": 1686.0, "source": "osm", "_tags": {"ele": "1686", "gnis:feature_id": "1595639", "name": "Top of the World", "natural": "peak"}}, {"name": "Twentymile Hill", "latitude": 43.1213568, "longitude": -106.317804, "elevation": 1780.0, "source": "osm", "_tags": {"ele": "1780", "gnis:feature_id": "1595764", "name": "Twentymile Hill", "natural": "peak"}}, {"name": "Twin Buttes", "latitude": 42.5310745, "longitude": -106.4194723, "elevation": 2047.0, "source": "osm", "_tags": {"ele": "2047", "gnis:feature_id": "1595775", "name": "Twin Buttes", "natural": "peak", "wikidata": "Q49085968"}}, {"name": "Camelback Mountain", "latitude": 42.3958001, "longitude": -105.7547232, "elevation": 2580.0, "source": "osm", "_tags": {"ele": "2580", "gnis:feature_id": "1597660", "name": "Camelback Mountain", "natural": "peak"}}, {"name": "Banner Mountain", "latitude": 42.6932986, "longitude": -106.053624, "elevation": 2220.0, "source": "osm", "_tags": {"ele": "2220", "gnis:feature_id": "1597910", "name": "Banner Mountain", "natural": "peak", "wikidata": "Q49010640"}}, {"name": "Brumley Mountain", "latitude": 42.3688558, "longitude": -105.7361115, "elevation": 2567.0, "source": "osm", "_tags": {"ele": "2567", "gnis:feature_id": "1598415", "name": "Brumley Mountain", "natural": "peak", "wikidata": "Q49015731"}}, {"name": "Fortymile Peak", "latitude": 42.3280226, "longitude": -105.7355561, "elevation": 2663.0, "source": "osm", "_tags": {"ele": "2663", "gnis:feature_id": "1599808", "name": "Fortymile Peak", "natural": "peak", "wikidata": "Q49030114"}}, {"name": "Ice Cave Mountain", "latitude": 42.5177423, "longitude": -106.1811294, "elevation": 2349.0, "source": "osm", "_tags": {"ele": "2349", "gnis:feature_id": "1600474", "name": "Ice Cave Mountain", "natural": "peak", "wikidata": "Q49038230"}}, {"name": "Negro Hill", "latitude": 42.6652428, "longitude": -106.1094598, "elevation": 2330.0, "source": "osm", "_tags": {"ele": "2330", "gnis:feature_id": "1601670", "name": "Negro Hill", "natural": "peak", "wikidata": "Q49056634"}}, {"name": "Pine Mountain", "latitude": 42.6171872, "longitude": -106.1111266, "elevation": 2200.0, "source": "osm", "_tags": {"ele": "2200", "gnis:feature_id": "1602165", "name": "Pine Mountain", "natural": "peak", "wikidata": "Q49061819"}}, {"name": "Reno Hill", "latitude": 42.5788541, "longitude": -106.060569, "elevation": 2642.0, "source": "osm", "_tags": {"ele": "2642", "gnis:feature_id": "1602491", "name": "Reno Hill", "natural": "peak", "wikidata": "Q49068227"}}, {"name": "School Section Mountain", "latitude": 42.4694111, "longitude": -105.7236104, "elevation": 2478.0, "source": "osm", "_tags": {"ele": "2478", "gnis:feature_id": "1602771", "name": "School Section Mountain", "natural": "peak", "wikidata": "Q49071814"}}, {"name": "Roaring Mountain", "latitude": 42.4932995, "longitude": -105.844448, "elevation": 2833.0, "source": "osm", "_tags": {"alt_name": "Squaw Mountain", "ele": "2833", "gnis:feature_id": "1603313", "name": "Roaring Mountain", "natural": "peak", "wikidata": "Q49077293"}}, {"name": "Twin Peaks", "latitude": 42.4757994, "longitude": -105.8655609, "elevation": 2814.0, "source": "osm", "_tags": {"ele": "2814", "gnis:feature_id": "1603833", "name": "Twin Peaks", "natural": "peak", "wikidata": "Q49086285"}}, {"name": "Warbonnet Peak", "latitude": 42.4346887, "longitude": -105.7941691, "elevation": 2861.0, "source": "osm", "_tags": {"ele": "2861", "gnis:feature_id": "1603978", "name": "Warbonnet Peak", "natural": "peak", "wikidata": "Q49087560"}}, {"name": "Twin Peak", "latitude": 42.532466, "longitude": -105.8877839, "elevation": 2410.0, "source": "osm", "_tags": {"ele": "2410", "gnis:feature_id": "1605055", "name": "Twin Peak", "natural": "peak", "wikidata": "Q49086103"}}, {"name": "Six Horse Hill", "latitude": 42.5860761, "longitude": -106.1016817, "elevation": 2448.0, "source": "osm", "_tags": {"ele": "2448", "gnis:feature_id": "1605056", "name": "Six Horse Hill", "natural": "peak", "wikidata": "Q49074186"}}, {"name": "Buck Peak", "latitude": 42.541077, "longitude": -105.8994511, "elevation": 2743.0, "source": "osm", "_tags": {"ele": "2743", "gnis:feature_id": "1609073", "name": "Buck Peak", "natural": "peak", "wikidata": "Q49016212"}}, {"name": "Gumbo Hill", "latitude": 43.0359594, "longitude": -105.9583527, "elevation": null, "source": "osm", "_tags": {"gnis:feature_id": "2772005", "name": "Gumbo Hill", "natural": "peak"}}, {"name": "", "latitude": 42.7539786, "longitude": -106.3547507, "elevation": 2341.0, "source": "osm", "_tags": {"ele": "2341", "natural": "peak"}}, {"name": "", "latitude": 42.692183, "longitude": -105.8205003, "elevation": 2118.0, "source": "osm", "_tags": {"ele": "2118", "natural": "peak"}}, {"name": "Dewey Benchmark", "latitude": 42.7354833, "longitude": -105.7588333, "elevation": 2032.0, "source": "osm", "_tags": {"ele": "2032", "man_made": "survey_point", "name": "Dewey Benchmark", "natural": "peak", "ref": "NQ0662"}}, {"name": "Windy Benchmark", "latitude": 42.7374667, "longitude": -105.71615, "elevation": 1998.0, "source": "osm", "_tags": {"ele": "1998", "man_made": "survey_point", "name": "Windy Benchmark", "natural": "peak", "ref": "NQ0660"}}, {"name": "", "latitude": 42.6348369, "longitude": -106.2441303, "elevation": 2466.0, "source": "osm", "_tags": {"ele": "2466", "natural": "peak"}}, {"name": "Thirty-One Benchmark", "latitude": 42.6742167, "longitude": -105.9979167, "elevation": 2273.0, "source": "osm", "_tags": {"ele": "2273", "man_made": "survey_point", "name": "Thirty-One Benchmark", "natural": "peak", "ref": "NQ0670"}}, {"name": "", "latitude": 42.6192027, "longitude": -106.0530075, "elevation": 2217.0, "source": "osm", "_tags": {"ele": "2217", "natural": "peak"}}, {"name": "", "latitude": 42.5440381, "longitude": -106.024214, "elevation": 2652.0, "source": "osm", "_tags": {"ele": "2652", "natural": "peak"}}, {"name": "", "latitude": 42.4930527, "longitude": -106.0085982, "elevation": 2529.0, "source": "osm", "_tags": {"ele": "2529", "natural": "peak"}}, {"name": "", "latitude": 42.5843008, "longitude": -105.9902412, "elevation": 2364.0, "source": "osm", "_tags": {"ele": "2364", "natural": "peak"}}, {"name": "Gunnysack Benchmark", "latitude": 42.5563833, "longitude": -105.9773833, "elevation": 2761.0, "source": "osm", "_tags": {"ele": "2761", "man_made": "survey_point", "name": "Gunnysack Benchmark", "natural": "peak", "ref": "NQ0667"}}, {"name": "", "latitude": 42.5890028, "longitude": -105.9315518, "elevation": 2484.0, "source": "osm", "_tags": {"ele": "2484", "natural": "peak"}}, {"name": "", "latitude": 42.6103438, "longitude": -105.9557077, "elevation": 2598.0, "source": "osm", "_tags": {"ele": "2598", "natural": "peak"}}, {"name": "", "latitude": 42.5738835, "longitude": -105.8394916, "elevation": 2518.0, "source": "osm", "_tags": {"ele": "2518", "natural": "peak"}}]