[{"name": "Allens Hill", "latitude": 42.836731, "longitude": -77.5205493, "elevation": 317.0, "source": "osm", "_tags": {"ele": "317", "gnis:feature_id": "942371", "name": "Allens Hill", "natural": "peak"}}, {"name": "Annabel Hill", "latitude": 42.3442374, "longitude": -77.4938752, "elevation": 544.0, "source": "osm", "_tags": {"ele": "544", "gnis:feature_id": "942489", "name": "Annabel Hill", "natural": "peak"}}, {"name": "Bailey Hill", "latitude": 43.0333966, "longitude": -77.0921958, "elevation": 173.0, "source": "osm", "_tags": {"ele": "173", "gnis:feature_id": "942781", "name": "Bailey Hill", "natural": "peak"}}, {"name": "Baker Hill", "latitude": 42.3342404, "longitude": -76.9396845, "elevation": 522.0, "source": "osm", "_tags": {"ele": "522", "gnis:feature_id": "942832", "name": "Baker Hill", "natural": "peak", "wikidata": "Q34803334"}}, {"name": "Baker Hill", "latitude": 43.0347854, "longitude": -77.4233251, "elevation": 282.0, "source": "osm", "_tags": {"ele": "282", "gnis:feature_id": "942834", "name": "Baker Hill", "natural": "peak"}}, {"name": "Bald Hill", "latitude": 42.350625, "longitude": -77.6899924, "elevation": 568.0, "source": "osm", "_tags": {"ele": "568", "gnis:feature_id": "942853", "name": "Bald Hill", "natural": "peak"}}, {"name": "Bald Hill", "latitude": 42.7145094, "longitude": -77.5808272, "elevation": 563.0, "source": "osm", "_tags": {"ele": "563", "gnis:feature_id": "942855", "name": "Bald Hill", "natural": "peak"}}, {"name": "Baptist Hill", "latitude": 42.8433979, "longitude": -77.4263783, "elevation": 356.0, "source": "osm", "_tags": {"ele": "356", "gnis:feature_id": "942973", "name": "Baptist Hill", "natural": "peak"}}, {"name": "Bare Hill", "latitude": 42.7370107, "longitude": -77.31276, "elevation": 470.0, "source": "osm", "_tags": {"ele": "470", "gnis:feature_id": "942999", "name": "Bare Hill", "natural": "peak", "wikidata": "Q34804239"}}, {"name": "Barrington Hill", "latitude": 42.4936822, "longitude": -77.0849697, "elevation": 459.0, "source": "osm", "_tags": {"ele": "459", "gnis:feature_id": "943087", "name": "Barrington Hill", "natural": "peak", "wikidata": "Q34804393"}}, {"name": "Beam Hill", "latitude": 43.1886753, "longitude": -77.1360885, "elevation": 169.0, "source": "osm", "_tags": {"ele": "169", "gnis:feature_id": "943237", "name": "Beam Hill", "natural": "peak"}}, {"name": "Bluff Point", "latitude": 43.0620098, "longitude": -76.710784, "elevation": 130.0, "source": "osm", "_tags": {"ele": "130", "gnis:feature_id": "944360", "name": "Bluff Point", "natural": "peak"}}, {"name": "Boyton Hill", "latitude": 43.1553412, "longitude": -77.2591512, "elevation": 189.0, "source": "osm", "_tags": {"ele": "189", "gnis:feature_id": "944556", "name": "Boyton Hill", "natural": "peak"}}, {"name": "Brantling Hill", "latitude": 43.1475643, "longitude": -77.0688618, "elevation": 206.0, "source": "osm", "_tags": {"ele": "206", "gnis:feature_id": "944654", "name": "Brantling Hill", "natural": "peak"}}, {"name": "Bronson Hill", "latitude": 42.4659019, "longitude": -77.5847123, "elevation": 634.0, "source": "osm", "_tags": {"ele": "634", "gnis:feature_id": "944817", "name": "Bronson Hill", "natural": "peak"}}, {"name": "Brooks Hill", "latitude": 42.3461826, "longitude": -77.3808155, "elevation": 507.0, "source": "osm", "_tags": {"ele": "507", "gnis:feature_id": "944859", "name": "Brooks Hill", "natural": "peak"}}, {"name": "Brown Hill", "latitude": 42.4447914, "longitude": -77.5255436, "elevation": 629.0, "source": "osm", "_tags": {"ele": "629", "gnis:feature_id": "944916", "name": "Brown Hill", "natural": "peak"}}, {"name": "Bullard Hill", "latitude": 42.3372931, "longitude": -77.4699854, "elevation": 562.0, "source": "osm", "_tags": {"ele": "562", "gnis:feature_id": "945136", "name": "Bullard Hill", "natural": "peak"}}, {"name": "Bunker Hill", "latitude": 42.9850633, "longitude": -77.1549767, "elevation": 176.0, "source": "osm", "_tags": {"ele": "176", "gnis:feature_id": "945180", "name": "Bunker Hill", "natural": "peak"}}, {"name": "Burt Hill", "latitude": 42.3025707, "longitude": -77.5788775, "elevation": 647.0, "source": "osm", "_tags": {"ele": "647", "gnis:feature_id": "945290", "name": "Burt Hill", "natural": "peak"}}, {"name": "Buttermilk Hill", "latitude": 42.9820077, "longitude": -77.2877618, "elevation": 197.0, "source": "osm", "_tags": {"ele": "197", "gnis:feature_id": "945376", "name": "Buttermilk Hill", "natural": "peak"}}, {"name": "Canadice Hill", "latitude": 42.6797881, "longitude": -77.5202692, "elevation": 671.0, "source": "osm", "_tags": {"ele": "671", "gnis:feature_id": "945730", "name": "Canadice Hill", "natural": "peak"}}, {"name": "Cance Hill", "latitude": 42.4622921, "longitude": -77.387483, "elevation": 563.0, "source": "osm", "_tags": {"ele": "563", "gnis:feature_id": "945761", "name": "Cance Hill", "natural": "peak"}}, {"name": "Clark Hill", "latitude": 43.0147872, "longitude": -76.7077281, "elevation": 150.0, "source": "osm", "_tags": {"ele": "150", "gnis:feature_id": "946760", "name": "Clark Hill", "natural": "peak"}}, {"name": "Cleveland Hill", "latitude": 42.6767332, "longitude": -77.4247093, "elevation": 671.0, "source": "osm", "_tags": {"ele": "671", "gnis:feature_id": "946853", "name": "Cleveland Hill", "natural": "peak"}}, {"name": "Clover Hill", "latitude": 42.5745113, "longitude": -77.6219372, "elevation": 561.0, "source": "osm", "_tags": {"ele": "561", "gnis:feature_id": "946932", "name": "Clover Hill", "natural": "peak"}}, {"name": "Cory Hill", "latitude": 43.1478414, "longitude": -77.2230379, "elevation": 171.0, "source": "osm", "_tags": {"ele": "171", "gnis:feature_id": "947503", "name": "Cory Hill", "natural": "peak"}}, {"name": "Cream Hill", "latitude": 42.4336799, "longitude": -77.6244355, "elevation": 595.0, "source": "osm", "_tags": {"ele": "595", "gnis:feature_id": "947725", "name": "Cream Hill", "natural": "peak"}}, {"name": "Crozier Hill", "latitude": 42.8408997, "longitude": -77.0546921, "elevation": 266.0, "source": "osm", "_tags": {"ele": "266", "gnis:feature_id": "947858", "name": "Crozier Hill", "natural": "peak"}}, {"name": "Cuddeback Hill", "latitude": 43.2158998, "longitude": -76.7327306, "elevation": 184.0, "source": "osm", "_tags": {"ele": "184", "gnis:feature_id": "947920", "name": "Cuddeback Hill", "natural": "peak"}}, {"name": "Day Hill", "latitude": 42.4784015, "longitude": -77.6297138, "elevation": 610.0, "source": "osm", "_tags": {"ele": "610", "gnis:feature_id": "948085", "name": "Day Hill", "natural": "peak"}}, {"name": "Dynamite Hill", "latitude": 43.0031187, "longitude": -77.322764, "elevation": 216.0, "source": "osm", "_tags": {"ele": "216", "gnis:feature_id": "948900", "name": "Dynamite Hill", "natural": "peak"}}, {"name": "East Hill", "latitude": 42.5670111, "longitude": -77.6691607, "elevation": 513.0, "source": "osm", "_tags": {"ele": "513", "gnis:feature_id": "949113", "name": "East Hill", "natural": "peak"}}, {"name": "East Hill", "latitude": 42.6711786, "longitude": -77.2710908, "elevation": 488.0, "source": "osm", "_tags": {"ele": "488", "gnis:feature_id": "949117", "name": "East Hill", "natural": "peak", "wikidata": "Q34914513"}}, {"name": "Emerson Hill", "latitude": 43.0042317, "longitude": -76.7030054, "elevation": 156.0, "source": "osm", "_tags": {"ele": "156", "gnis:feature_id": "949631", "name": "Emerson Hill", "natural": "peak"}}, {"name": "Finley Hill", "latitude": 43.168119, "longitude": -77.2816525, "elevation": 185.0, "source": "osm", "_tags": {"ele": "185", "gnis:feature_id": "950071", "name": "Finley Hill", "natural": "peak"}}, {"name": "Freewill Hill", "latitude": 43.1639522, "longitude": -77.304987, "elevation": 182.0, "source": "osm", "_tags": {"ele": "182", "gnis:feature_id": "950680", "name": "Freewill Hill", "natural": "peak"}}, {"name": "Frost Hill", "latitude": 42.711177, "longitude": -77.4430439, "elevation": 696.0, "source": "osm", "_tags": {"ele": "696", "gnis:feature_id": "950764", "name": "Frost Hill", "natural": "peak"}}, {"name": "Gannett Hill", "latitude": 42.7002141, "longitude": -77.4083883, "elevation": 690.0, "source": "osm", "_tags": {"ele": "690", "gnis:feature_id": "950870", "name": "Gannett Hill", "natural": "peak"}}, {"name": "Governor Hill", "latitude": 43.1945091, "longitude": -77.0591391, "elevation": 156.0, "source": "osm", "_tags": {"ele": "156", "gnis:feature_id": "951426", "name": "Governor Hill", "natural": "peak"}}, {"name": "Haight Hill", "latitude": 42.4042356, "longitude": -77.6755479, "elevation": 514.0, "source": "osm", "_tags": {"ele": "514", "gnis:feature_id": "951993", "name": "Haight Hill", "natural": "peak"}}, {"name": "Harkness Hill", "latitude": 42.7675663, "longitude": -77.2405344, "elevation": 356.0, "source": "osm", "_tags": {"ele": "356", "gnis:feature_id": "952230", "name": "Harkness Hill", "natural": "peak"}}, {"name": "Hatch Hill", "latitude": 42.6036789, "longitude": -77.3935958, "elevation": 549.0, "source": "osm", "_tags": {"ele": "549", "gnis:feature_id": "952361", "name": "Hatch Hill", "natural": "peak"}}, {"name": "Heineman Hill", "latitude": 42.3653488, "longitude": -77.4177614, "elevation": 543.0, "source": "osm", "_tags": {"ele": "543", "gnis:feature_id": "952533", "name": "Heineman Hill", "natural": "peak"}}, {"name": "Hemmer Hill", "latitude": 42.5459009, "longitude": -77.5566569, "elevation": 562.0, "source": "osm", "_tags": {"ele": "562", "gnis:feature_id": "952572", "name": "Hemmer Hill", "natural": "peak"}}, {"name": "Henderson Hill", "latitude": 42.7645081, "longitude": -77.6827759, "elevation": 379.0, "source": "osm", "_tags": {"ele": "379", "gnis:feature_id": "952589", "name": "Henderson Hill", "natural": "peak"}}, {"name": "Herron Hill", "latitude": 42.3106281, "longitude": -77.3094239, "elevation": 507.0, "source": "osm", "_tags": {"ele": "507", "gnis:feature_id": "952645", "name": "Herron Hill", "natural": "peak"}}, {"name": "Hickory Hill", "latitude": 43.0692322, "longitude": -76.6952276, "elevation": 142.0, "source": "osm", "_tags": {"ele": "142", "gnis:feature_id": "952687", "name": "Hickory Hill", "natural": "peak"}}, {"name": "Hickory Hill", "latitude": 42.3834045, "longitude": -77.3458144, "elevation": 544.0, "source": "osm", "_tags": {"ele": "544", "gnis:feature_id": "952688", "name": "Hickory Hill", "natural": "peak"}}, {"name": "High Point Hill", "latitude": 42.6459001, "longitude": -77.4447098, "elevation": 659.0, "source": "osm", "_tags": {"ele": "659", "gnis:feature_id": "952755", "name": "High Point Hill", "natural": "peak"}}, {"name": "Hogback Hill", "latitude": 43.1995108, "longitude": -76.7338417, "elevation": 147.0, "source": "osm", "_tags": {"ele": "147", "gnis:feature_id": "952955", "name": "Hogback Hill", "natural": "peak"}}, {"name": "Horton Hill", "latitude": 42.351459, "longitude": -77.5819335, "elevation": 592.0, "source": "osm", "_tags": {"ele": "592", "gnis:feature_id": "953257", "name": "Horton Hill", "natural": "peak"}}, {"name": "House Hill", "latitude": 42.4453497, "longitude": -77.0421898, "elevation": 521.0, "source": "osm", "_tags": {"ele": "521", "gnis:feature_id": "953296", "name": "House Hill", "natural": "peak", "wikidata": "Q34824278"}}, {"name": "Huey Hill", "latitude": 42.4039615, "longitude": -77.0041323, "elevation": 576.0, "source": "osm", "_tags": {"ele": "576", "gnis:feature_id": "953398", "name": "Huey Hill", "natural": "peak", "wikidata": "Q34824511"}}, {"name": "Hunt Hills", "latitude": 43.027841, "longitude": -77.4480486, "elevation": 215.0, "source": "osm", "_tags": {"ele": "215", "gnis:feature_id": "953461", "name": "Hunt Hills", "natural": "peak"}}, {"name": "Irish Hill", "latitude": 42.3114619, "longitude": -77.2213649, "elevation": 574.0, "source": "osm", "_tags": {"ele": "574", "gnis:feature_id": "953762", "name": "Irish Hill", "natural": "peak"}}, {"name": "Jackson Hill", "latitude": 43.0225633, "longitude": -77.0385815, "elevation": 201.0, "source": "osm", "_tags": {"ele": "201", "gnis:feature_id": "953887", "name": "Jackson Hill", "natural": "peak"}}, {"name": "Jacobs Hill", "latitude": 43.1700631, "longitude": -77.3658235, "elevation": 171.0, "source": "osm", "_tags": {"ele": "171", "gnis:feature_id": "953910", "name": "Jacobs Hill", "natural": "peak"}}, {"name": "Jakman Hill", "latitude": 42.8400636, "longitude": -77.6474982, "elevation": 357.0, "source": "osm", "_tags": {"ele": "357", "gnis:feature_id": "953914", "name": "Jakman Hill", "natural": "peak"}}, {"name": "Johnson Hill", "latitude": 42.7747877, "longitude": -77.3683188, "elevation": 538.0, "source": "osm", "_tags": {"ele": "538", "gnis:feature_id": "954123", "name": "Johnson Hill", "natural": "peak"}}, {"name": "Junction Hill", "latitude": 42.9897853, "longitude": -77.592221, "elevation": 219.0, "source": "osm", "_tags": {"ele": "219", "gnis:feature_id": "954230", "name": "Junction Hill", "natural": "peak"}}, {"name": "Kelsey Hill", "latitude": 43.1178429, "longitude": -76.8594044, "elevation": 150.0, "source": "osm", "_tags": {"ele": "150", "gnis:feature_id": "954483", "name": "Kelsey Hill", "natural": "peak"}}, {"name": "Kershener Hill", "latitude": 42.3803493, "longitude": -77.3169244, "elevation": 555.0, "source": "osm", "_tags": {"ele": "555", "gnis:feature_id": "954557", "name": "Kershener Hill", "natural": "peak"}}, {"name": "Knapp Hill", "latitude": 42.5767349, "longitude": -77.3838729, "elevation": 623.0, "source": "osm", "_tags": {"ele": "623", "gnis:feature_id": "954760", "name": "Knapp Hill", "natural": "peak"}}, {"name": "Kuttruff Hill", "latitude": 43.1564521, "longitude": -77.3324884, "elevation": 198.0, "source": "osm", "_tags": {"ele": "198", "gnis:feature_id": "954836", "name": "Kuttruff Hill", "natural": "peak"}}, {"name": "Lazarus Hill", "latitude": 42.7575667, "longitude": -77.2113662, "elevation": 323.0, "source": "osm", "_tags": {"ele": "323", "gnis:feature_id": "955125", "name": "Lazarus Hill", "natural": "peak", "wikidata": "Q34825776"}}, {"name": "Lent Hill", "latitude": 42.5278466, "longitude": -77.4074844, "elevation": 641.0, "source": "osm", "_tags": {"ele": "641", "gnis:feature_id": "955208", "name": "Lent Hill", "natural": "peak"}}, {"name": "Lincoln Hill", "latitude": 42.8506208, "longitude": -77.231646, "elevation": 285.0, "source": "osm", "_tags": {"ele": "285", "gnis:feature_id": "955367", "name": "Lincoln Hill", "natural": "peak"}}, {"name": "Locust Hill", "latitude": 42.7778453, "longitude": -77.0830263, "elevation": 309.0, "source": "osm", "_tags": {"ele": "309", "gnis:feature_id": "955799", "name": "Locust Hill", "natural": "peak"}}, {"name": "Magees Hill", "latitude": 42.3306275, "longitude": -77.3458141, "elevation": 486.0, "source": "osm", "_tags": {"ele": "486", "gnis:feature_id": "956269", "name": "Magees Hill", "natural": "peak"}}, {"name": "Maple Hill", "latitude": 42.4361801, "longitude": -77.5827676, "elevation": 616.0, "source": "osm", "_tags": {"ele": "616", "gnis:feature_id": "956422", "name": "Maple Hill", "natural": "peak"}}, {"name": "Mathewson Hill", "latitude": 43.1631189, "longitude": -77.3194322, "elevation": 194.0, "source": "osm", "_tags": {"ele": "194", "gnis:feature_id": "956669", "name": "Mathewson Hill", "natural": "peak"}}, {"name": "McPherson Hill", "latitude": 42.313683, "longitude": -77.3810931, "elevation": 531.0, "source": "osm", "_tags": {"ele": "531", "gnis:feature_id": "956847", "name": "McPherson Hill", "natural": "peak"}}, {"name": "Meeks Hill", "latitude": 42.2920146, "longitude": -77.673047, "elevation": 636.0, "source": "osm", "_tags": {"ele": "636", "gnis:feature_id": "956915", "name": "Meeks Hill", "natural": "peak"}}, {"name": "Messner Hill", "latitude": 43.0767319, "longitude": -76.774399, "elevation": 154.0, "source": "osm", "_tags": {"ele": "154", "gnis:feature_id": "957027", "name": "Messner Hill", "natural": "peak"}}, {"name": "Methodist Hill", "latitude": 43.0625852, "longitude": -77.6492218, "elevation": 195.0, "source": "osm", "_tags": {"ele": "195", "gnis:feature_id": "957038", "name": "Methodist Hill", "natural": "peak"}}, {"name": "Miller Hill", "latitude": 42.2967387, "longitude": -77.3924823, "elevation": 533.0, "source": "osm", "_tags": {"ele": "533", "gnis:feature_id": "957309", "name": "Miller Hill", "natural": "peak"}}, {"name": "Morse Hill", "latitude": 43.1783968, "longitude": -77.2660963, "elevation": 187.0, "source": "osm", "_tags": {"ele": "187", "gnis:feature_id": "957712", "name": "Morse Hill", "natural": "peak"}}, {"name": "Negro Hill", "latitude": 43.1981189, "longitude": -77.3172102, "elevation": 170.0, "source": "osm", "_tags": {"ele": "170", "gnis:feature_id": "958338", "name": "Negro Hill", "natural": "peak"}}, {"name": "Oak Hill", "latitude": 42.3053511, "longitude": -77.1763627, "elevation": 570.0, "source": "osm", "_tags": {"ele": "570", "gnis:feature_id": "959105", "name": "Oak Hill", "natural": "peak"}}, {"name": "Oak Hill", "latitude": 42.3414627, "longitude": -76.742452, "elevation": 510.0, "source": "osm", "_tags": {"ele": "510", "gnis:feature_id": "959107", "name": "Oak Hill", "natural": "peak", "wikidata": "Q34887111"}}, {"name": "Paddy Hill", "latitude": 43.2528394, "longitude": -77.6591704, "elevation": 105.0, "source": "osm", "_tags": {"ele": "105", "gnis:feature_id": "959736", "name": "Paddy Hill", "natural": "peak"}}, {"name": "Pigeon Hill", "latitude": 43.1581191, "longitude": -77.2366499, "elevation": 201.0, "source": "osm", "_tags": {"ele": "201", "gnis:feature_id": "960376", "name": "Pigeon Hill", "natural": "peak"}}, {"name": "Pine Hill", "latitude": 42.5659014, "longitude": -77.4366527, "elevation": 623.0, "source": "osm", "_tags": {"ele": "623", "gnis:feature_id": "960466", "name": "Pine Hill", "natural": "peak"}}, {"name": "Pinkney Hill", "latitude": 43.1258988, "longitude": -76.7907892, "elevation": 157.0, "source": "osm", "_tags": {"ele": "157", "gnis:feature_id": "960596", "name": "Pinkney Hill", "natural": "peak"}}, {"name": "Pinnacle Hill", "latitude": 43.1350625, "longitude": -77.5863889, "elevation": 224.0, "source": "osm", "_tags": {"ele": "224", "gnis:feature_id": "960605", "name": "Pinnacle Hill", "natural": "peak"}}, {"name": "Mount Pleasant", "latitude": 42.3703512, "longitude": -76.7777315, "elevation": 562.0, "source": "osm", "_tags": {"ele": "562", "gnis:feature_id": "960743", "name": "Mount Pleasant", "natural": "peak", "wikidata": "Q34883199"}}, {"name": "Pond Hill", "latitude": 43.0875653, "longitude": -76.7824552, "elevation": 154.0, "source": "osm", "_tags": {"ele": "154", "gnis:feature_id": "960892", "name": "Pond Hill", "natural": "peak"}}, {"name": "Potter Hill", "latitude": 42.4706244, "longitude": -77.5355441, "elevation": 653.0, "source": "osm", "_tags": {"ele": "653", "gnis:feature_id": "961037", "name": "Potter Hill", "natural": "peak"}}, {"name": "Powell Hill", "latitude": 42.6892331, "longitude": -77.4019305, "elevation": 617.0, "source": "osm", "_tags": {"ele": "617", "gnis:feature_id": "961078", "name": "Powell Hill", "natural": "peak"}}, {"name": "Prospect Hill", "latitude": 43.1325637, "longitude": -77.1897024, "elevation": 186.0, "source": "osm", "_tags": {"ele": "186", "gnis:feature_id": "961174", "name": "Prospect Hill", "natural": "peak"}}, {"name": "Quail Hill", "latitude": 42.7233989, "longitude": -77.4572115, "elevation": 654.0, "source": "osm", "_tags": {"ele": "654", "gnis:feature_id": "962028", "name": "Quail Hill", "natural": "peak"}}, {"name": "Robinson Hill", "latitude": 42.3397934, "longitude": -77.4319284, "elevation": 530.0, "source": "osm", "_tags": {"ele": "530", "gnis:feature_id": "962667", "name": "Robinson Hill", "natural": "peak"}}, {"name": "Sand Hill", "latitude": 42.5067346, "longitude": -77.6177693, "elevation": 654.0, "source": "osm", "_tags": {"ele": "654", "gnis:feature_id": "964372", "name": "Sand Hill", "natural": "peak"}}, {"name": "Science Hill", "latitude": 43.092841, "longitude": -77.2955412, "elevation": 187.0, "source": "osm", "_tags": {"ele": "187", "gnis:feature_id": "964647", "name": "Science Hill", "natural": "peak"}}, {"name": "Scribner Hill", "latitude": 43.0095075, "longitude": -77.3299866, "elevation": 209.0, "source": "osm", "_tags": {"ele": "209", "gnis:feature_id": "964707", "name": "Scribner Hill", "natural": "peak"}}, {"name": "Sharps Hill", "latitude": 42.3211834, "longitude": -77.3130351, "elevation": 514.0, "source": "osm", "_tags": {"ele": "514", "gnis:feature_id": "964952", "name": "Sharps Hill", "natural": "peak"}}, {"name": "Sharps Hill", "latitude": 42.3934023, "longitude": -77.6772146, "elevation": 440.0, "source": "osm", "_tags": {"ele": "440", "gnis:feature_id": "964953", "name": "Sharps Hill", "natural": "peak"}}, {"name": "Silver Hill", "latitude": 43.0170076, "longitude": -77.078306, "elevation": 178.0, "source": "osm", "_tags": {"ele": "178", "gnis:feature_id": "965248", "name": "Silver Hill", "natural": "peak"}}, {"name": "Six Nations Hill", "latitude": 42.379795, "longitude": -77.033856, "elevation": 543.0, "source": "osm", "_tags": {"ele": "543", "gnis:feature_id": "965319", "name": "Six Nations Hill", "natural": "peak", "wikidata": "Q34832815"}}, {"name": "Snell Hill", "latitude": 42.3528488, "longitude": -77.4391509, "elevation": 532.0, "source": "osm", "_tags": {"ele": "532", "gnis:feature_id": "965571", "name": "Snell Hill", "natural": "peak"}}, {"name": "South Hill", "latitude": 42.6984001, "longitude": -77.3249825, "elevation": 575.0, "source": "osm", "_tags": {"ele": "575", "gnis:feature_id": "965779", "name": "South Hill", "natural": "peak", "wikidata": "Q34834071"}}, {"name": "Sprout Hill", "latitude": 42.5442376, "longitude": -76.988854, "elevation": 428.0, "source": "osm", "_tags": {"ele": "428", "gnis:feature_id": "966116", "name": "Sprout Hill", "natural": "peak", "wikidata": "Q34909935"}}, {"name": "Stid Hill", "latitude": 42.7467324, "longitude": -77.3872083, "elevation": 635.0, "source": "osm", "_tags": {"ele": "635", "gnis:feature_id": "966418", "name": "Stid Hill", "natural": "peak"}}, {"name": "Stocking Hill", "latitude": 42.4370162, "longitude": -77.0821917, "elevation": 482.0, "source": "osm", "_tags": {"ele": "482", "gnis:feature_id": "966471", "name": "Stocking Hill", "natural": "peak", "wikidata": "Q34930672"}}, {"name": "Stone Hill", "latitude": 42.4439577, "longitude": -77.6038794, "elevation": 632.0, "source": "osm", "_tags": {"ele": "632", "gnis:feature_id": "966505", "name": "Stone Hill", "natural": "peak"}}, {"name": "Strong Hill", "latitude": 42.6056218, "longitude": -77.665828, "elevation": 573.0, "source": "osm", "_tags": {"ele": "573", "gnis:feature_id": "966642", "name": "Strong Hill", "natural": "peak"}}, {"name": "Sugar Hill", "latitude": 42.3561844, "longitude": -76.9888538, "elevation": 554.0, "source": "osm", "_tags": {"ele": "554", "gnis:feature_id": "966707", "name": "Sugar Hill", "natural": "peak", "wikidata": "Q34841466"}}, {"name": "Swan Hill", "latitude": 42.3370182, "longitude": -76.7035614, "elevation": 518.0, "source": "osm", "_tags": {"ele": "518", "gnis:feature_id": "966882", "name": "Swan Hill", "natural": "peak", "wikidata": "Q34810832"}}, {"name": "The Pinnacle", "latitude": 42.605625, "longitude": -77.1360837, "elevation": 416.0, "source": "osm", "_tags": {"ele": "416", "gnis:feature_id": "967311", "name": "The Pinnacle", "natural": "peak", "wikidata": "Q34812551"}}, {"name": "Tobes Hill", "latitude": 42.3467365, "longitude": -77.6269349, "elevation": 598.0, "source": "osm", "_tags": {"ele": "598", "gnis:feature_id": "967589", "name": "Tobes Hill", "natural": "peak"}}, {"name": "Trummonds Hill", "latitude": 43.1920079, "longitude": -77.2610962, "elevation": 172.0, "source": "osm", "_tags": {"ele": "172", "gnis:feature_id": "967913", "name": "Trummonds Hill", "natural": "peak"}}, {"name": "Turk Hill", "latitude": 43.0486831, "longitude": -77.4319028, "elevation": 264.0, "source": "osm", "_tags": {"ele": "264", "gnis:feature_id": "967955", "name": "Turk Hill", "natural": "peak"}}, {"name": "VanLone Hill", "latitude": 42.3511848, "longitude": -76.7243955, "elevation": 529.0, "source": "osm", "_tags": {"ele": "529", "gnis:feature_id": "968442", "name": "VanLone Hill", "natural": "peak", "wikidata": "Q34816902"}}, {"name": "Wagner Hill", "latitude": 42.4584032, "longitude": -77.3933165, "elevation": 575.0, "source": "osm", "_tags": {"ele": "575", "gnis:feature_id": "968636", "name": "Wagner Hill", "natural": "peak"}}, {"name": "Mount Washington", "latitude": 42.3814611, "longitude": -77.1869189, "elevation": 577.0, "source": "osm", "_tags": {"ele": "577", "gnis:feature_id": "968875", "name": "Mount Washington", "natural": "peak"}}, {"name": "Waterbury Hill", "latitude": 42.4414583, "longitude": -77.4955426, "elevation": 562.0, "source": "osm", "_tags": {"ele": "562", "gnis:feature_id": "968896", "name": "Waterbury Hill", "natural": "peak"}}, {"name": "Watkins Hill", "latitude": 42.3586845, "longitude": -76.8982934, "elevation": 400.0, "source": "osm", "_tags": {"ele": "400", "gnis:feature_id": "968921", "name": "Watkins Hill", "natural": "peak", "wikidata": "Q34818979"}}, {"name": "West Hill", "latitude": 42.5306248, "longitude": -77.3519265, "elevation": 647.0, "source": "osm", "_tags": {"ele": "647", "gnis:feature_id": "969255", "name": "West Hill", "natural": "peak"}}, {"name": "West Italy Hill", "latitude": 42.6134015, "longitude": -77.3122034, "elevation": 625.0, "source": "osm", "_tags": {"ele": "625", "gnis:feature_id": "969277", "name": "West Italy Hill", "natural": "peak", "wikidata": "Q34819590"}}, {"name": "Beals Hill", "latitude": 43.0847857, "longitude": -77.1521997, "elevation": 167.0, "source": "osm", "_tags": {"ele": "167", "gnis:feature_id": "969848", "name": "Beals Hill", "natural": "peak"}}, {"name": "Bear Hill", "latitude": 43.0531188, "longitude": -77.2277594, "elevation": 185.0, "source": "osm", "_tags": {"ele": "185", "gnis:feature_id": "969850", "name": "Bear Hill", "natural": "peak"}}, {"name": "Bowes Hill", "latitude": 43.0614522, "longitude": -77.2110918, "elevation": 153.0, "source": "osm", "_tags": {"ele": "153", "gnis:feature_id": "969909", "name": "Bowes Hill", "natural": "peak"}}, {"name": "Cobb Hill", "latitude": 43.1053415, "longitude": -77.151922, "elevation": 189.0, "source": "osm", "_tags": {"ele": "189", "gnis:feature_id": "970017", "name": "Cobb Hill", "natural": "peak"}}, {"name": "Crusoe Island", "latitude": 43.0317317, "longitude": -76.7585645, "elevation": 152.0, "source": "osm", "_tags": {"ele": "152", "gnis:feature_id": "970046", "name": "Crusoe Island", "natural": "peak"}}, {"name": "Fort Hill", "latitude": 42.9642303, "longitude": -77.4347138, "elevation": 256.0, "source": "osm", "_tags": {"ele": "256", "gnis:feature_id": "970139", "name": "Fort Hill", "natural": "peak"}}, {"name": "Galloway Hill", "latitude": 43.0622855, "longitude": -77.1858126, "elevation": 186.0, "source": "osm", "_tags": {"ele": "186", "gnis:feature_id": "970154", "name": "Galloway Hill", "natural": "peak"}}, {"name": "Hill Cumorah", "latitude": 42.9945075, "longitude": -77.2202583, "elevation": 208.0, "source": "osm", "_tags": {"ele": "208", "gnis:feature_id": "970211", "name": "Hill Cumorah", "natural": "peak"}}, {"name": "Hopper Hills", "latitude": 42.9454064, "longitude": -77.4826495, "elevation": 335.0, "source": "osm", "_tags": {"ele": "335", "gnis:feature_id": "970220", "name": "Hopper Hills", "natural": "peak", "note": "highest point in Monroe County NY"}}, {"name": "Johnson Hill", "latitude": 43.0764522, "longitude": -77.211092, "elevation": 194.0, "source": "osm", "_tags": {"ele": "194", "gnis:feature_id": "970253", "name": "Johnson Hill", "natural": "peak"}}, {"name": "Marrowback Hill", "latitude": 42.682843, "longitude": -77.6222169, "elevation": 594.0, "source": "osm", "_tags": {"ele": "594", "gnis:feature_id": "970336", "name": "Marrowback Hill", "natural": "peak"}}, {"name": "Walton Hill", "latitude": 43.0747855, "longitude": -77.2394269, "elevation": 188.0, "source": "osm", "_tags": {"ele": "188", "gnis:feature_id": "970748", "name": "Walton Hill", "natural": "peak"}}, {"name": "Whitehead Hill", "latitude": 42.4014611, "longitude": -77.1113598, "elevation": 488.0, "source": "osm", "_tags": {"ele": "488", "gnis:feature_id": "971148", "name": "Whitehead Hill", "natural": "peak"}}, {"name": "Wilson Hill", "latitude": 42.3275713, "longitude": -77.436373, "elevation": 555.0, "source": "osm", "_tags": {"ele": "555", "gnis:feature_id": "971416", "name": "Wilson Hill", "natural": "peak"}}, {"name": "Woodchuck Hill", "latitude": 42.8858972, "longitude": -77.5280504, "elevation": 297.0, "source": "osm", "_tags": {"ele": "297", "gnis:feature_id": "971616", "name": "Woodchuck Hill", "natural": "peak"}}, {"name": "Worden Hill", "latitude": 42.7311768, "longitude": -77.426099, "elevation": 666.0, "source": "osm", "_tags": {"ele": "666", "gnis:feature_id": "971742", "name": "Worden Hill", "natural": "peak"}}, {"name": "Young Hill", "latitude": 42.9895076, "longitude": -77.2574825, "elevation": 211.0, "source": "osm", "_tags": {"ele": "211", "gnis:feature_id": "971849", "name": "Young Hill", "natural": "peak"}}, {"name": "Burnt Hill", "latitude": 42.4716874, "longitude": -76.7964131, "elevation": 564.0, "source": "osm", "_tags": {"ele": "564", "gnis:feature_id": "973991", "name": "Burnt Hill", "natural": "peak", "wikidata": "Q34807112"}}, {"name": "Butcher Hill", "latitude": 42.561738, "longitude": -76.7888428, "elevation": 482.0, "source": "osm", "_tags": {"ele": "482", "gnis:feature_id": "973992", "name": "Butcher Hill", "natural": "peak", "wikidata": "Q34807280"}}, {"name": "Foots Hill", "latitude": 42.3986841, "longitude": -76.7902321, "elevation": 558.0, "source": "osm", "_tags": {"ele": "558", "gnis:feature_id": "974015", "name": "Foots Hill", "natural": "peak", "wikidata": "Q34869579"}}, {"name": "North Hill", "latitude": 42.4856275, "longitude": -76.7716197, "elevation": 532.0, "source": "osm", "_tags": {"ele": "532", "gnis:feature_id": "974046", "name": "North Hill", "natural": "peak", "wikidata": "Q34886192"}}, {"name": "Rogers Hill", "latitude": 42.3831289, "longitude": -76.7580081, "elevation": 586.0, "source": "osm", "_tags": {"ele": "586", "gnis:feature_id": "974051", "name": "Rogers Hill", "natural": "peak", "wikidata": "Q34830682"}}, {"name": "Satterly Hill", "latitude": 42.4456279, "longitude": -76.8441237, "elevation": 431.0, "source": "osm", "_tags": {"ele": "431", "gnis:feature_id": "974054", "name": "Satterly Hill", "natural": "peak", "wikidata": "Q34903842"}}, {"name": "South Hill", "latitude": 42.4245171, "longitude": -76.7721755, "elevation": 551.0, "source": "osm", "_tags": {"ele": "551", "gnis:feature_id": "974062", "name": "South Hill", "natural": "peak", "wikidata": "Q34834038"}}, {"name": "Cobbs Hill", "latitude": 43.1396073, "longitude": -77.573128, "elevation": 192.0, "source": "osm", "_tags": {"ele": "192", "gnis:feature_id": "1951321", "name": "Cobbs Hill", "natural": "peak", "note": "Location of the USGS Survey point", "wikidata": "Q34809089"}}, {"name": "Taft Hill", "latitude": 42.8777778, "longitude": -77.5075, "elevation": 287.0, "source": "osm", "_tags": {"ele": "287", "gnis:feature_id": "2364571", "name": "Taft Hill", "natural": "peak"}}, {"name": "Oak Mountain", "latitude": 42.8877778, "longitude": -77.4272222, "elevation": 358.0, "source": "osm", "_tags": {"ele": "358", "gnis:feature_id": "2364589", "name": "Oak Mountain", "natural": "peak"}}, {"name": "Freedom Hill", "latitude": 43.2813889, "longitude": -77.0711111, "elevation": 103.0, "source": "osm", "_tags": {"ele": "103", "gnis:feature_id": "2380837", "name": "Freedom Hill", "natural": "peak"}}, {"name": "College Hill", "latitude": 42.9086111, "longitude": -77.6147222, "elevation": 267.0, "source": "osm", "_tags": {"ele": "267", "gnis:feature_id": "2496851", "name": "College Hill", "natural": "peak"}}, {"name": "", "latitude": 43.0569004, "longitude": -77.4227162, "elevation": null, "source": "osm", "_tags": {"natural": "peak"}}, {"name": "Chimney Bluff Point", "latitude": 43.2860591, "longitude": -76.9085917, "elevation": 122.0, "source": "osm", "_tags": {"ele": "122", "name": "Chimney Bluff Point", "natural": "peak"}}]