[{"name": "Baldy Butte", "latitude": 43.4781694, "longitude": -124.1084423, "elevation": 410.0, "source": "osm", "_tags": {"ele": "410", "gnis:feature_id": "1117198", "name": "Baldy Butte", "natural": "peak"}}, {"name": "Dean Mountain", "latitude": 43.6145224, "longitude": -123.9797402, "elevation": 548.0, "source": "osm", "_tags": {"ele": "548", "gnis:feature_id": "1119774", "name": "Dean Mountain", "natural": "peak"}}, {"name": "Elk Peak", "latitude": 43.5401158, "longitude": -123.909546, "elevation": 624.0, "source": "osm", "_tags": {"ele": "624", "gnis:feature_id": "1120460", "name": "Elk Peak", "natural": "peak"}}, {"name": "Goodwin Peak", "latitude": 43.9281755, "longitude": -123.8901087, "elevation": 491.0, "source": "osm", "_tags": {"ele": "491", "gnis:feature_id": "1121236", "name": "Goodwin Peak", "natural": "peak"}}, {"name": "Kelly Butte", "latitude": 43.394004, "longitude": -123.7484262, "elevation": 775.0, "source": "osm", "_tags": {"ele": "775", "gnis:feature_id": "1122664", "name": "Kelly Butte", "natural": "peak"}}, {"name": "McKeever Mountain", "latitude": 43.3976133, "longitude": -124.0120474, "elevation": 516.0, "source": "osm", "_tags": {"ele": "516", "gnis:feature_id": "1123984", "name": "McKeever Mountain", "natural": "peak"}}, {"name": "The Buttes", "latitude": 43.3114612, "longitude": -124.2422369, "elevation": 217.62, "source": "osm", "_tags": {"ele": "217.62", "gnis:feature_id": "1132552", "name": "The Buttes", "natural": "peak"}}, {"name": "Yoakam Hill", "latitude": 43.3303928, "longitude": -124.273457, "elevation": 115.0, "source": "osm", "_tags": {"ele": "115", "gnis:feature_id": "1132575", "name": "Yoakam Hill", "natural": "peak"}}, {"name": "Ivers Peak", "latitude": 43.4028923, "longitude": -123.8528748, "elevation": 722.0, "source": "osm", "_tags": {"ele": "722", "gnis:feature_id": "1136416", "name": "Ivers Peak", "natural": "peak"}}, {"name": "Army Hill", "latitude": 43.7020612, "longitude": -124.168448, "elevation": 10.0, "source": "osm", "_tags": {"ele": "10", "gnis:feature_id": "1137296", "name": "Army Hill", "natural": "peak"}}, {"name": "Bald Mountain", "latitude": 44.0495652, "longitude": -123.869554, "elevation": 397.0, "source": "osm", "_tags": {"ele": "397", "gnis:feature_id": "1137452", "name": "Bald Mountain", "natural": "peak"}}, {"name": "Baldy Mountain", "latitude": 43.9140081, "longitude": -123.8059384, "elevation": 766.0, "source": "osm", "_tags": {"ele": "766", "gnis:feature_id": "1137475", "name": "Baldy Mountain", "natural": "peak"}}, {"name": "Brushy Hill", "latitude": 43.7298394, "longitude": -124.172893, "elevation": 68.0, "source": "osm", "_tags": {"ele": "68", "gnis:feature_id": "1138730", "name": "Brushy Hill", "natural": "peak"}}, {"name": "Cannery Hill", "latitude": 44.0056771, "longitude": -124.1215089, "elevation": 21.0, "source": "osm", "_tags": {"ele": "21", "gnis:feature_id": "1139304", "name": "Cannery Hill", "natural": "peak"}}, {"name": "Cape Mountain", "latitude": 44.0971374, "longitude": -124.0752752, "elevation": 452.0, "source": "osm", "_tags": {"ele": "452", "gnis:feature_id": "1139354", "name": "Cape Mountain", "natural": "peak"}}, {"name": "Cummins Peak", "latitude": 44.2357489, "longitude": -123.9929342, "elevation": 755.6, "source": "osm", "_tags": {"ele": "755.6", "gnis:feature_id": "1140550", "name": "Cummins Peak", "natural": "peak"}}, {"name": "Fairview Mountain", "latitude": 44.1995196, "longitude": -124.0338645, "elevation": 702.9, "source": "osm", "_tags": {"ele": "702.9", "gnis:feature_id": "1141952", "name": "Fairview Mountain", "natural": "peak"}}, {"name": "Fern Top", "latitude": 43.7106484, "longitude": -123.7894112, "elevation": 579.7, "source": "osm", "_tags": {"ele": "579.7", "gnis:feature_id": "1142071", "name": "Fern Top", "natural": "peak"}}, {"name": "Gwynn Knoll", "latitude": 44.2460296, "longitude": -124.1144518, "elevation": 13.0, "source": "osm", "_tags": {"ele": "13", "gnis:feature_id": "1143173", "name": "Gwynn Knoll", "natural": "peak"}}, {"name": "Henderson Peak", "latitude": 43.805316, "longitude": -123.9503496, "elevation": 339.0, "source": "osm", "_tags": {"ele": "339", "gnis:feature_id": "1143489", "name": "Henderson Peak", "natural": "peak"}}, {"name": "Herman Peak", "latitude": 44.1242884, "longitude": -124.0128937, "elevation": 634.0, "source": "osm", "_tags": {"ele": "634", "gnis:feature_id": "1143513", "name": "Herman Peak", "natural": "peak"}}, {"name": "Klickitat Mountain", "latitude": 44.2348434, "longitude": -123.9267795, "elevation": 696.0, "source": "osm", "_tags": {"ele": "696", "gnis:feature_id": "1144666", "name": "Klickitat Mountain", "natural": "peak"}}, {"name": "Neely Mountain", "latitude": 44.0398433, "longitude": -123.8923328, "elevation": 493.0, "source": "osm", "_tags": {"ele": "493", "gnis:feature_id": "1146756", "name": "Neely Mountain", "natural": "peak"}}, {"name": "Noah Butte", "latitude": 43.3904019, "longitude": -124.1312558, "elevation": 276.0, "source": "osm", "_tags": {"ele": "276", "gnis:feature_id": "1146859", "name": "Noah Butte", "natural": "peak"}}, {"name": "Mount Popocatepetl", "latitude": 43.9162314, "longitude": -123.9640002, "elevation": 300.0, "source": "osm", "_tags": {"ele": "300", "gnis:feature_id": "1147891", "name": "Mount Popocatepetl", "natural": "peak"}}, {"name": "Radar Hill", "latitude": 43.3801157, "longitude": -124.2626242, "elevation": 88.0, "source": "osm", "_tags": {"ele": "88", "gnis:feature_id": "1148130", "name": "Radar Hill", "natural": "peak"}}, {"name": "Rocky Knoll", "latitude": 44.1859292, "longitude": -124.1160677, "elevation": 43.0, "source": "osm", "_tags": {"ele": "43", "gnis:feature_id": "1148665", "name": "Rocky Knoll", "natural": "peak"}}, {"name": "Roman Nose Mountain", "latitude": 43.9123411, "longitude": -123.7387139, "elevation": 867.0, "source": "osm", "_tags": {"ele": "867", "gnis:feature_id": "1148709", "name": "Roman Nose Mountain", "natural": "peak"}}, {"name": "Saddle Mountain", "latitude": 44.1851215, "longitude": -123.9659474, "elevation": 689.0, "source": "osm", "_tags": {"ele": "689", "gnis:feature_id": "1148909", "name": "Saddle Mountain", "natural": "peak"}}, {"name": "Sunset Mountain", "latitude": 43.9415093, "longitude": -123.9109431, "elevation": 436.0, "source": "osm", "_tags": {"ele": "436", "gnis:feature_id": "1150679", "name": "Sunset Mountain", "natural": "peak"}}, {"name": "Tenmile Butte", "latitude": 43.5256701, "longitude": -124.0945533, "elevation": 345.0, "source": "osm", "_tags": {"ele": "345", "gnis:feature_id": "1150971", "name": "Tenmile Butte", "natural": "peak"}}, {"name": "The Island", "latitude": 43.7778305, "longitude": -123.8056744, "elevation": 254.5, "source": "osm", "_tags": {"ele": "254.5", "gnis:feature_id": "1151020", "name": "The Island", "natural": "peak"}}, {"name": "Three Buttes", "latitude": 44.1381773, "longitude": -123.9978931, "elevation": 550.0, "source": "osm", "_tags": {"ele": "550", "gnis:feature_id": "1151147", "name": "Three Buttes", "natural": "peak"}}, {"name": "Twin Sisters", "latitude": 43.6201158, "longitude": -124.0406629, "elevation": 364.0, "source": "osm", "_tags": {"ele": "364", "gnis:feature_id": "1151583", "name": "Twin Sisters", "natural": "peak"}}, {"name": "Buzzards Butte", "latitude": 43.7970624, "longitude": -123.960941, "elevation": 223.0, "source": "osm", "_tags": {"ele": "223", "gnis:feature_id": "1153674", "name": "Buzzards Butte", "natural": "peak"}}, {"name": "Drake Dune", "latitude": 43.6331713, "longitude": -124.190115, "elevation": 171.0, "source": "osm", "_tags": {"ele": "171", "gnis:feature_id": "1154292", "name": "Drake Dune", "natural": "peak"}}, {"name": "Bunker Hill", "latitude": 43.3526156, "longitude": -124.2053989, "elevation": 76.0, "source": "osm", "_tags": {"ele": "76", "gnis:feature_id": "1157808", "name": "Bunker Hill", "natural": "peak"}}, {"name": "Mount Peter", "latitude": 43.9567874, "longitude": -123.9281665, "elevation": 520.0, "source": "osm", "_tags": {"ele": "520", "gnis:feature_id": "1158417", "name": "Mount Peter", "natural": "peak"}}, {"name": "Taylor Butte", "latitude": 43.4217806, "longitude": -123.965657, "elevation": 471.0, "source": "osm", "_tags": {"ele": "471", "gnis:feature_id": "1161542", "name": "Taylor Butte", "natural": "peak"}}, {"name": "Telegraph Hill", "latitude": 43.3728936, "longitude": -124.2167887, "elevation": 86.0, "source": "osm", "_tags": {"ele": "86", "gnis:feature_id": "1161544", "name": "Telegraph Hill", "natural": "peak"}}, {"name": "Vaughn Point", "latitude": 43.3906695, "longitude": -123.9023208, "elevation": 627.0, "source": "osm", "_tags": {"ele": "627", "gnis:feature_id": "1161572", "name": "Vaughn Point", "natural": "peak"}}, {"name": "Mount Grayback", "latitude": 43.913175, "longitude": -123.8567738, "elevation": 677.0, "source": "osm", "_tags": {"ele": "677", "gnis:feature_id": "1637909", "name": "Mount Grayback", "natural": "peak"}}, {"name": "", "latitude": 43.7857191, "longitude": -123.8072062, "elevation": 173.1, "source": "osm", "_tags": {"ele": "173.1", "natural": "peak"}}, {"name": "", "latitude": 43.7666622, "longitude": -123.8416672, "elevation": 432.8, "source": "osm", "_tags": {"ele": "432.8", "natural": "peak"}}, {"name": "", "latitude": 43.7645392, "longitude": -123.8817716, "elevation": 312.7, "source": "osm", "_tags": {"ele": "312.7", "natural": "peak"}}, {"name": "", "latitude": 43.7716516, "longitude": -123.9562083, "elevation": 271.3, "source": "osm", "_tags": {"ele": "271.3", "natural": "peak"}}, {"name": "", "latitude": 43.7244363, "longitude": -123.9598346, "elevation": 347.2, "source": "osm", "_tags": {"ele": "347.2", "natural": "peak"}}, {"name": "", "latitude": 43.7214124, "longitude": -123.9226914, "elevation": 356.0, "source": "osm", "_tags": {"ele": "356", "natural": "peak"}}, {"name": "", "latitude": 43.7057632, "longitude": -124.022255, "elevation": 217.3, "source": "osm", "_tags": {"ele": "217.3", "natural": "peak"}}, {"name": "", "latitude": 43.7104785, "longitude": -124.0023852, "elevation": 257.6, "source": "osm", "_tags": {"ele": "257.6", "natural": "peak"}}, {"name": "", "latitude": 43.7145732, "longitude": -123.9877939, "elevation": 287.1, "source": "osm", "_tags": {"ele": "287.1", "natural": "peak"}}, {"name": "", "latitude": 43.7025366, "longitude": -123.9620877, "elevation": 297.2, "source": "osm", "_tags": {"ele": "297.2", "natural": "peak"}}, {"name": "", "latitude": 43.6785495, "longitude": -123.9137006, "elevation": 433.1, "source": "osm", "_tags": {"ele": "433.1", "natural": "peak"}}, {"name": "", "latitude": 43.7008147, "longitude": -123.9224339, "elevation": 388.6, "source": "osm", "_tags": {"ele": "388.6", "natural": "peak"}}, {"name": "", "latitude": 43.7103389, "longitude": -123.9668083, "elevation": 335.9, "source": "osm", "_tags": {"ele": "335.9", "natural": "peak"}}, {"name": "", "latitude": 43.6946558, "longitude": -123.8449502, "elevation": 563.3, "source": "osm", "_tags": {"ele": "563.3", "natural": "peak"}}, {"name": "", "latitude": 43.7105561, "longitude": -123.811605, "elevation": 553.8, "source": "osm", "_tags": {"ele": "553.8", "natural": "peak"}}, {"name": "", "latitude": 43.7069304, "longitude": -123.8148505, "elevation": 551.4, "source": "osm", "_tags": {"ele": "551.4", "natural": "peak"}}, {"name": "", "latitude": 43.7204044, "longitude": -123.8524389, "elevation": 431.0, "source": "osm", "_tags": {"ele": "431", "natural": "peak"}}, {"name": "Deer Head Point", "latitude": 43.6939343, "longitude": -123.9138615, "elevation": 496.2, "source": "osm", "_tags": {"ele": "496.2", "name": "Deer Head Point", "natural": "peak"}}, {"name": "", "latitude": 43.3906803, "longitude": -124.032522, "elevation": 435.0, "source": "osm", "_tags": {"ele": "435", "natural": "peak"}}, {"name": "", "latitude": 43.2980852, "longitude": -123.997877, "elevation": 488.0, "source": "osm", "_tags": {"ele": "488", "natural": "peak"}}, {"name": "", "latitude": 43.3353204, "longitude": -123.9453844, "elevation": 554.0, "source": "osm", "_tags": {"ele": "554", "natural": "peak"}}, {"name": "", "latitude": 43.3355157, "longitude": -123.9783611, "elevation": 440.0, "source": "osm", "_tags": {"ele": "440", "natural": "peak"}}, {"name": "", "latitude": 43.5134549, "longitude": -123.9396589, "elevation": 554.48, "source": "osm", "_tags": {"ele": "554.48", "natural": "peak"}}, {"name": "", "latitude": 43.5134262, "longitude": -123.9260502, "elevation": 625.14, "source": "osm", "_tags": {"ele": "625.14", "natural": "peak"}}, {"name": "", "latitude": 43.5222382, "longitude": -124.0230703, "elevation": 354.0, "source": "osm", "_tags": {"ele": "354", "natural": "peak"}}, {"name": "", "latitude": 43.5310123, "longitude": -124.0227748, "elevation": 333.0, "source": "osm", "_tags": {"ele": "333", "natural": "peak"}}, {"name": "", "latitude": 43.5416675, "longitude": -124.0574046, "elevation": 288.0, "source": "osm", "_tags": {"ele": "288", "natural": "peak"}}, {"name": "", "latitude": 43.5481813, "longitude": -124.0121052, "elevation": 403.0, "source": "osm", "_tags": {"ele": "403", "natural": "peak"}}, {"name": "", "latitude": 43.5466704, "longitude": -124.006211, "elevation": 430.0, "source": "osm", "_tags": {"ele": "430", "natural": "peak"}}, {"name": "", "latitude": 43.5667097, "longitude": -123.9897339, "elevation": 432.0, "source": "osm", "_tags": {"ele": "432", "natural": "peak"}}, {"name": "", "latitude": 43.5699326, "longitude": -123.9815262, "elevation": 482.0, "source": "osm", "_tags": {"ele": "482", "natural": "peak"}}, {"name": "", "latitude": 43.5708328, "longitude": -123.969792, "elevation": 487.0, "source": "osm", "_tags": {"ele": "487", "natural": "peak"}}, {"name": "", "latitude": 43.6142564, "longitude": -123.9438335, "elevation": 556.0, "source": "osm", "_tags": {"ele": "556", "natural": "peak"}}, {"name": "", "latitude": 43.5828196, "longitude": -124.0318375, "elevation": 358.0, "source": "osm", "_tags": {"ele": "358", "natural": "peak"}}, {"name": "", "latitude": 43.5959505, "longitude": -124.0238851, "elevation": 331.0, "source": "osm", "_tags": {"ele": "331", "natural": "peak"}}, {"name": "", "latitude": 43.5989663, "longitude": -123.9483931, "elevation": 510.0, "source": "osm", "_tags": {"ele": "510", "natural": "peak"}}, {"name": "", "latitude": 43.2911604, "longitude": -124.2095622, "elevation": null, "source": "osm", "_tags": {"natural": "peak"}}, {"name": "", "latitude": 43.3187718, "longitude": -123.9315668, "elevation": 377.0, "source": "osm", "_tags": {"ele": "377", "natural": "peak"}}, {"name": "", "latitude": 43.332151, "longitude": -123.9609289, "elevation": 523.0, "source": "osm", "_tags": {"ele": "523", "natural": "peak"}}, {"name": "", "latitude": 43.3408948, "longitude": -123.9458656, "elevation": 545.9, "source": "osm", "_tags": {"ele": "545.9", "natural": "peak"}}, {"name": "", "latitude": 43.3242567, "longitude": -123.9520776, "elevation": 358.75, "source": "osm", "_tags": {"ele": "358.75", "natural": "peak"}}, {"name": "", "latitude": 43.3446996, "longitude": -123.9627129, "elevation": 469.39, "source": "osm", "_tags": {"ele": "469.39", "natural": "peak"}}, {"name": "", "latitude": 43.3277064, "longitude": -123.971014, "elevation": 458.42, "source": "osm", "_tags": {"ele": "458.42", "natural": "peak"}}, {"name": "", "latitude": 43.3360568, "longitude": -123.9672965, "elevation": 545.28, "source": "osm", "_tags": {"ele": "545.28", "natural": "peak"}}, {"name": "Trail Butte", "latitude": 43.5011498, "longitude": -124.0372895, "elevation": null, "source": "osm", "_tags": {"gnis:feature_id": "1151363", "name": "Trail Butte", "natural": "peak"}}]