[{"name": "Cedar Butte", "latitude": 43.5211005, "longitude": -102.5546189, "elevation": 957.0, "source": "osm", "_tags": {"ele": "957", "gnis:feature_id": "1254279", "name": "Cedar Butte", "natural": "peak"}}, {"name": "Cedar Butte", "latitude": 44.0847097, "longitude": -102.3154387, "elevation": 879.0, "source": "osm", "_tags": {"ele": "879", "gnis:feature_id": "1254280", "name": "Cedar Butte", "natural": "peak"}}, {"name": "Cuny Table", "latitude": 43.5316556, "longitude": -102.6837909, "elevation": 974.0, "source": "osm", "_tags": {"ele": "974", "gnis:feature_id": "1254576", "name": "Cuny Table", "natural": "peak"}}, {"name": "Grindstone Butte", "latitude": 44.1969303, "longitude": -101.7982016, "elevation": 791.0, "source": "osm", "_tags": {"ele": "791", "gnis:feature_id": "1255374", "name": "Grindstone Butte", "natural": "peak"}}, {"name": "Stirk Table", "latitude": 43.538601, "longitude": -102.5118393, "elevation": 872.0, "source": "osm", "_tags": {"ele": "872", "gnis:feature_id": "1258357", "name": "Stirk Table", "natural": "peak"}}, {"name": "Galigo Table", "latitude": 43.5891562, "longitude": -102.6682344, "elevation": 975.0, "source": "osm", "_tags": {"ele": "975", "gnis:feature_id": "1258397", "name": "Galigo Table", "natural": "peak"}}, {"name": "Ackerman Hill", "latitude": 43.8888797, "longitude": -101.9818192, "elevation": 789.0, "source": "osm", "_tags": {"ele": "789", "gnis:feature_id": "1261179", "name": "Ackerman Hill", "natural": "peak"}}, {"name": "Big Foot Hill", "latitude": 43.8672135, "longitude": -101.9373736, "elevation": 793.0, "source": "osm", "_tags": {"ele": "793", "gnis:feature_id": "1261268", "name": "Big Foot Hill", "natural": "peak"}}, {"name": "Bouquet Table", "latitude": 43.6819365, "longitude": -102.2984969, "elevation": 821.0, "source": "osm", "_tags": {"ele": "821", "gnis:feature_id": "1261329", "name": "Bouquet Table", "natural": "peak"}}, {"name": "Cedar Butte", "latitude": 43.6638799, "longitude": -102.5812865, "elevation": 998.0, "source": "osm", "_tags": {"ele": "998", "gnis:feature_id": "1261425", "name": "Cedar Butte", "natural": "peak"}}, {"name": "Flat Top Butte", "latitude": 43.7174944, "longitude": -101.8693168, "elevation": 758.0, "source": "osm", "_tags": {"ele": "758", "gnis:feature_id": "1261679", "name": "Flat Top Butte", "natural": "peak"}}, {"name": "Hart Table", "latitude": 43.7974907, "longitude": -102.6387865, "elevation": 887.0, "source": "osm", "_tags": {"ele": "887", "gnis:feature_id": "1261776", "name": "Hart Table", "natural": "peak"}}, {"name": "Heck Table", "latitude": 43.7352703, "longitude": -102.5112843, "elevation": 919.0, "source": "osm", "_tags": {"ele": "919", "gnis:feature_id": "1261797", "name": "Heck Table", "natural": "peak"}}, {"name": "Hutmacher Table", "latitude": 43.7330462, "longitude": -102.685734, "elevation": 925.0, "source": "osm", "_tags": {"ele": "925", "gnis:feature_id": "1261806", "name": "Hutmacher Table", "natural": "peak"}}, {"name": "Hinton-Coleman Hill", "latitude": 43.9216572, "longitude": -101.8929275, "elevation": 769.0, "source": "osm", "_tags": {"ele": "769", "gnis:feature_id": "1261818", "name": "Hinton-Coleman Hill", "natural": "peak"}}, {"name": "Hurley Butte", "latitude": 43.7233259, "longitude": -102.1501584, "elevation": 782.0, "source": "osm", "_tags": {"ele": "782", "gnis:feature_id": "1261857", "name": "Hurley Butte", "natural": "peak"}}, {"name": "Kelier Butte", "latitude": 43.7008259, "longitude": -102.1807148, "elevation": 773.0, "source": "osm", "_tags": {"ele": "773", "gnis:feature_id": "1261908", "name": "Kelier Butte", "natural": "peak"}}, {"name": "Kube Table", "latitude": 43.8558234, "longitude": -102.6123951, "elevation": 848.0, "source": "osm", "_tags": {"ele": "848", "gnis:feature_id": "1261926", "name": "Kube Table", "natural": "peak"}}, {"name": "Quinn Table", "latitude": 43.9041568, "longitude": -102.4726679, "elevation": 866.0, "source": "osm", "_tags": {"ele": "866", "gnis:feature_id": "1262251", "name": "Quinn Table", "natural": "peak"}}, {"name": "School Section Butte", "latitude": 43.7036059, "longitude": -101.8529273, "elevation": 742.0, "source": "osm", "_tags": {"ele": "742", "gnis:feature_id": "1262375", "name": "School Section Butte", "natural": "peak"}}, {"name": "Seventyone Table", "latitude": 43.8538798, "longitude": -102.5193374, "elevation": 877.0, "source": "osm", "_tags": {"ele": "877", "gnis:feature_id": "1262389", "name": "Seventyone Table", "natural": "peak"}}, {"name": "Sheep Mountain Table", "latitude": 43.7016581, "longitude": -102.5768419, "elevation": 958.0, "source": "osm", "_tags": {"ele": "958", "gnis:feature_id": "1262397", "name": "Sheep Mountain Table", "natural": "peak"}}, {"name": "Street Hill", "latitude": 43.9333233, "longitude": -102.056821, "elevation": 817.0, "source": "osm", "_tags": {"ele": "817", "gnis:feature_id": "1262524", "name": "Street Hill", "natural": "peak"}}, {"name": "Walker Hill", "latitude": 43.9466567, "longitude": -101.8998719, "elevation": 783.0, "source": "osm", "_tags": {"ele": "783", "gnis:feature_id": "1262652", "name": "Walker Hill", "natural": "peak"}}, {"name": "White Butte", "latitude": 43.8951158, "longitude": -102.3793835, "elevation": 848.0, "source": "osm", "_tags": {"ele": "848", "gnis:feature_id": "1262692", "name": "White Butte", "natural": "peak"}}, {"name": "The Castle", "latitude": 43.7833254, "longitude": -102.0254325, "elevation": 775.0, "source": "osm", "_tags": {"ele": "775", "gnis:feature_id": "1264950", "name": "The Castle", "natural": "peak"}}, {"name": "Quinn Butte", "latitude": 43.9933224, "longitude": -102.0879324, "elevation": 840.0, "source": "osm", "_tags": {"ele": "840", "gnis:feature_id": "1265331", "name": "Quinn Butte", "natural": "peak"}}, {"name": "Bliss Hill", "latitude": 44.0685992, "longitude": -102.0693207, "elevation": 866.0, "source": "osm", "_tags": {"ele": "866", "gnis:feature_id": "1265876", "name": "Bliss Hill", "natural": "peak"}}, {"name": "Horse Tooth", "latitude": 44.1919308, "longitude": -102.0590424, "elevation": 878.0, "source": "osm", "_tags": {"ele": "878", "gnis:feature_id": "1266065", "name": "Horse Tooth", "natural": "peak"}}, {"name": "Hubbard Hill", "latitude": 44.0674881, "longitude": -102.0968214, "elevation": 839.0, "source": "osm", "_tags": {"ele": "839", "gnis:feature_id": "1266071", "name": "Hubbard Hill", "natural": "peak"}}, {"name": "Lake Hill", "latitude": 44.0780434, "longitude": -102.1907129, "elevation": 879.0, "source": "osm", "_tags": {"ele": "879", "gnis:feature_id": "1266107", "name": "Lake Hill", "natural": "peak"}}, {"name": "Bell Butte", "latitude": 43.3633233, "longitude": -102.3193288, "elevation": 960.0, "source": "osm", "_tags": {"ele": "960", "gnis:feature_id": "1266665", "name": "Bell Butte", "natural": "peak"}}, {"name": "Snake Butte", "latitude": 43.4305537, "longitude": -101.9295949, "elevation": 968.0, "source": "osm", "_tags": {"ele": "968", "gnis:feature_id": "1267245", "name": "Snake Butte", "natural": "peak"}}]