[{"name": "Ampersand Mountain", "latitude": 44.2345608, "longitude": -74.2027329, "elevation": 1022.0, "source": "osm", "_tags": {"ele": "1022", "gnis:feature_id": "942090", "name": "Ampersand Mountain", "natural": "peak", "wikidata": "Q4748134"}}, {"name": "Sturges Hills", "latitude": 43.7050658, "longitude": -74.4954354, "elevation": 750.0, "source": "osm", "_tags": {"ele": "750", "gnis:feature_id": "942110", "name": "Sturges Hills", "natural": "peak", "wikidata": "Q34838688"}}, {"name": "Mount Adams", "latitude": 44.0869511, "longitude": -74.0255728, "elevation": 1073.0, "source": "osm", "_tags": {"ele": "1073", "gnis:feature_id": "942172", "name": "Mount Adams", "natural": "peak", "wikidata": "Q8519036"}}, {"name": "Alford Mountain", "latitude": 44.2303299, "longitude": -74.1173774, "elevation": 800.0, "source": "osm", "_tags": {"ele": "800", "gnis:feature_id": "942311", "name": "Alford Mountain", "natural": "peak", "wikidata": "Q34802111"}}, {"name": "Allard Hill", "latitude": 43.7936749, "longitude": -73.8104085, "elevation": 461.0, "source": "osm", "_tags": {"ele": "461", "gnis:feature_id": "942340", "name": "Allard Hill", "natural": "peak", "wikidata": "Q34802126"}}, {"name": "Allen Mountain", "latitude": 44.0707979, "longitude": -73.9398459, "elevation": 1312.0, "source": "osm", "_tags": {"ele": "1312", "gnis:feature_id": "942362", "name": "Allen Mountain", "natural": "peak", "wikidata": "Q4731793"}}, {"name": "Amasa Mountain", "latitude": 43.6600664, "longitude": -73.7279023, "elevation": 454.0, "source": "osm", "_tags": {"ele": "454", "gnis:feature_id": "942411", "name": "Amasa Mountain", "natural": "peak", "wikidata": "Q34802176"}}, {"name": "Mount Andrew", "latitude": 44.0564482, "longitude": -74.093483, "elevation": 939.0, "source": "osm", "_tags": {"ele": "939", "gnis:feature_id": "942470", "name": "Mount Andrew", "natural": "peak", "wikidata": "Q34880493"}}, {"name": "Mount Anthony", "latitude": 43.2945159, "longitude": -73.8581787, "elevation": 496.0, "source": "osm", "_tags": {"ele": "496", "gnis:feature_id": "942508", "name": "Mount Anthony", "natural": "peak", "wikidata": "Q34880517"}}, {"name": "Armstrong Mountain", "latitude": 44.1345216, "longitude": -73.8497765, "elevation": 1320.0, "source": "osm", "_tags": {"ele": "1320", "gnis:feature_id": "942572", "name": "Armstrong Mountain", "natural": "peak", "wikidata": "Q4793955"}}, {"name": "Austin Pond Mountain", "latitude": 43.676732, "longitude": -73.9584645, "elevation": 465.0, "source": "osm", "_tags": {"ele": "465", "gnis:feature_id": "942718", "name": "Austin Pond Mountain", "natural": "peak", "wikidata": "Q34802332"}}, {"name": "Avalanche Mountain", "latitude": 44.1361639, "longitude": -73.9695903, "elevation": 1161.0, "source": "osm", "_tags": {"ele": "1161", "gnis:feature_id": "942724", "name": "Avalanche Mountain", "natural": "peak", "wikidata": "Q34802342"}}, {"name": "Bad Luck Mountain", "latitude": 43.8075642, "longitude": -74.1940356, "elevation": 653.0, "source": "osm", "_tags": {"ele": "653", "gnis:feature_id": "942767", "name": "Bad Luck Mountain", "natural": "peak", "wikidata": "Q34802446"}}, {"name": "Bailey Hill", "latitude": 43.9108943, "longitude": -73.9026366, "elevation": 931.0, "source": "osm", "_tags": {"ele": "931", "gnis:feature_id": "942784", "name": "Bailey Hill", "natural": "peak", "wikidata": "Q34802482"}}, {"name": "Bald Mountain", "latitude": 43.4578464, "longitude": -73.8331776, "elevation": 602.0, "source": "osm", "_tags": {"ele": "602", "gnis:feature_id": "942869", "name": "Bald Mountain", "natural": "peak", "wikidata": "Q34803468"}}, {"name": "Baldface Mountain", "latitude": 43.7153427, "longitude": -74.2768143, "elevation": 680.0, "source": "osm", "_tags": {"ele": "680", "gnis:feature_id": "942883", "name": "Baldface Mountain", "natural": "peak", "wikidata": "Q34804089"}}, {"name": "Baldface Mountain", "latitude": 43.829508, "longitude": -74.0629183, "elevation": 626.0, "source": "osm", "_tags": {"ele": "626", "gnis:feature_id": "942884", "name": "Baldface Mountain", "natural": "peak", "wikidata": "Q34803546"}}, {"name": "Baldhead Mountain", "latitude": 43.4797894, "longitude": -73.9670708, "elevation": 871.0, "source": "osm", "_tags": {"ele": "871", "gnis:feature_id": "942887", "name": "Baldhead Mountain", "natural": "peak", "wikidata": "Q34804112"}}, {"name": "Baldwin Mountain", "latitude": 43.6967327, "longitude": -73.783183, "elevation": 402.0, "source": "osm", "_tags": {"ele": "402", "gnis:feature_id": "942905", "name": "Baldwin Mountain", "natural": "peak", "wikidata": "Q34804139"}}, {"name": "Baldwin Mountain", "latitude": 44.0067294, "longitude": -74.1809861, "elevation": 863.0, "source": "osm", "_tags": {"ele": "863", "gnis:feature_id": "942906", "name": "Baldwin Mountain", "natural": "peak", "wikidata": "Q34804132"}}, {"name": "Balfour Mountain", "latitude": 43.8625629, "longitude": -74.0159726, "elevation": 727.0, "source": "osm", "_tags": {"ele": "727", "gnis:feature_id": "942915", "name": "Balfour Mountain", "natural": "peak", "wikidata": "Q34804161"}}, {"name": "Balm of Gilead Mountain", "latitude": 43.6953427, "longitude": -74.0954153, "elevation": 736.0, "source": "osm", "_tags": {"ele": "736", "gnis:feature_id": "942940", "name": "Balm of Gilead Mountain", "natural": "peak", "wikidata": "Q34804168"}}, {"name": "Barker Mountain", "latitude": 43.5689547, "longitude": -74.1056894, "elevation": 633.0, "source": "osm", "_tags": {"ele": "633", "gnis:feature_id": "943012", "name": "Barker Mountain", "natural": "peak", "wikidata": "Q34804305"}}, {"name": "Bartlett Mountain", "latitude": 43.3125714, "longitude": -73.79151, "elevation": 464.0, "source": "osm", "_tags": {"ele": "464", "gnis:feature_id": "943100", "name": "Bartlett Mountain", "natural": "peak", "wikidata": "Q34804434"}}, {"name": "Bartonville Mountain", "latitude": 43.6833586, "longitude": -73.7504973, "elevation": 421.0, "source": "osm", "_tags": {"ele": "421", "gnis:feature_id": "943124", "name": "Bartonville Mountain", "natural": "peak", "wikidata": "Q34804480"}}, {"name": "Baxter Mountain", "latitude": 44.2169927, "longitude": -73.7648607, "elevation": 739.0, "source": "osm", "_tags": {"ele": "739", "gnis:feature_id": "943179", "name": "Baxter Mountain", "natural": "peak", "wikidata": "Q34804526"}}, {"name": "Bear Cubby", "latitude": 44.2350476, "longitude": -73.8534764, "elevation": 727.0, "source": "osm", "_tags": {"ele": "727", "gnis:feature_id": "943260", "name": "Bear Cubby", "natural": "peak", "wikidata": "Q34804591"}}, {"name": "Bear Den Mountain", "latitude": 44.1194964, "longitude": -73.792915, "elevation": 1030.0, "source": "osm", "_tags": {"ele": "1030", "gnis:feature_id": "943261", "name": "Bear Den Mountain", "natural": "peak", "wikidata": "Q34804599"}}, {"name": "Bear Mountain", "latitude": 43.4014581, "longitude": -73.9195693, "elevation": 599.0, "source": "osm", "_tags": {"ele": "599", "gnis:feature_id": "943283", "name": "Bear Mountain", "natural": "peak", "wikidata": "Q34804704"}}, {"name": "Bear Mountain", "latitude": 44.0506096, "longitude": -73.7206881, "elevation": 694.0, "source": "osm", "_tags": {"ele": "694", "gnis:feature_id": "943286", "name": "Bear Mountain", "natural": "peak", "wikidata": "Q34804665"}}, {"name": "Bearpen Peak", "latitude": 43.4861779, "longitude": -74.0206837, "elevation": 768.0, "source": "osm", "_tags": {"ele": "768", "gnis:feature_id": "943335", "name": "Bearpen Peak", "natural": "peak", "wikidata": "Q34804732"}}, {"name": "Beaver Meadow Hill", "latitude": 43.8183958, "longitude": -73.723462, "elevation": 367.0, "source": "osm", "_tags": {"ele": "367", "gnis:feature_id": "943412", "name": "Beaver Meadow Hill", "natural": "peak", "wikidata": "Q34804771"}}, {"name": "Beaver Mountain", "latitude": 43.8689523, "longitude": -74.118756, "elevation": 882.0, "source": "osm", "_tags": {"ele": "882", "gnis:feature_id": "943425", "name": "Beaver Mountain", "natural": "peak", "wikidata": "Q34804776"}}, {"name": "Beck-horn", "latitude": 44.0799112, "longitude": -73.7850364, "elevation": 1455.0, "source": "osm", "_tags": {"ele": "1455", "gnis:feature_id": "943471", "name": "Beck-horn", "natural": "peak", "note": "Not considered a peak - considered a shoulder of Dix Mt. Not an adirondack 46er.", "wikidata": "Q34804782"}}, {"name": "Beech Hill", "latitude": 43.8222851, "longitude": -73.8381877, "elevation": 664.0, "source": "osm", "_tags": {"ele": "664", "gnis:feature_id": "943508", "name": "Beech Hill", "natural": "peak", "wikidata": "Q34804848"}}, {"name": "Beech Mountain", "latitude": 43.3659038, "longitude": -73.7698426, "elevation": 448.0, "source": "osm", "_tags": {"ele": "448", "gnis:feature_id": "943517", "name": "Beech Mountain", "natural": "peak", "wikidata": "Q34804895"}}, {"name": "Beede Hill", "latitude": 44.243103, "longitude": -73.7859735, "elevation": 434.0, "source": "osm", "_tags": {"ele": "434", "gnis:feature_id": "943541", "name": "Beede Hill", "natural": "peak", "wikidata": "Q34804915"}}, {"name": "Belden Hill", "latitude": 43.6056217, "longitude": -74.339591, "elevation": 729.0, "source": "osm", "_tags": {"ele": "729", "gnis:feature_id": "943570", "name": "Belden Hill", "natural": "peak", "wikidata": "Q34804933"}}, {"name": "Bell Mountain", "latitude": 43.7808976, "longitude": -74.153477, "elevation": 713.0, "source": "osm", "_tags": {"ele": "713", "gnis:feature_id": "943590", "name": "Bell Mountain", "natural": "peak", "wikidata": "Q34804964"}}, {"name": "Ben Wood Mountain", "latitude": 43.5661783, "longitude": -73.8192905, "elevation": 361.0, "source": "osm", "_tags": {"ele": "361", "gnis:feature_id": "943654", "name": "Ben Wood Mountain", "natural": "peak", "wikidata": "Q34805003"}}, {"name": "Bibby Mountain", "latitude": 43.7389539, "longitude": -73.8906869, "elevation": 592.0, "source": "osm", "_tags": {"ele": "592", "gnis:feature_id": "943824", "name": "Bibby Mountain", "natural": "peak", "wikidata": "Q34805158"}}, {"name": "Big Alderbed Mountain", "latitude": 43.3300689, "longitude": -74.67904, "elevation": 758.0, "source": "osm", "_tags": {"ele": "758", "gnis:feature_id": "943831", "name": "Big Alderbed Mountain", "natural": "peak", "wikidata": "Q34805164"}}, {"name": "Big Brook Hills", "latitude": 44.0156166, "longitude": -74.453498, "elevation": 702.0, "source": "osm", "_tags": {"ele": "702", "gnis:feature_id": "943855", "name": "Big Brook Hills", "natural": "peak", "wikidata": "Q34805184"}}, {"name": "Big Crow Mountain", "latitude": 44.2664362, "longitude": -73.7401386, "elevation": 857.0, "source": "osm", "_tags": {"ele": "857", "gnis:feature_id": "943871", "name": "Big Crow Mountain", "natural": "peak", "wikidata": "Q34805217"}}, {"name": "Big Goldmine Hill", "latitude": 43.3381246, "longitude": -74.6504283, "elevation": 693.0, "source": "osm", "_tags": {"ele": "693", "gnis:feature_id": "943886", "name": "Big Goldmine Hill", "natural": "peak", "wikidata": "Q34805231"}}, {"name": "Big Hopkins Mountain", "latitude": 43.5842324, "longitude": -74.1481918, "elevation": 757.0, "source": "osm", "_tags": {"ele": "757", "gnis:feature_id": "943903", "name": "Big Hopkins Mountain", "natural": "peak", "wikidata": "Q34805285"}}, {"name": "Big Marsh Mountain", "latitude": 43.4042356, "longitude": -74.6154296, "elevation": 786.0, "source": "osm", "_tags": {"ele": "786", "gnis:feature_id": "943925", "name": "Big Marsh Mountain", "natural": "peak", "wikidata": "Q34805299"}}, {"name": "Big Pisgah Mountain", "latitude": 43.8411752, "longitude": -74.2076486, "elevation": 622.0, "source": "osm", "_tags": {"ele": "622", "gnis:feature_id": "943937", "name": "Big Pisgah Mountain", "natural": "peak", "wikidata": "Q34805320"}}, {"name": "Big Shanty Mountain", "latitude": 43.6195098, "longitude": -74.1304145, "elevation": 710.0, "source": "osm", "_tags": {"ele": "710", "gnis:feature_id": "943950", "name": "Big Shanty Mountain", "natural": "peak", "wikidata": "Q34805342"}}, {"name": "Big Slide Mountain", "latitude": 44.1822038, "longitude": -73.870895, "elevation": 1280.0, "source": "osm", "_tags": {"ele": "1280", "gnis:feature_id": "943955", "name": "Big Slide Mountain", "natural": "peak", "wikidata": "Q4906374"}}, {"name": "Big Thirteenth Lake Mountain", "latitude": 43.7222869, "longitude": -74.1306959, "elevation": 829.0, "source": "osm", "_tags": {"ele": "829", "gnis:feature_id": "943959", "name": "Big Thirteenth Lake Mountain", "natural": "peak", "wikidata": "Q34805358"}}, {"name": "Bigsby Hill", "latitude": 43.8439516, "longitude": -73.9154128, "elevation": 620.0, "source": "osm", "_tags": {"ele": "620", "gnis:feature_id": "943971", "name": "Bigsby Hill", "natural": "peak", "wikidata": "Q34805376"}}, {"name": "Birch Mountain", "latitude": 43.5417338, "longitude": -73.8748469, "elevation": 510.0, "source": "osm", "_tags": {"ele": "510", "gnis:feature_id": "944005", "name": "Birch Mountain", "natural": "peak", "wikidata": "Q34805410"}}, {"name": "Birds Nest Mountain", "latitude": 43.3156266, "longitude": -73.8812349, "elevation": 404.0, "source": "osm", "_tags": {"ele": "404", "gnis:feature_id": "944028", "name": "Birds Nest Mountain", "natural": "peak", "wikidata": "Q34805417"}}, {"name": "Black Mountain", "latitude": 43.5706214, "longitude": -74.139302, "elevation": 768.0, "source": "osm", "_tags": {"ele": "768", "gnis:feature_id": "944146", "name": "Black Mountain", "natural": "peak", "wikidata": "Q34805516"}}, {"name": "Black Mountain", "latitude": 43.777842, "longitude": -74.0745837, "elevation": 698.0, "source": "osm", "_tags": {"ele": "698", "gnis:feature_id": "944148", "name": "Black Mountain", "natural": "peak", "wikidata": "Q34805504"}}, {"name": "Black Mountain", "latitude": 44.2722691, "longitude": -73.8665329, "elevation": 901.0, "source": "osm", "_tags": {"ele": "901", "gnis:feature_id": "944149", "name": "Black Mountain", "natural": "peak", "wikidata": "Q34805493"}}, {"name": "Black Spruce Mountain", "latitude": 43.4217363, "longitude": -73.7676202, "elevation": 716.0, "source": "osm", "_tags": {"ele": "716", "gnis:feature_id": "944190", "name": "Black Spruce Mountain", "natural": "peak", "wikidata": "Q34805565"}}, {"name": "Blake Peak", "latitude": 44.0812841, "longitude": -73.8449726, "elevation": 1212.0, "source": "osm", "_tags": {"ele": "1212", "gnis:feature_id": "944215", "name": "Blake Peak", "natural": "peak", "wikidata": "Q4924459"}}, {"name": "Blue Hills", "latitude": 43.5508992, "longitude": -74.1709694, "elevation": 877.0, "source": "osm", "_tags": {"ele": "877", "gnis:feature_id": "944309", "name": "Blue Hills", "natural": "peak", "wikidata": "Q34805747"}}, {"name": "Blue Mountain", "latitude": 43.8725634, "longitude": -74.4009917, "elevation": 1143.0, "source": "osm", "_tags": {"ele": "1143", "gnis:feature_id": "944317", "name": "Blue Mountain", "natural": "peak"}}, {"name": "Blue Ridge Mountain", "latitude": 43.9254918, "longitude": -73.8122951, "elevation": 1052.0, "source": "osm", "_tags": {"ele": "1052", "gnis:feature_id": "944331", "name": "Blue Ridge Mountain", "natural": "peak", "wikidata": "Q34805779"}}, {"name": "Mount Blue", "latitude": 43.5231218, "longitude": -74.0465187, "elevation": 885.0, "source": "osm", "_tags": {"ele": "885", "gnis:feature_id": "944337", "name": "Mount Blue", "natural": "peak", "wikidata": "Q34880686"}}, {"name": "Blueberry Mountain", "latitude": 44.0217287, "longitude": -74.3543274, "elevation": 794.0, "source": "osm", "_tags": {"ele": "794", "gnis:feature_id": "944340", "name": "Blueberry Mountain", "natural": "peak", "wikidata": "Q34805819"}}, {"name": "Blueberry Mountain", "latitude": 44.2181039, "longitude": -73.8159742, "elevation": 883.0, "source": "osm", "_tags": {"ele": "883", "gnis:feature_id": "944341", "name": "Blueberry Mountain", "natural": "peak", "wikidata": "Q34805805"}}, {"name": "Bluff Point Hill", "latitude": 43.8650631, "longitude": -74.6110006, "elevation": 695.0, "source": "osm", "_tags": {"ele": "695", "gnis:feature_id": "944362", "name": "Bluff Point Hill", "natural": "peak", "wikidata": "Q34805838"}}, {"name": "Boreas Mountain", "latitude": 44.0031138, "longitude": -73.8806937, "elevation": 1152.0, "source": "osm", "_tags": {"ele": "1152", "gnis:feature_id": "944458", "name": "Boreas Mountain", "natural": "peak", "wikidata": "Q34805927"}}, {"name": "Bradley Mountain", "latitude": 43.7378431, "longitude": -74.5546055, "elevation": 957.0, "source": "osm", "_tags": {"ele": "957", "gnis:feature_id": "944582", "name": "Bradley Mountain", "natural": "peak", "wikidata": "Q34806077"}}, {"name": "Brown Mountain", "latitude": 44.2622692, "longitude": -73.829309, "elevation": 641.0, "source": "osm", "_tags": {"ele": "641", "gnis:feature_id": "944923", "name": "Brown Mountain", "natural": "peak", "wikidata": "Q34806331"}}, {"name": "Brush Mountain", "latitude": 43.4195134, "longitude": -74.4518133, "elevation": 660.0, "source": "osm", "_tags": {"ele": "660", "gnis:feature_id": "944977", "name": "Brush Mountain", "natural": "peak", "wikidata": "Q34806405"}}, {"name": "Bryan Mountain", "latitude": 43.3856252, "longitude": -73.9015132, "elevation": 487.0, "source": "osm", "_tags": {"ele": "487", "gnis:feature_id": "944990", "name": "Bryan Mountain", "natural": "peak", "wikidata": "Q34806425"}}, {"name": "Buck Hill", "latitude": 43.5508993, "longitude": -74.0181851, "elevation": 682.0, "source": "osm", "_tags": {"ele": "682", "gnis:feature_id": "945021", "name": "Buck Hill", "natural": "peak", "wikidata": "Q34806528"}}, {"name": "Buck Hill", "latitude": 43.8775635, "longitude": -74.1359794, "elevation": 668.0, "source": "osm", "_tags": {"ele": "668", "gnis:feature_id": "945022", "name": "Buck Hill", "natural": "peak", "wikidata": "Q34806481"}}, {"name": "Buck Meadow Mountain", "latitude": 43.6781206, "longitude": -74.1656961, "elevation": 782.0, "source": "osm", "_tags": {"ele": "782", "gnis:feature_id": "945032", "name": "Buck Meadow Mountain", "natural": "peak", "wikidata": "Q34806547"}}, {"name": "Buck Mountain", "latitude": 43.3356254, "longitude": -74.1431877, "elevation": 814.0, "source": "osm", "_tags": {"ele": "814", "gnis:feature_id": "945033", "name": "Buck Mountain", "natural": "peak", "wikidata": "Q34806645"}}, {"name": "Buck Mountain", "latitude": 43.6381224, "longitude": -73.7390129, "elevation": 410.0, "source": "osm", "_tags": {"ele": "410", "gnis:feature_id": "945035", "name": "Buck Mountain", "natural": "peak", "wikidata": "Q34806665"}}, {"name": "Buck Mountain", "latitude": 43.6947879, "longitude": -74.4368212, "elevation": 1020.0, "source": "osm", "_tags": {"ele": "1020", "gnis:feature_id": "945036", "name": "Buck Mountain", "natural": "peak", "wikidata": "Q34806588"}}, {"name": "Buck Mountain", "latitude": 43.7764535, "longitude": -74.5790521, "elevation": 760.0, "source": "osm", "_tags": {"ele": "760", "gnis:feature_id": "945038", "name": "Buck Mountain", "natural": "peak", "wikidata": "Q34806597"}}, {"name": "Buck Mountain", "latitude": 43.8717297, "longitude": -74.0534749, "elevation": 667.0, "source": "osm", "_tags": {"ele": "667", "gnis:feature_id": "945039", "name": "Buck Mountain", "natural": "peak", "wikidata": "Q34806553"}}, {"name": "Buck Mountain", "latitude": 43.8897853, "longitude": -74.4040479, "elevation": 802.0, "source": "osm", "_tags": {"ele": "802", "gnis:feature_id": "945040", "name": "Buck Mountain", "natural": "peak", "wikidata": "Q34806605"}}, {"name": "Buck Mountain", "latitude": 44.0444987, "longitude": -73.7148545, "elevation": 641.0, "source": "osm", "_tags": {"ele": "641", "gnis:feature_id": "945042", "name": "Buck Mountain", "natural": "peak", "wikidata": "Q34806567"}}, {"name": "Buck Mountain", "latitude": 44.0528383, "longitude": -74.5326687, "elevation": 729.0, "source": "osm", "_tags": {"ele": "729", "gnis:feature_id": "945043", "name": "Buck Mountain", "natural": "peak", "wikidata": "Q34806621"}}, {"name": "Buck Mountain", "latitude": 44.0645057, "longitude": -74.362662, "elevation": 812.0, "source": "osm", "_tags": {"ele": "812", "gnis:feature_id": "945044", "name": "Buck Mountain", "natural": "peak", "wikidata": "Q34806629"}}, {"name": "Buck Mountain", "latitude": 44.1633932, "longitude": -74.4165547, "elevation": 785.0, "source": "osm", "_tags": {"ele": "785", "gnis:feature_id": "945045", "name": "Buck Mountain", "natural": "peak", "wikidata": "Q34806573"}}, {"name": "Buck Pond Mountain", "latitude": 43.455624, "longitude": -74.6659883, "elevation": 824.0, "source": "osm", "_tags": {"ele": "824", "gnis:feature_id": "945061", "name": "Buck Pond Mountain", "natural": "peak", "wikidata": "Q34806689"}}, {"name": "Buckhorn Mountain", "latitude": 43.4159025, "longitude": -74.470703, "elevation": 661.0, "source": "osm", "_tags": {"ele": "661", "gnis:feature_id": "945073", "name": "Buckhorn Mountain", "natural": "peak", "wikidata": "Q34806710"}}, {"name": "Buckhorn Mountain", "latitude": 43.5208993, "longitude": -74.2212481, "elevation": 877.0, "source": "osm", "_tags": {"ele": "877", "gnis:feature_id": "945074", "name": "Buckhorn Mountain", "natural": "peak", "wikidata": "Q34806718"}}, {"name": "Bucktail Mountain", "latitude": 43.3453486, "longitude": -73.7867876, "elevation": 555.0, "source": "osm", "_tags": {"ele": "555", "gnis:feature_id": "945087", "name": "Bucktail Mountain", "natural": "peak", "wikidata": "Q34806734"}}, {"name": "Buell Mountain", "latitude": 43.7161764, "longitude": -74.4065426, "elevation": 1114.0, "source": "osm", "_tags": {"ele": "1114", "gnis:feature_id": "945105", "name": "Buell Mountain", "natural": "peak", "wikidata": "Q34806767"}}, {"name": "Bull Rock Mountain", "latitude": 43.5995117, "longitude": -73.7506786, "elevation": 489.0, "source": "osm", "_tags": {"ele": "489", "gnis:feature_id": "945133", "name": "Bull Rock Mountain", "natural": "peak", "wikidata": "Q34806846"}}, {"name": "Bullhead Mountain", "latitude": 43.6888873, "longitude": -74.1859305, "elevation": 1042.0, "source": "osm", "_tags": {"ele": "1042", "gnis:feature_id": "945147", "name": "Bullhead Mountain", "natural": "peak", "wikidata": "Q34806862"}}, {"name": "Bullhead Pond Mountain", "latitude": 43.3278488, "longitude": -73.8090105, "elevation": 435.0, "source": "osm", "_tags": {"ele": "435", "gnis:feature_id": "945159", "name": "Bullhead Pond Mountain", "natural": "peak", "wikidata": "Q34806870"}}, {"name": "Burch Mountain", "latitude": 43.5459005, "longitude": -73.8479018, "elevation": 394.0, "source": "osm", "_tags": {"ele": "394", "gnis:feature_id": "945196", "name": "Burch Mountain", "natural": "peak", "wikidata": "Q34806955"}}, {"name": "Burnham Mountain", "latitude": 43.5056222, "longitude": -74.3012517, "elevation": 688.0, "source": "osm", "_tags": {"ele": "688", "gnis:feature_id": "945230", "name": "Burnham Mountain", "natural": "peak", "wikidata": "Q34807011"}}, {"name": "Burnt Mountain", "latitude": 43.4778453, "longitude": -73.9323475, "elevation": 618.0, "source": "osm", "_tags": {"ele": "618", "gnis:feature_id": "945260", "name": "Burnt Mountain", "natural": "peak", "wikidata": "Q34807166"}}, {"name": "Burnt Mountain", "latitude": 43.9553404, "longitude": -74.3737709, "elevation": 779.0, "source": "osm", "_tags": {"ele": "779", "gnis:feature_id": "945263", "name": "Burnt Mountain", "natural": "peak", "wikidata": "Q34807151"}}, {"name": "Calamity Mountain", "latitude": 44.1028328, "longitude": -74.0043132, "elevation": 1099.0, "source": "osm", "_tags": {"ele": "1099", "gnis:feature_id": "945444", "name": "Calamity Mountain", "natural": "peak", "wikidata": "Q34807358"}}, {"name": "Camel Mountain", "latitude": 44.0158884, "longitude": -73.7465213, "elevation": 820.0, "source": "osm", "_tags": {"ele": "820", "gnis:feature_id": "945519", "name": "Camel Mountain", "natural": "peak", "wikidata": "Q34807423"}}, {"name": "Camels Hump", "latitude": 44.0183884, "longitude": -73.7498548, "elevation": 848.0, "source": "osm", "_tags": {"ele": "848", "gnis:feature_id": "945523", "name": "Camels Hump", "natural": "peak", "wikidata": "Q34807450"}}, {"name": "Campground Mountain", "latitude": 43.6556214, "longitude": -73.8906843, "elevation": 396.0, "source": "osm", "_tags": {"ele": "396", "gnis:feature_id": "945711", "name": "Campground Mountain", "natural": "peak", "wikidata": "Q34807484"}}, {"name": "Carey Hill", "latitude": 43.8411725, "longitude": -73.7006837, "elevation": 486.0, "source": "osm", "_tags": {"ele": "486", "gnis:feature_id": "945827", "name": "Carey Hill", "natural": "peak", "wikidata": "Q34807610"}}, {"name": "Carpenter Hill", "latitude": 43.5514568, "longitude": -74.4684851, "elevation": 619.0, "source": "osm", "_tags": {"ele": "619", "gnis:feature_id": "945889", "name": "Carpenter Hill", "natural": "peak", "wikidata": "Q34807675"}}, {"name": "Cascade Mountain", "latitude": 44.2185789, "longitude": -73.8601703, "elevation": 1249.0, "source": "osm", "_tags": {"ele": "1249", "gnis:feature_id": "945952", "name": "Cascade Mountain", "natural": "peak", "tourism": "viewpoint", "wikidata": "Q5048152"}}, {"name": "Casey Mountain", "latitude": 43.7772865, "longitude": -74.1195861, "elevation": 745.0, "source": "osm", "_tags": {"ele": "745", "gnis:feature_id": "945965", "name": "Casey Mountain", "natural": "peak", "wikidata": "Q34807787"}}, {"name": "Cat Mountain", "latitude": 43.5689565, "longitude": -73.7078984, "elevation": 593.0, "source": "osm", "_tags": {"ele": "593", "gnis:feature_id": "946016", "name": "Cat Mountain", "natural": "peak", "wikidata": "Q34807912"}}, {"name": "Cat Mountain", "latitude": 44.0308938, "longitude": -74.530446, "elevation": 668.0, "source": "osm", "_tags": {"ele": "668", "gnis:feature_id": "946018", "name": "Cat Mountain", "natural": "peak", "wikidata": "Q34807895"}}, {"name": "Catamount Hill", "latitude": 43.7545093, "longitude": -73.8642979, "elevation": 482.0, "source": "osm", "_tags": {"ele": "482", "gnis:feature_id": "946023", "name": "Catamount Hill", "natural": "peak", "wikidata": "Q34807936"}}, {"name": "Cathedral Rocks", "latitude": 44.148662, "longitude": -73.7945825, "elevation": 512.0, "source": "osm", "_tags": {"ele": "512", "gnis:feature_id": "946043", "name": "Cathedral Rocks", "natural": "peak", "wikidata": "Q34808051"}}, {"name": "Catlin Mountain", "latitude": 44.0161742, "longitude": -74.2323778, "elevation": 812.0, "source": "osm", "_tags": {"ele": "812", "gnis:feature_id": "946052", "name": "Catlin Mountain", "natural": "peak", "wikidata": "Q34808059"}}, {"name": "Cattle Mountain", "latitude": 43.3842352, "longitude": -74.2048568, "elevation": 638.0, "source": "osm", "_tags": {"ele": "638", "gnis:feature_id": "946070", "name": "Cattle Mountain", "natural": "peak", "wikidata": "Q34808130"}}, {"name": "Cave Hill", "latitude": 43.5211779, "longitude": -74.3262537, "elevation": 588.0, "source": "osm", "_tags": {"ele": "588", "gnis:feature_id": "946077", "name": "Cave Hill", "natural": "peak", "wikidata": "Q34808180"}}, {"name": "Cave Knoll", "latitude": 43.4914556, "longitude": -73.995405, "elevation": 520.0, "source": "osm", "_tags": {"ele": "520", "gnis:feature_id": "946078", "name": "Cave Knoll", "natural": "peak", "wikidata": "Q34808187"}}, {"name": "Cedar Mountain", "latitude": 43.8667306, "longitude": -74.2004268, "elevation": 752.0, "source": "osm", "_tags": {"ele": "752", "gnis:feature_id": "946126", "name": "Cedar Mountain", "natural": "peak", "wikidata": "Q34808350"}}, {"name": "Cellar Mountain", "latitude": 43.6411776, "longitude": -74.4443199, "elevation": 1001.0, "source": "osm", "_tags": {"ele": "1001", "gnis:feature_id": "946165", "name": "Cellar Mountain", "natural": "peak", "wikidata": "Q34808400"}}, {"name": "Cellar Mountain", "latitude": 43.7122879, "longitude": -74.5429375, "elevation": 1038.0, "source": "osm", "_tags": {"ele": "1038", "gnis:feature_id": "946166", "name": "Cellar Mountain", "natural": "peak", "wikidata": "Q34808408"}}, {"name": "Chase Mountain", "latitude": 43.5778451, "longitude": -73.7851233, "elevation": 489.0, "source": "osm", "_tags": {"ele": "489", "gnis:feature_id": "946434", "name": "Chase Mountain", "natural": "peak", "wikidata": "Q34808536"}}, {"name": "Chase Mountain", "latitude": 44.2417145, "longitude": -73.7248599, "elevation": 972.0, "source": "osm", "_tags": {"ele": "972", "gnis:feature_id": "946435", "name": "Chase Mountain", "natural": "peak", "wikidata": "Q34808528"}}, {"name": "Cheney Cobble", "latitude": 44.0445021, "longitude": -73.9648654, "elevation": 1120.0, "source": "osm", "_tags": {"ele": "1120", "gnis:feature_id": "946494", "name": "Cheney Cobble", "natural": "peak", "wikidata": "Q34808596"}}, {"name": "Chimney Mountain", "latitude": 43.6928427, "longitude": -74.2104211, "elevation": 805.0, "source": "osm", "_tags": {"ele": "805", "gnis:feature_id": "946585", "name": "Chimney Mountain", "natural": "peak", "wikidata": "Q34808667"}}, {"name": "Christian Lake Mountain", "latitude": 43.3534023, "longitude": -74.6370951, "elevation": 722.0, "source": "osm", "_tags": {"ele": "722", "gnis:feature_id": "946637", "name": "Christian Lake Mountain", "natural": "peak", "wikidata": "Q34808698"}}, {"name": "Clear Pond Mountain", "latitude": 43.9871454, "longitude": -73.8222207, "elevation": 772.0, "source": "osm", "_tags": {"ele": "772", "gnis:feature_id": "946833", "name": "Clear Pond Mountain", "natural": "peak"}}, {"name": "Coal Dirt Hill", "latitude": 44.2722698, "longitude": -73.7126378, "elevation": 892.0, "source": "osm", "_tags": {"ele": "892", "gnis:feature_id": "946946", "name": "Coal Dirt Hill", "natural": "peak", "wikidata": "Q34808954"}}, {"name": "Cobble Hill", "latitude": 43.6203448, "longitude": -74.5571019, "elevation": 826.0, "source": "osm", "_tags": {"ele": "826", "gnis:feature_id": "946963", "name": "Cobble Hill", "natural": "peak", "wikidata": "Q34809008"}}, {"name": "Cobble Hill", "latitude": 43.8600622, "longitude": -73.9056908, "elevation": 677.0, "source": "osm", "_tags": {"ele": "677", "gnis:feature_id": "946964", "name": "Cobble Hill", "natural": "peak", "wikidata": "Q34808984"}}, {"name": "Cobble Mountain", "latitude": 43.3231267, "longitude": -73.8253999, "elevation": 287.0, "source": "osm", "_tags": {"ele": "287", "gnis:feature_id": "946971", "name": "Cobble Mountain", "natural": "peak", "wikidata": "Q34809058"}}, {"name": "Cobble Mountain", "latitude": 43.3742371, "longitude": -73.7651202, "elevation": 412.0, "source": "osm", "_tags": {"ele": "412", "gnis:feature_id": "946972", "name": "Cobble Mountain", "natural": "peak", "wikidata": "Q34809066"}}, {"name": "Mount Colden", "latitude": 44.1270357, "longitude": -73.9595242, "elevation": 1436.0, "source": "osm", "_tags": {"ele": "1436", "gnis:feature_id": "947091", "name": "Mount Colden", "natural": "peak", "wikidata": "Q6920203"}}, {"name": "Collins Mountain", "latitude": 43.6961762, "longitude": -73.9515204, "elevation": 504.0, "source": "osm", "_tags": {"ele": "504", "gnis:feature_id": "947161", "name": "Collins Mountain", "natural": "peak", "wikidata": "Q34809262"}}, {"name": "Mount Colvin", "latitude": 44.0943021, "longitude": -73.8345616, "elevation": 1235.0, "source": "osm", "_tags": {"ele": "1235", "gnis:feature_id": "947211", "name": "Mount Colvin", "natural": "peak", "wikidata": "Q6920213"}}, {"name": "Coman Mountain", "latitude": 43.3714589, "longitude": -73.8606786, "elevation": 380.0, "source": "osm", "_tags": {"ele": "380", "gnis:feature_id": "947213", "name": "Coman Mountain", "natural": "peak", "wikidata": "Q34809344"}}, {"name": "Constitution Mountain", "latitude": 43.3242378, "longitude": -73.8151218, "elevation": 435.0, "source": "osm", "_tags": {"ele": "435", "gnis:feature_id": "947330", "name": "Constitution Mountain", "natural": "peak", "wikidata": "Q34809436"}}, {"name": "Corliss Mountain", "latitude": 44.2506028, "longitude": -73.7634726, "elevation": 531.0, "source": "osm", "_tags": {"ele": "531", "gnis:feature_id": "947454", "name": "Corliss Mountain", "natural": "peak", "wikidata": "Q34809621"}}, {"name": "Corn Hill", "latitude": 43.3442369, "longitude": -73.9717931, "elevation": 526.0, "source": "osm", "_tags": {"ele": "526", "gnis:feature_id": "947457", "name": "Corn Hill", "natural": "peak", "wikidata": "Q34809628"}}, {"name": "Corner Mountain", "latitude": 43.5208994, "longitude": -74.1684682, "elevation": 697.0, "source": "osm", "_tags": {"ele": "697", "gnis:feature_id": "947470", "name": "Corner Mountain", "natural": "peak", "wikidata": "Q34809642"}}, {"name": "Corrigan Hill", "latitude": 43.3903462, "longitude": -74.2204129, "elevation": 521.0, "source": "osm", "_tags": {"ele": "521", "gnis:feature_id": "947498", "name": "Corrigan Hill", "natural": "peak", "wikidata": "Q34809670"}}, {"name": "Couchsachraga Peak", "latitude": 44.0961509, "longitude": -74.1606609, "elevation": 1157.0, "source": "osm", "_tags": {"ele": "1157", "gnis:feature_id": "947539", "name": "Couchsachraga Peak", "natural": "peak", "wikidata": "Q5175966"}}, {"name": "County Line Mountain", "latitude": 43.6114543, "longitude": -74.2006952, "elevation": 939.0, "source": "osm", "_tags": {"ele": "939", "gnis:feature_id": "947561", "name": "County Line Mountain", "natural": "peak", "wikidata": "Q34809725"}}, {"name": "Crane Mountain", "latitude": 43.5447321, "longitude": -73.9617419, "elevation": 992.0, "source": "osm", "_tags": {"ele": "992", "gnis:feature_id": "947697", "name": "Crane Mountain", "natural": "peak"}}, {"name": "Cross Mountain", "latitude": 43.5764548, "longitude": -74.2845868, "elevation": 830.0, "source": "osm", "_tags": {"ele": "830", "gnis:feature_id": "947807", "name": "Cross Mountain", "natural": "peak", "wikidata": "Q34809908"}}, {"name": "Crotched Pond Mountain", "latitude": 43.6875651, "longitude": -74.2704239, "elevation": 846.0, "source": "osm", "_tags": {"ele": "846", "gnis:feature_id": "947822", "name": "Crotched Pond Mountain", "natural": "peak", "wikidata": "Q34809932"}}, {"name": "Crow Hill", "latitude": 43.7739534, "longitude": -74.2740385, "elevation": 595.0, "source": "osm", "_tags": {"ele": "595", "gnis:feature_id": "947841", "name": "Crow Hill", "natural": "peak", "wikidata": "Q34809966"}}, {"name": "Crusher Hill", "latitude": 43.8395076, "longitude": -74.0140271, "elevation": 672.0, "source": "osm", "_tags": {"ele": "672", "gnis:feature_id": "947878", "name": "Crusher Hill", "natural": "peak", "wikidata": "Q34810053"}}, {"name": "Cutknife Mountain", "latitude": 43.4472901, "longitude": -74.3370859, "elevation": 754.0, "source": "osm", "_tags": {"ele": "754", "gnis:feature_id": "947966", "name": "Cutknife Mountain", "natural": "peak", "wikidata": "Q34810132"}}, {"name": "Darling Mountain", "latitude": 43.3661817, "longitude": -73.7523421, "elevation": 561.0, "source": "osm", "_tags": {"ele": "561", "gnis:feature_id": "948040", "name": "Darling Mountain", "natural": "peak", "wikidata": "Q34810187"}}, {"name": "Davis Mountain", "latitude": 43.5453455, "longitude": -74.4395944, "elevation": 670.0, "source": "osm", "_tags": {"ele": "670", "gnis:feature_id": "948067", "name": "Davis Mountain", "natural": "peak", "wikidata": "Q34810210"}}, {"name": "Davis Mountain", "latitude": 43.7614533, "longitude": -74.1059737, "elevation": 780.0, "source": "osm", "_tags": {"ele": "780", "gnis:feature_id": "948068", "name": "Davis Mountain", "natural": "peak", "wikidata": "Q34810218"}}, {"name": "Deadwood Mountain", "latitude": 43.5720115, "longitude": -73.8315132, "elevation": 392.0, "source": "osm", "_tags": {"ele": "392", "gnis:feature_id": "948131", "name": "Deadwood Mountain", "natural": "peak", "wikidata": "Q34821420"}}, {"name": "Dean Mountain", "latitude": 43.3072935, "longitude": -73.8640121, "elevation": 326.0, "source": "osm", "_tags": {"ele": "326", "gnis:feature_id": "948137", "name": "Dean Mountain", "natural": "peak", "wikidata": "Q34821431"}}, {"name": "Deer Hill", "latitude": 43.4303467, "longitude": -74.4398686, "elevation": 649.0, "source": "osm", "_tags": {"ele": "649", "gnis:feature_id": "948194", "name": "Deer Hill", "natural": "peak", "wikidata": "Q35737195"}}, {"name": "Deer Leap Mountain", "latitude": 43.4364576, "longitude": -73.8851238, "elevation": 533.0, "source": "osm", "_tags": {"ele": "533", "gnis:feature_id": "948205", "name": "Deer Leap Mountain", "natural": "peak", "wikidata": "Q35737258"}}, {"name": "Dexter Mountain", "latitude": 43.3595133, "longitude": -74.6657073, "elevation": 722.0, "source": "osm", "_tags": {"ele": "722", "gnis:feature_id": "948398", "name": "Dexter Mountain", "natural": "peak", "wikidata": "Q49024649"}}, {"name": "Dial Mountain", "latitude": 44.1061605, "longitude": -73.796634, "elevation": 1215.0, "source": "osm", "_tags": {"ele": "1215", "gnis:feature_id": "948403", "name": "Dial Mountain", "natural": "peak", "wikidata": "Q5270468"}}, {"name": "Diamond Mountain", "latitude": 43.6145099, "longitude": -74.1148581, "elevation": 687.0, "source": "osm", "_tags": {"ele": "687", "gnis:feature_id": "948416", "name": "Diamond Mountain", "natural": "peak", "wikidata": "Q49024745"}}, {"name": "Dipper Pond Mountain", "latitude": 43.6575658, "longitude": -73.9020736, "elevation": 356.0, "source": "osm", "_tags": {"ele": "356", "gnis:feature_id": "948468", "name": "Dipper Pond Mountain", "natural": "peak", "wikidata": "Q49024952"}}, {"name": "Dippikill Mountain", "latitude": 43.5756223, "longitude": -73.8742924, "elevation": 476.0, "source": "osm", "_tags": {"ele": "476", "gnis:feature_id": "948469", "name": "Dippikill Mountain", "natural": "peak", "wikidata": "Q49024954"}}, {"name": "Dirgylot Hill", "latitude": 43.8922822, "longitude": -73.7587421, "elevation": 411.0, "source": "osm", "_tags": {"ele": "411", "gnis:feature_id": "948471", "name": "Dirgylot Hill", "natural": "peak"}}, {"name": "Dixon Hill", "latitude": 43.5084017, "longitude": -73.7312303, "elevation": 462.0, "source": "osm", "_tags": {"ele": "462", "gnis:feature_id": "948508", "name": "Dixon Hill", "natural": "peak", "wikidata": "Q49025074"}}, {"name": "Donaldson Mountain", "latitude": 44.1540194, "longitude": -74.211209, "elevation": 1238.0, "source": "osm", "_tags": {"ele": "1238", "gnis:feature_id": "948566", "name": "Donaldson Mountain", "natural": "peak", "wikidata": "Q5295363"}}, {"name": "Driftwood Mountain", "latitude": 43.6300661, "longitude": -74.3657043, "elevation": 653.0, "source": "osm", "_tags": {"ele": "653", "gnis:feature_id": "948653", "name": "Driftwood Mountain", "natural": "peak", "wikidata": "Q34821560"}}, {"name": "Dug Mountain", "latitude": 43.583122, "longitude": -74.345146, "elevation": 980.0, "source": "osm", "_tags": {"ele": "980", "gnis:feature_id": "948767", "name": "Dug Mountain", "natural": "peak", "wikidata": "Q49026085"}}, {"name": "Dugway Mountain", "latitude": 43.3803468, "longitude": -74.3831978, "elevation": 904.0, "source": "osm", "_tags": {"ele": "904", "gnis:feature_id": "948775", "name": "Dugway Mountain", "natural": "peak"}}, {"name": "Dun Brook Mountain", "latitude": 43.8910557, "longitude": -74.3191716, "elevation": 1086.0, "source": "osm", "_tags": {"ele": "1086", "gnis:feature_id": "948778", "name": "Dun Brook Mountain", "natural": "peak", "wikidata": "Q48742012"}}, {"name": "Dunham Mountain", "latitude": 43.4539572, "longitude": -74.3912556, "elevation": 701.0, "source": "osm", "_tags": {"ele": "701", "gnis:feature_id": "948793", "name": "Dunham Mountain", "natural": "peak", "wikidata": "Q49026235"}}, {"name": "Mount Dunham", "latitude": 43.394513, "longitude": -74.3301401, "elevation": 787.0, "source": "osm", "_tags": {"ele": "787", "gnis:feature_id": "948795", "name": "Mount Dunham", "natural": "peak", "wikidata": "Q34881079"}}, {"name": "Dunk Hill", "latitude": 43.8389528, "longitude": -74.1684798, "elevation": 612.0, "source": "osm", "_tags": {"ele": "612", "gnis:feature_id": "948799", "name": "Dunk Hill", "natural": "peak"}}, {"name": "Durant Mountain", "latitude": 43.6600651, "longitude": -74.1234711, "elevation": 728.0, "source": "osm", "_tags": {"ele": "728", "gnis:feature_id": "948827", "name": "Durant Mountain", "natural": "peak", "wikidata": "Q34913332"}}, {"name": "Dutton Mountain", "latitude": 43.7895083, "longitude": -74.0315262, "elevation": 702.0, "source": "osm", "_tags": {"ele": "702", "gnis:feature_id": "948881", "name": "Dutton Mountain", "natural": "peak", "wikidata": "Q34913712"}}, {"name": "Dwyer Mountain", "latitude": 43.3425704, "longitude": -73.9237362, "elevation": 486.0, "source": "osm", "_tags": {"ele": "486", "gnis:feature_id": "948890", "name": "Dwyer Mountain", "natural": "peak", "wikidata": "Q34913737"}}, {"name": "Grace Peak", "latitude": 44.0650526, "longitude": -73.7572439, "elevation": 1227.0, "source": "osm", "_tags": {"ele": "1227", "gnis:feature_id": "949060", "name": "Grace Peak", "natural": "peak", "note": "absolutely gorgeous views;about 45/way from S. Dix.", "old_name": "East Dix", "wikidata": "Q5328237"}}, {"name": "East Hill", "latitude": 44.2636583, "longitude": -73.7626394, "elevation": 507.0, "source": "osm", "_tags": {"ele": "507", "gnis:feature_id": "949119", "name": "East Hill", "natural": "peak", "wikidata": "Q34914435"}}, {"name": "East Inlet Mountain", "latitude": 43.9436734, "longitude": -74.4204391, "elevation": 838.0, "source": "osm", "_tags": {"ele": "838", "gnis:feature_id": "949134", "name": "East Inlet Mountain", "natural": "peak", "wikidata": "Q34914527"}}, {"name": "East Mountain", "latitude": 43.5720108, "longitude": -74.3337561, "elevation": 792.0, "source": "osm", "_tags": {"ele": "792", "gnis:feature_id": "949180", "name": "East Mountain", "natural": "peak", "wikidata": "Q34914632"}}, {"name": "East Notch Mountain", "latitude": 43.3425691, "longitude": -74.6151497, "elevation": 691.0, "source": "osm", "_tags": {"ele": "691", "gnis:feature_id": "949192", "name": "East Notch Mountain", "natural": "peak", "wikidata": "Q34914683"}}, {"name": "Echo Mountain", "latitude": 44.0648915, "longitude": -74.0656246, "elevation": 671.0, "source": "osm", "_tags": {"ele": "671", "gnis:feature_id": "949349", "name": "Echo Mountain", "natural": "peak", "wikidata": "Q34821808"}}, {"name": "Eddy Mountain", "latitude": 43.3972918, "longitude": -73.8612342, "elevation": 410.0, "source": "osm", "_tags": {"ele": "410", "gnis:feature_id": "949359", "name": "Eddy Mountain", "natural": "peak", "wikidata": "Q34821831"}}, {"name": "Edwards Hill", "latitude": 43.6361765, "longitude": -74.0265212, "elevation": 662.0, "source": "osm", "_tags": {"ele": "662", "gnis:feature_id": "949410", "name": "Edwards Hill", "natural": "peak", "wikidata": "Q34821860"}}, {"name": "Eisenglass Mountain", "latitude": 44.2656026, "longitude": -73.8206976, "elevation": 506.0, "source": "osm", "_tags": {"ele": "506", "gnis:feature_id": "949443", "name": "Eisenglass Mountain", "natural": "peak", "wikidata": "Q34821930"}}, {"name": "Eleventh Mountain", "latitude": 43.6142322, "longitude": -74.0720783, "elevation": 1004.0, "source": "osm", "_tags": {"ele": "1004", "gnis:feature_id": "949473", "name": "Eleventh Mountain", "natural": "peak", "wikidata": "Q34821967"}}, {"name": "Elm Hill", "latitude": 43.878952, "longitude": -74.0759763, "elevation": 717.0, "source": "osm", "_tags": {"ele": "717", "gnis:feature_id": "949545", "name": "Elm Hill", "natural": "peak", "wikidata": "Q34822044"}}, {"name": "Ely Mountain", "latitude": 43.2925695, "longitude": -74.5754244, "elevation": 794.0, "source": "osm", "_tags": {"ele": "794", "gnis:feature_id": "949622", "name": "Ely Mountain", "natural": "peak", "wikidata": "Q34822079"}}, {"name": "Mount Emmons", "latitude": 44.1436698, "longitude": -74.2140464, "elevation": 1226.0, "source": "osm", "_tags": {"ele": "1226", "gnis:feature_id": "949645", "name": "Mount Emmons", "natural": "peak", "wikidata": "Q6920641"}}, {"name": "Estelle Mountain", "latitude": 43.7981199, "longitude": -74.5904421, "elevation": 769.0, "source": "osm", "_tags": {"ele": "769", "gnis:feature_id": "949717", "name": "Estelle Mountain", "natural": "peak", "wikidata": "Q34822157"}}, {"name": "Ethan Mountain", "latitude": 43.7286763, "longitude": -73.8701306, "elevation": 579.0, "source": "osm", "_tags": {"ele": "579", "gnis:feature_id": "949723", "name": "Ethan Mountain", "natural": "peak", "wikidata": "Q34822169"}}, {"name": "Finch Mountain", "latitude": 43.3600692, "longitude": -74.3493069, "elevation": 608.0, "source": "osm", "_tags": {"ele": "608", "gnis:feature_id": "950061", "name": "Finch Mountain", "natural": "peak", "wikidata": "Q34868494"}}, {"name": "Fish Mountain", "latitude": 43.4720132, "longitude": -74.4607044, "elevation": 751.0, "source": "osm", "_tags": {"ele": "751", "gnis:feature_id": "950146", "name": "Fish Mountain", "natural": "peak", "wikidata": "Q34868696"}}, {"name": "Fishing Brook Mountain", "latitude": 43.9342303, "longitude": -74.2946002, "elevation": 1082.0, "source": "osm", "_tags": {"ele": "1082", "gnis:feature_id": "950172", "name": "Fishing Brook Mountain", "natural": "peak", "wikidata": "Q34868747"}}, {"name": "Flat Mountain", "latitude": 44.2103264, "longitude": -73.7448597, "elevation": 653.0, "source": "osm", "_tags": {"ele": "653", "gnis:feature_id": "950245", "name": "Flat Mountain", "natural": "peak", "wikidata": "Q34868985"}}, {"name": "Floodwood Mountain", "latitude": 43.6075663, "longitude": -74.363759, "elevation": 824.0, "source": "osm", "_tags": {"ele": "824", "gnis:feature_id": "950293", "name": "Floodwood Mountain", "natural": "peak", "wikidata": "Q34869233"}}, {"name": "Forks Mountain", "latitude": 43.4170133, "longitude": -74.4390348, "elevation": 519.0, "source": "osm", "_tags": {"ele": "519", "gnis:feature_id": "950451", "name": "Forks Mountain", "natural": "peak", "wikidata": "Q34822297"}}, {"name": "Forks Mountain", "latitude": 43.4597891, "longitude": -74.2337474, "elevation": 468.0, "source": "osm", "_tags": {"ele": "468", "gnis:feature_id": "950452", "name": "Forks Mountain", "natural": "peak", "wikidata": "Q34822308"}}, {"name": "Forks Mountain", "latitude": 43.8061749, "longitude": -74.064862, "elevation": 591.0, "source": "osm", "_tags": {"ele": "591", "gnis:feature_id": "950453", "name": "Forks Mountain", "natural": "peak", "wikidata": "Q34822285"}}, {"name": "Fox Hill", "latitude": 43.6739552, "longitude": -73.7392921, "elevation": 459.0, "source": "osm", "_tags": {"ele": "459", "gnis:feature_id": "950564", "name": "Fox Hill", "natural": "peak", "wikidata": "Q34822656"}}, {"name": "Fox Hill", "latitude": 43.7953417, "longitude": -74.0609725, "elevation": 552.0, "source": "osm", "_tags": {"ele": "552", "gnis:feature_id": "950565", "name": "Fox Hill", "natural": "peak", "wikidata": "Q34822600"}}, {"name": "Fox Mountain", "latitude": 43.8136751, "longitude": -74.671835, "elevation": 626.0, "source": "osm", "_tags": {"ele": "626", "gnis:feature_id": "950577", "name": "Fox Mountain", "natural": "peak", "wikidata": "Q34822688"}}, {"name": "Mount Francisco", "latitude": 43.4522909, "longitude": -74.442925, "elevation": 696.0, "source": "osm", "_tags": {"ele": "696", "gnis:feature_id": "950595", "name": "Mount Francisco", "natural": "peak", "wikidata": "Q34881356"}}, {"name": "Franks Hill", "latitude": 43.7878413, "longitude": -73.713739, "elevation": 508.0, "source": "osm", "_tags": {"ele": "508", "gnis:feature_id": "950639", "name": "Franks Hill", "natural": "peak", "wikidata": "Q34869808"}}, {"name": "G Lake Mountain", "latitude": 43.4172909, "longitude": -74.6429308, "elevation": 737.0, "source": "osm", "_tags": {"ele": "737", "gnis:feature_id": "950829", "name": "G Lake Mountain", "natural": "peak", "wikidata": "Q34915358"}}, {"name": "Gage Mountain", "latitude": 43.5978442, "longitude": -73.8917936, "elevation": 621.0, "source": "osm", "_tags": {"ele": "621", "gnis:feature_id": "950837", "name": "Gage Mountain", "natural": "peak", "wikidata": "Q34915394"}}, {"name": "Garner Hill", "latitude": 43.3775697, "longitude": -73.9092912, "elevation": 421.0, "source": "osm", "_tags": {"ele": "421", "gnis:feature_id": "950913", "name": "Garner Hill", "natural": "peak", "wikidata": "Q34915691"}}, {"name": "Gates Hill", "latitude": 43.6506214, "longitude": -74.3473708, "elevation": 613.0, "source": "osm", "_tags": {"ele": "613", "gnis:feature_id": "950946", "name": "Gates Hill", "natural": "peak", "wikidata": "Q34915874"}}, {"name": "Gene Edwards Mountain", "latitude": 43.3645136, "longitude": -74.127354, "elevation": 793.0, "source": "osm", "_tags": {"ele": "793", "gnis:feature_id": "950981", "name": "Gene Edwards Mountain", "natural": "peak", "wikidata": "Q34916048"}}, {"name": "Georgia Mountain", "latitude": 43.4803444, "longitude": -74.1643004, "elevation": 692.0, "source": "osm", "_tags": {"ele": "692", "gnis:feature_id": "951022", "name": "Georgia Mountain", "natural": "peak", "wikidata": "Q34916061"}}, {"name": "Gilbert Hill", "latitude": 43.3606256, "longitude": -73.9156803, "elevation": 440.0, "source": "osm", "_tags": {"ele": "440", "gnis:feature_id": "951094", "name": "Gilbert Hill", "natural": "peak", "wikidata": "Q34916348"}}, {"name": "Gill Mountain", "latitude": 43.40868, "longitude": -73.9465145, "elevation": 575.0, "source": "osm", "_tags": {"ele": "575", "gnis:feature_id": "951117", "name": "Gill Mountain", "natural": "peak", "wikidata": "Q34916398"}}, {"name": "Gillingham Knoll", "latitude": 43.5120107, "longitude": -74.0351292, "elevation": 581.0, "source": "osm", "_tags": {"ele": "581", "gnis:feature_id": "951128", "name": "Gillingham Knoll", "natural": "peak", "wikidata": "Q34916424"}}, {"name": "Goodluck Mountain", "latitude": 43.6172893, "longitude": -74.5432124, "elevation": 822.0, "source": "osm", "_tags": {"ele": "822", "gnis:feature_id": "951330", "name": "Goodluck Mountain", "natural": "peak", "wikidata": "Q34916750"}}, {"name": "Goodnow Mountain", "latitude": 43.9600671, "longitude": -74.209852, "elevation": 812.0, "source": "osm", "_tags": {"ele": "812", "gnis:feature_id": "951333", "name": "Goodnow Mountain", "natural": "peak", "wikidata": "Q34916777"}}, {"name": "Gooseberry Hill", "latitude": 43.8875599, "longitude": -73.727352, "elevation": 375.0, "source": "osm", "_tags": {"ele": "375", "gnis:feature_id": "951378", "name": "Gooseberry Hill", "natural": "peak", "wikidata": "Q34916840"}}, {"name": "Gooseberry Mountain", "latitude": 44.0592287, "longitude": -74.2418236, "elevation": 744.0, "source": "osm", "_tags": {"ele": "744", "gnis:feature_id": "951379", "name": "Gooseberry Mountain", "natural": "peak", "wikidata": "Q34916853"}}, {"name": "Gooseberry Mountain", "latitude": 44.1374808, "longitude": -73.8751591, "elevation": 1086.0, "source": "osm", "_tags": {"ele": "1086", "gnis:feature_id": "951380", "name": "Gooseberry Mountain", "natural": "peak", "wikidata": "Q34916865"}}, {"name": "Gore Mountain", "latitude": 43.672954, "longitude": -74.0488526, "elevation": 1086.0, "source": "osm", "_tags": {"ele": "1086", "gnis:feature_id": "951389", "name": "Gore Mountain", "natural": "peak", "source": "NAVD88"}}, {"name": "Grampus Lake Mountain", "latitude": 44.0411721, "longitude": -74.4418313, "elevation": 845.0, "source": "osm", "_tags": {"ele": "845", "gnis:feature_id": "951471", "name": "Grampus Lake Mountain", "natural": "peak", "wikidata": "Q49032597"}}, {"name": "Grass Mountain", "latitude": 43.4775684, "longitude": -74.6532109, "elevation": 904.0, "source": "osm", "_tags": {"ele": "904", "gnis:feature_id": "951542", "name": "Grass Mountain", "natural": "peak", "wikidata": "Q34822747"}}, {"name": "Grasshopper Hill", "latitude": 43.7222879, "longitude": -73.7770726, "elevation": 408.0, "source": "osm", "_tags": {"ele": "408", "gnis:feature_id": "951558", "name": "Grasshopper Hill", "natural": "peak", "wikidata": "Q34822803"}}, {"name": "Green Hill", "latitude": 43.7628425, "longitude": -73.8517978, "elevation": 638.0, "source": "osm", "_tags": {"ele": "638", "gnis:feature_id": "951683", "name": "Green Hill", "natural": "peak", "wikidata": "Q34870144"}}, {"name": "Green Mountain", "latitude": 43.8325631, "longitude": -73.9565248, "elevation": 852.0, "source": "osm", "_tags": {"ele": "852", "gnis:feature_id": "951709", "name": "Green Mountain", "natural": "peak", "wikidata": "Q34870238"}}, {"name": "Green Mountain", "latitude": 44.1822824, "longitude": -73.7148289, "elevation": 1203.0, "source": "osm", "_tags": {"ele": "1203", "gnis:feature_id": "951710", "name": "Green Mountain", "natural": "peak", "website": "https://www.dec.ny.gov/lands/100750.html", "wikidata": "Q34870249"}}, {"name": "Green Top", "latitude": 43.7553428, "longitude": -74.5923854, "elevation": 788.0, "source": "osm", "_tags": {"ele": "788", "gnis:feature_id": "951733", "name": "Green Top", "natural": "peak", "wikidata": "Q34870282"}}, {"name": "Groff Mountain", "latitude": 43.3150698, "longitude": -74.28097, "elevation": 540.0, "source": "osm", "_tags": {"ele": "540", "gnis:feature_id": "951840", "name": "Groff Mountain", "natural": "peak", "wikidata": "Q34870516"}}, {"name": "Guideboard Hill", "latitude": 43.4736785, "longitude": -74.3251413, "elevation": 666.0, "source": "osm", "_tags": {"ele": "666", "gnis:feature_id": "951899", "name": "Guideboard Hill", "natural": "peak", "wikidata": "Q34870764"}}, {"name": "Guideboard Hill", "latitude": 44.0142276, "longitude": -74.0648694, "elevation": 664.0, "source": "osm", "_tags": {"ele": "664", "gnis:feature_id": "951900", "name": "Guideboard Hill", "natural": "peak", "wikidata": "Q34870751"}}, {"name": "Hackensack Mountain", "latitude": 43.5036794, "longitude": -73.7742869, "elevation": 411.0, "source": "osm", "_tags": {"ele": "411", "gnis:feature_id": "951970", "name": "Hackensack Mountain", "natural": "peak", "wikidata": "Q34873715"}}, {"name": "Hadley Mountain", "latitude": 43.3811804, "longitude": -73.9690152, "elevation": 807.0, "source": "osm", "_tags": {"ele": "807", "gnis:feature_id": "951977", "name": "Hadley Mountain", "natural": "peak"}}, {"name": "Hamilton Mountain", "latitude": 43.412013, "longitude": -74.3673645, "elevation": 980.0, "source": "osm", "_tags": {"ele": "980", "gnis:feature_id": "952101", "name": "Hamilton Mountain", "natural": "peak", "wikidata": "Q34823129"}}, {"name": "Hammond Lot Mountain", "latitude": 43.3739587, "longitude": -73.8967908, "elevation": 410.0, "source": "osm", "_tags": {"ele": "410", "gnis:feature_id": "952128", "name": "Hammond Lot Mountain", "natural": "peak", "wikidata": "Q34823197"}}, {"name": "Hardhack Hill", "latitude": 43.7939527, "longitude": -73.8220756, "elevation": 425.0, "source": "osm", "_tags": {"ele": "425", "gnis:feature_id": "952202", "name": "Hardhack Hill", "natural": "peak", "wikidata": "Q34823273"}}, {"name": "Hardwood Hill", "latitude": 43.5528452, "longitude": -74.4173712, "elevation": 622.0, "source": "osm", "_tags": {"ele": "622", "gnis:feature_id": "952215", "name": "Hardwood Hill", "natural": "peak", "wikidata": "Q34874000"}}, {"name": "Harrington Mountain", "latitude": 43.535066, "longitude": -74.1059661, "elevation": 783.0, "source": "osm", "_tags": {"ele": "783", "gnis:feature_id": "952255", "name": "Harrington Mountain", "natural": "peak", "wikidata": "Q34823329"}}, {"name": "Harris Rift Mountain", "latitude": 43.8045083, "longitude": -74.0854186, "elevation": 549.0, "source": "osm", "_tags": {"ele": "549", "gnis:feature_id": "952275", "name": "Harris Rift Mountain", "natural": "peak", "wikidata": "Q34823421"}}, {"name": "Harvey Mountain", "latitude": 43.7086759, "longitude": -74.0773593, "elevation": 678.0, "source": "osm", "_tags": {"ele": "678", "gnis:feature_id": "952332", "name": "Harvey Mountain", "natural": "peak", "wikidata": "Q34823515"}}, {"name": "Hawk Hill", "latitude": 43.7181211, "longitude": -73.7220709, "elevation": 395.0, "source": "osm", "_tags": {"ele": "395", "gnis:feature_id": "952396", "name": "Hawk Hill", "natural": "peak", "wikidata": "Q34823677"}}, {"name": "Hayden Mountain", "latitude": 43.6433985, "longitude": -74.1812511, "elevation": 842.0, "source": "osm", "_tags": {"ele": "842", "gnis:feature_id": "952440", "name": "Hayden Mountain", "natural": "peak", "wikidata": "Q34823756"}}, {"name": "Hayes Mountain", "latitude": 43.8706177, "longitude": -73.9212472, "elevation": 834.0, "source": "osm", "_tags": {"ele": "834", "gnis:feature_id": "952445", "name": "Hayes Mountain", "natural": "peak", "wikidata": "Q34823767"}}, {"name": "Haystack Mountain", "latitude": 43.4167354, "longitude": -74.3940325, "elevation": 710.0, "source": "osm", "_tags": {"ele": "710", "gnis:feature_id": "952460", "name": "Haystack Mountain", "natural": "peak", "wikidata": "Q34921160"}}, {"name": "Heath Mountain", "latitude": 43.51229, "longitude": -73.8265111, "elevation": 391.0, "source": "osm", "_tags": {"ele": "391", "gnis:feature_id": "952494", "name": "Heath Mountain", "natural": "peak", "wikidata": "Q34921266"}}, {"name": "Heaven Hill", "latitude": 44.2489356, "longitude": -74.0034838, "elevation": 732.0, "source": "osm", "_tags": {"ele": "732", "gnis:feature_id": "952499", "name": "Heaven Hill", "natural": "peak", "wikidata": "Q34921291"}}, {"name": "Hedgehog Hill", "latitude": 43.8567284, "longitude": -73.8042985, "elevation": 410.0, "source": "osm", "_tags": {"ele": "410", "gnis:feature_id": "952519", "name": "Hedgehog Hill", "natural": "peak", "wikidata": "Q34921447"}}, {"name": "Hedgehog Hill", "latitude": 43.9906176, "longitude": -74.0890365, "elevation": 626.0, "source": "osm", "_tags": {"ele": "626", "gnis:feature_id": "952520", "name": "Hedgehog Hill", "natural": "peak", "wikidata": "Q34921461"}}, {"name": "Hedgehog Mountain", "latitude": 44.159495, "longitude": -73.8109724, "elevation": 1029.0, "source": "osm", "_tags": {"ele": "1029", "gnis:feature_id": "952523", "name": "Hedgehog Mountain", "natural": "peak", "wikidata": "Q34921499"}}, {"name": "Height of Land Mountain", "latitude": 43.6517319, "longitude": -74.0598567, "elevation": 897.0, "source": "osm", "_tags": {"ele": "897", "gnis:feature_id": "952531", "name": "Height of Land Mountain", "natural": "peak", "wikidata": "Q34921618"}}, {"name": "Hemlock Cobble", "latitude": 43.632288, "longitude": -74.3201465, "elevation": 623.0, "source": "osm", "_tags": {"ele": "623", "gnis:feature_id": "952555", "name": "Hemlock Cobble", "natural": "peak", "wikidata": "Q34921706"}}, {"name": "Henderson Mountain", "latitude": 43.7256207, "longitude": -73.8967978, "elevation": 621.0, "source": "osm", "_tags": {"ele": "621", "gnis:feature_id": "952591", "name": "Henderson Mountain", "natural": "peak", "wikidata": "Q34921835"}}, {"name": "Henderson Mountain", "latitude": 44.0978353, "longitude": -74.0976509, "elevation": 1130.0, "source": "osm", "_tags": {"ele": "1130", "gnis:feature_id": "952592", "name": "Henderson Mountain", "natural": "peak", "wikidata": "Q34921822"}}, {"name": "Hewitt Pond Mountain", "latitude": 43.8817291, "longitude": -73.9798607, "elevation": 741.0, "source": "osm", "_tags": {"ele": "741", "gnis:feature_id": "952658", "name": "Hewitt Pond Mountain", "natural": "peak", "wikidata": "Q34921991"}}, {"name": "Hoffman Mountain", "latitude": 43.9114489, "longitude": -73.8168, "elevation": 1129.0, "source": "osm", "_tags": {"ele": "1129", "gnis:feature_id": "952926", "name": "Hoffman Mountain", "natural": "peak", "wikidata": "Q34823870"}}, {"name": "Holmes Hill", "latitude": 43.4006249, "longitude": -73.8881794, "elevation": 271.0, "source": "osm", "_tags": {"ele": "271", "gnis:feature_id": "953016", "name": "Holmes Hill", "natural": "peak", "wikidata": "Q34824161"}}, {"name": "Hopkins Mountain", "latitude": 44.1834905, "longitude": -73.7491652, "elevation": 962.0, "source": "osm", "_tags": {"ele": "962", "gnis:feature_id": "953201", "name": "Hopkins Mountain", "natural": "peak", "wikidata": "Q34923055"}}, {"name": "Hornet Cobbles", "latitude": 43.9339319, "longitude": -73.8453269, "elevation": 727.0, "source": "osm", "_tags": {"ele": "727", "gnis:feature_id": "953218", "name": "Hornet Cobbles", "natural": "peak"}}, {"name": "Horseshoe Mountain", "latitude": 43.6167321, "longitude": -74.2173629, "elevation": 841.0, "source": "osm", "_tags": {"ele": "841", "gnis:feature_id": "953243", "name": "Horseshoe Mountain", "natural": "peak", "wikidata": "Q34874296"}}, {"name": "Hough Peak", "latitude": 44.0695439, "longitude": -73.7777716, "elevation": 1341.0, "source": "osm", "_tags": {"ele": "1341", "gnis:feature_id": "953279", "name": "Hough Peak", "natural": "peak", "wikidata": "Q5912859", "wikipedia": "en:Hough Peak"}}, {"name": "Hour Pond Mountain", "latitude": 43.7128426, "longitude": -74.1556969, "elevation": 868.0, "source": "osm", "_tags": {"ele": "868", "gnis:feature_id": "953290", "name": "Hour Pond Mountain", "natural": "peak", "wikidata": "Q34824267"}}, {"name": "Howard Hill", "latitude": 43.9761729, "longitude": -74.0615346, "elevation": 654.0, "source": "osm", "_tags": {"ele": "654", "gnis:feature_id": "953307", "name": "Howard Hill", "natural": "peak", "wikidata": "Q34824289"}}, {"name": "Howard Mountain", "latitude": 44.1583844, "longitude": -73.8912539, "elevation": 1170.0, "source": "osm", "_tags": {"ele": "1170", "gnis:feature_id": "953310", "name": "Howard Mountain", "natural": "peak", "wikidata": "Q34824312"}}, {"name": "Howe Mountain", "latitude": 43.39007, "longitude": -73.7995656, "elevation": 433.0, "source": "osm", "_tags": {"ele": "433", "gnis:feature_id": "953316", "name": "Howe Mountain", "natural": "peak", "wikidata": "Q34824336"}}, {"name": "Huckleberry Mountain", "latitude": 43.4195136, "longitude": -73.8506783, "elevation": 527.0, "source": "osm", "_tags": {"ele": "527", "gnis:feature_id": "953373", "name": "Huckleberry Mountain", "natural": "peak", "wikidata": "Q34824430"}}, {"name": "Huckleberry Mountain", "latitude": 43.5664551, "longitude": -73.9687394, "elevation": 745.0, "source": "osm", "_tags": {"ele": "745", "gnis:feature_id": "953374", "name": "Huckleberry Mountain", "natural": "peak", "wikidata": "Q34824441"}}, {"name": "Huckleberry Mountain", "latitude": 43.6686768, "longitude": -73.8948515, "elevation": 403.0, "source": "osm", "_tags": {"ele": "403", "gnis:feature_id": "953375", "name": "Huckleberry Mountain", "natural": "peak", "wikidata": "Q34824454"}}, {"name": "Hughes Mountain", "latitude": 43.3292375, "longitude": -73.887624, "elevation": 470.0, "source": "osm", "_tags": {"ele": "470", "gnis:feature_id": "953409", "name": "Hughes Mountain", "natural": "peak", "wikidata": "Q34824547"}}, {"name": "Humphrey Mountain", "latitude": 43.6347875, "longitude": -74.2376424, "elevation": 907.0, "source": "osm", "_tags": {"ele": "907", "gnis:feature_id": "953437", "name": "Humphrey Mountain", "natural": "peak", "wikidata": "Q34824578"}}, {"name": "Hurricane Mountain", "latitude": 44.235326, "longitude": -73.7106926, "elevation": 1121.0, "source": "osm", "_tags": {"ele": "1121", "gnis:feature_id": "953531", "name": "Hurricane Mountain", "natural": "peak", "wikidata": "Q8526995"}}, {"name": "Indian Cobble Mountain", "latitude": 43.3314596, "longitude": -73.9020688, "elevation": 550.0, "source": "osm", "_tags": {"ele": "550", "gnis:feature_id": "953636", "name": "Indian Cobble Mountain", "natural": "peak", "wikidata": "Q34824783"}}, {"name": "Indian Head", "latitude": 43.4589574, "longitude": -74.4232019, "elevation": 723.0, "source": "osm", "_tags": {"ele": "723", "gnis:feature_id": "953653", "name": "Indian Head", "natural": "peak", "wikidata": "Q34824807"}}, {"name": "Indian Head", "latitude": 44.1131082, "longitude": -73.8209717, "elevation": 813.0, "source": "osm", "_tags": {"ele": "813", "gnis:feature_id": "953654", "name": "Indian Head", "natural": "peak", "wikidata": "Q34824795"}}, {"name": "Irondequoit Mountain", "latitude": 43.4009023, "longitude": -74.5890398, "elevation": 722.0, "source": "osm", "_tags": {"ele": "722", "gnis:feature_id": "953783", "name": "Irondequoit Mountain", "natural": "peak", "wikidata": "Q34825056"}}, {"name": "Jacksons Seat", "latitude": 43.2911814, "longitude": -74.2565244, "elevation": 422.0, "source": "osm", "_tags": {"ele": "422", "gnis:feature_id": "953900", "name": "Jacksons Seat", "natural": "peak", "wikidata": "Q34875831"}}, {"name": "Jeffers Mountain", "latitude": 43.3084045, "longitude": -73.8817904, "elevation": 426.0, "source": "osm", "_tags": {"ele": "426", "gnis:feature_id": "953957", "name": "Jeffers Mountain", "natural": "peak", "wikidata": "Q34876289"}}, {"name": "Mount Jo", "latitude": 44.1894242, "longitude": -73.9673982, "elevation": 877.0, "source": "osm", "_tags": {"ele": "877", "gnis:feature_id": "954039", "name": "Mount Jo", "natural": "peak", "wikidata": "Q14707023"}}, {"name": "Joe Baker Sag", "latitude": 43.4195135, "longitude": -73.8684777, "elevation": 319.0, "source": "osm", "_tags": {"ele": "319", "gnis:feature_id": "954049", "name": "Joe Baker Sag", "natural": "peak", "wikidata": "Q34876691"}}, {"name": "Johnson Mountain", "latitude": 43.6500656, "longitude": -73.9356853, "elevation": 421.0, "source": "osm", "_tags": {"ele": "421", "gnis:feature_id": "954128", "name": "Johnson Mountain", "natural": "peak", "wikidata": "Q34876918"}}, {"name": "Jones Hill", "latitude": 43.8764498, "longitude": -73.7887428, "elevation": 567.0, "source": "osm", "_tags": {"ele": "567", "gnis:feature_id": "954174", "name": "Jones Hill", "natural": "peak", "wikidata": "Q34876988"}}, {"name": "Jones Mountain", "latitude": 43.3192376, "longitude": -73.897902, "elevation": 407.0, "source": "osm", "_tags": {"ele": "407", "gnis:feature_id": "954183", "name": "Jones Mountain", "natural": "peak", "wikidata": "Q34877094"}}, {"name": "Joseph Mountain", "latitude": 43.9245084, "longitude": -74.2465423, "elevation": 752.0, "source": "osm", "_tags": {"ele": "752", "gnis:feature_id": "954200", "name": "Joseph Mountain", "natural": "peak", "wikidata": "Q34825159"}}, {"name": "Jug Mountain", "latitude": 44.0214439, "longitude": -73.7109649, "elevation": 528.0, "source": "osm", "_tags": {"ele": "528", "gnis:feature_id": "954219", "name": "Jug Mountain", "natural": "peak", "wikidata": "Q34825195"}}, {"name": "Kays Hill", "latitude": 43.9089512, "longitude": -74.015141, "elevation": 655.0, "source": "osm", "_tags": {"ele": "655", "gnis:feature_id": "954415", "name": "Kays Hill", "natural": "peak", "wikidata": "Q34825332"}}, {"name": "Kellogg Mountain", "latitude": 43.810897, "longitude": -74.0454166, "elevation": 639.0, "source": "osm", "_tags": {"ele": "639", "gnis:feature_id": "954457", "name": "Kellogg Mountain", "natural": "peak", "wikidata": "Q34825435"}}, {"name": "Kellum Mountain", "latitude": 43.5442346, "longitude": -73.7659548, "elevation": 489.0, "source": "osm", "_tags": {"ele": "489", "gnis:feature_id": "954462", "name": "Kellum Mountain", "natural": "peak", "wikidata": "Q34825447"}}, {"name": "Kempshall Mountain", "latitude": 44.0236734, "longitude": -74.3271041, "elevation": 1021.0, "source": "osm", "_tags": {"ele": "1021", "gnis:feature_id": "954487", "name": "Kempshall Mountain", "natural": "peak", "wikidata": "Q49041166"}}, {"name": "Kenyon Mountain", "latitude": 43.3864591, "longitude": -73.7734537, "elevation": 435.0, "source": "osm", "_tags": {"ele": "435", "gnis:feature_id": "954544", "name": "Kenyon Mountain", "natural": "peak", "wikidata": "Q49041279"}}, {"name": "Kettle Mountain", "latitude": 43.550066, "longitude": -74.0831878, "elevation": 816.0, "source": "osm", "_tags": {"ele": "816", "gnis:feature_id": "954566", "name": "Kettle Mountain", "natural": "peak", "wikidata": "Q49041353"}}, {"name": "Kettle Mountain", "latitude": 43.8095083, "longitude": -74.1040308, "elevation": 580.0, "source": "osm", "_tags": {"ele": "580", "gnis:feature_id": "954567", "name": "Kettle Mountain", "natural": "peak"}}, {"name": "King Vly Mountain", "latitude": 43.320903, "longitude": -74.3037488, "elevation": 543.0, "source": "osm", "_tags": {"ele": "543", "gnis:feature_id": "954643", "name": "King Vly Mountain", "natural": "peak", "wikidata": "Q48742330"}}, {"name": "Kipp Mountain", "latitude": 43.6989546, "longitude": -73.8392955, "elevation": 490.0, "source": "osm", "_tags": {"ele": "490", "gnis:feature_id": "954702", "name": "Kipp Mountain", "natural": "peak", "wikidata": "Q49041855"}}, {"name": "Kitty Cobble", "latitude": 43.6295111, "longitude": -74.6229377, "elevation": 983.0, "source": "osm", "_tags": {"ele": "983", "gnis:feature_id": "954731", "name": "Kitty Cobble", "natural": "peak", "wikidata": "Q49041955"}}, {"name": "Knob Lock Mountain", "latitude": 44.2003271, "longitude": -73.7073583, "elevation": 961.0, "source": "osm", "_tags": {"ele": "961", "gnis:feature_id": "954784", "name": "Knob Lock Mountain", "natural": "peak"}}, {"name": "Kunjamuk Mountain", "latitude": 43.6658986, "longitude": -74.2854238, "elevation": 905.0, "source": "osm", "_tags": {"ele": "905", "gnis:feature_id": "954832", "name": "Kunjamuk Mountain", "natural": "peak", "wikidata": "Q48742071"}}, {"name": "Lamb Hill", "latitude": 43.5434013, "longitude": -73.7259536, "elevation": 441.0, "source": "osm", "_tags": {"ele": "441", "gnis:feature_id": "954999", "name": "Lamb Hill", "natural": "peak", "wikidata": "Q49043339"}}, {"name": "Landing Hill", "latitude": 44.0108955, "longitude": -74.3609942, "elevation": 681.0, "source": "osm", "_tags": {"ele": "681", "gnis:feature_id": "955021", "name": "Landing Hill", "natural": "peak", "wikidata": "Q34825546"}}, {"name": "Laramore Mountain", "latitude": 44.2258813, "longitude": -73.8501427, "elevation": 1008.0, "source": "osm", "_tags": {"ele": "1008", "gnis:feature_id": "955057", "name": "Laramore Mountain", "natural": "peak", "wikidata": "Q34825635"}}, {"name": "LeClair Hill", "latitude": 43.9714464, "longitude": -73.7893001, "elevation": 558.0, "source": "osm", "_tags": {"ele": "558", "gnis:feature_id": "955131", "name": "LeClair Hill", "natural": "peak", "wikidata": "Q34825954"}}, {"name": "Ledge Hill", "latitude": 43.7717312, "longitude": -73.820964, "elevation": 610.0, "source": "osm", "_tags": {"ele": "610", "gnis:feature_id": "955154", "name": "Ledge Hill", "natural": "peak", "wikidata": "Q34825966"}}, {"name": "Leland Hill", "latitude": 43.7903417, "longitude": -73.7648518, "elevation": 397.0, "source": "osm", "_tags": {"ele": "397", "gnis:feature_id": "955187", "name": "Leland Hill", "natural": "peak", "wikidata": "Q34923776"}}, {"name": "Lewey Mountain", "latitude": 43.6642328, "longitude": -74.4412649, "elevation": 1117.0, "source": "osm", "_tags": {"ele": "1117", "gnis:feature_id": "955238", "name": "Lewey Mountain", "natural": "peak", "wikidata": "Q34923965"}}, {"name": "Lightning Hill", "latitude": 44.0303344, "longitude": -73.8604157, "elevation": 846.0, "source": "osm", "_tags": {"ele": "846", "gnis:feature_id": "955295", "name": "Lightning Hill", "natural": "peak", "wikidata": "Q34826046"}}, {"name": "Little Beaver Mountain", "latitude": 43.8803411, "longitude": -74.1159785, "elevation": 795.0, "source": "osm", "_tags": {"ele": "795", "gnis:feature_id": "955460", "name": "Little Beaver Mountain", "natural": "peak", "wikidata": "Q34826255"}}, {"name": "Little Blue Mountain", "latitude": 43.8839517, "longitude": -74.4782176, "elevation": 852.0, "source": "osm", "_tags": {"ele": "852", "gnis:feature_id": "955466", "name": "Little Blue Mountain", "natural": "peak", "wikidata": "Q34826267"}}, {"name": "Little Crow Mountain", "latitude": 44.2650472, "longitude": -73.7479165, "elevation": 783.0, "source": "osm", "_tags": {"ele": "783", "gnis:feature_id": "955505", "name": "Little Crow Mountain", "natural": "peak", "wikidata": "Q34826428"}}, {"name": "Little Far Mountain", "latitude": 44.0167218, "longitude": -73.714576, "elevation": 535.0, "source": "osm", "_tags": {"ele": "535", "gnis:feature_id": "955523", "name": "Little Far Mountain", "natural": "peak", "wikidata": "Q34826486"}}, {"name": "Little Goldmine Hill", "latitude": 43.335069, "longitude": -74.6618175, "elevation": 671.0, "source": "osm", "_tags": {"ele": "671", "gnis:feature_id": "955542", "name": "Little Goldmine Hill", "natural": "peak", "wikidata": "Q34826533"}}, {"name": "Little Hardwood Hill", "latitude": 43.640899, "longitude": -74.3176467, "elevation": 655.0, "source": "osm", "_tags": {"ele": "655", "gnis:feature_id": "955550", "name": "Little Hardwood Hill", "natural": "peak", "wikidata": "Q34826544"}}, {"name": "Little Haystack", "latitude": 44.1105357, "longitude": -73.9005799, "elevation": 1421.0, "source": "osm", "_tags": {"ele": "1421", "gnis:feature_id": "955551", "name": "Little Haystack", "natural": "peak", "wikidata": "Q34826557"}}, {"name": "Little Hopkins Mountain", "latitude": 43.5922878, "longitude": -74.1304135, "elevation": 664.0, "source": "osm", "_tags": {"ele": "664", "gnis:feature_id": "955557", "name": "Little Hopkins Mountain", "natural": "peak", "wikidata": "Q34826592"}}, {"name": "Little Mill Mountain", "latitude": 43.8033977, "longitude": -74.2804287, "elevation": 603.0, "source": "osm", "_tags": {"ele": "603", "gnis:feature_id": "955591", "name": "Little Mill Mountain", "natural": "peak", "wikidata": "Q34826710"}}, {"name": "Little Moose Mountain", "latitude": 43.6700663, "longitude": -74.5707151, "elevation": 1100.0, "source": "osm", "_tags": {"ele": "1100", "gnis:feature_id": "955594", "name": "Little Moose Mountain", "natural": "peak", "wikidata": "Q34826722"}}, {"name": "Little Mountain", "latitude": 43.4842341, "longitude": -73.9209582, "elevation": 517.0, "source": "osm", "_tags": {"ele": "517", "gnis:feature_id": "955601", "name": "Little Mountain", "natural": "peak", "wikidata": "Q34826802"}}, {"name": "Little Mountain", "latitude": 43.5250666, "longitude": -73.9570712, "elevation": 736.0, "source": "osm", "_tags": {"ele": "736", "gnis:feature_id": "955602", "name": "Little Mountain", "natural": "peak", "wikidata": "Q34826814"}}, {"name": "Little Nippletop", "latitude": 44.0853327, "longitude": -73.9201422, "elevation": 1132.0, "source": "osm", "_tags": {"ele": "1132", "gnis:feature_id": "955613", "name": "Little Nippletop", "natural": "peak", "wikidata": "Q34924485"}}, {"name": "Little Pisgah Mountain", "latitude": 43.8450641, "longitude": -74.219316, "elevation": 614.0, "source": "osm", "_tags": {"ele": "614", "gnis:feature_id": "955629", "name": "Little Pisgah Mountain", "natural": "peak", "wikidata": "Q34924531"}}, {"name": "Little Porter Mountain", "latitude": 44.2005298, "longitude": -73.8276306, "elevation": 847.0, "source": "osm", "_tags": {"ele": "847", "gnis:feature_id": "955642", "name": "Little Porter Mountain", "natural": "peak", "wikidata": "Q34924554"}}, {"name": "Little Roundtop Mountain", "latitude": 43.3331251, "longitude": -74.336528, "elevation": 595.0, "source": "osm", "_tags": {"ele": "595", "gnis:feature_id": "955673", "name": "Little Roundtop Mountain", "natural": "peak", "wikidata": "Q34924701"}}, {"name": "Little Santanoni Mountain", "latitude": 44.0731156, "longitude": -74.1670981, "elevation": 1058.0, "source": "osm", "_tags": {"ele": "1058", "gnis:feature_id": "955682", "name": "Little Santanoni Mountain", "natural": "peak", "wikidata": "Q34924713"}}, {"name": "Little Thirteenth Lake Mountain", "latitude": 43.7158981, "longitude": -74.1312513, "elevation": 761.0, "source": "osm", "_tags": {"ele": "761", "gnis:feature_id": "955709", "name": "Little Thirteenth Lake Mountain", "natural": "peak", "wikidata": "Q34924782"}}, {"name": "Long Pine Mountain", "latitude": 43.5961766, "longitude": -74.1793048, "elevation": 806.0, "source": "osm", "_tags": {"ele": "806", "gnis:feature_id": "955886", "name": "Long Pine Mountain", "natural": "peak", "wikidata": "Q34925652"}}, {"name": "Lookout Mountain", "latitude": 43.4564573, "longitude": -74.4098678, "elevation": 655.0, "source": "osm", "_tags": {"ele": "655", "gnis:feature_id": "955954", "name": "Lookout Mountain", "natural": "peak", "wikidata": "Q34925854"}}, {"name": "Loon Pond Mountain", "latitude": 44.0753385, "longitude": -74.6396188, "elevation": 702.0, "source": "osm", "_tags": {"ele": "702", "gnis:feature_id": "955985", "name": "Loon Pond Mountain", "natural": "peak", "wikidata": "Q34925942"}}, {"name": "Lost Lake Mountain", "latitude": 43.3972915, "longitude": -74.4782027, "elevation": 627.0, "source": "osm", "_tags": {"ele": "627", "gnis:feature_id": "956014", "name": "Lost Lake Mountain", "natural": "peak", "wikidata": "Q34926059"}}, {"name": "Lost Pond Mountain", "latitude": 43.8347856, "longitude": -74.0406951, "elevation": 660.0, "source": "osm", "_tags": {"ele": "660", "gnis:feature_id": "956033", "name": "Lost Pond Mountain", "natural": "peak", "wikidata": "Q34926087"}}, {"name": "Lower Wolfjaw Mountain", "latitude": 44.148092, "longitude": -73.8330905, "elevation": 1273.0, "source": "osm", "_tags": {"ele": "1273", "gnis:feature_id": "956118", "name": "Lower Wolfjaw Mountain", "natural": "peak", "wikidata": "Q6693909", "wikipedia": "en:Lower Wolfjaw Mountain"}}, {"name": "MacNaughton Mountain", "latitude": 44.1397768, "longitude": -74.064317, "elevation": 1214.0, "source": "osm", "_tags": {"ele": "1214", "gnis:feature_id": "956221", "name": "MacNaughton Mountain", "natural": "peak", "wikidata": "Q6722056"}}, {"name": "Macomber Mountain", "latitude": 43.510066, "longitude": -74.2395817, "elevation": 891.0, "source": "osm", "_tags": {"ele": "891", "gnis:feature_id": "956238", "name": "Macomber Mountain", "natural": "peak", "wikidata": "Q34926627"}}, {"name": "Manbury Mountain", "latitude": 43.6653442, "longitude": -74.5532143, "elevation": 1053.0, "source": "osm", "_tags": {"ele": "1053", "gnis:feature_id": "956334", "name": "Manbury Mountain", "natural": "peak", "wikidata": "Q34926951"}}, {"name": "Marsh Pond Mountain", "latitude": 43.9870011, "longitude": -73.776522, "elevation": 709.0, "source": "osm", "_tags": {"ele": "709", "gnis:feature_id": "956565", "name": "Marsh Pond Mountain", "natural": "peak", "wikidata": "Q34826936"}}, {"name": "Mount Marshall", "latitude": 44.1276367, "longitude": -74.0111588, "elevation": 1333.0, "source": "osm", "_tags": {"ele": "1333", "gnis:feature_id": "956573", "name": "Mount Marshall", "natural": "peak", "wikidata": "Q6922027"}}, {"name": "Matts Mountain", "latitude": 43.3217361, "longitude": -74.5698698, "elevation": 650.0, "source": "osm", "_tags": {"ele": "650", "gnis:feature_id": "956685", "name": "Matts Mountain", "natural": "peak", "wikidata": "Q34827110"}}, {"name": "McCarthy Mountain", "latitude": 43.6458991, "longitude": -73.9195737, "elevation": 487.0, "source": "osm", "_tags": {"ele": "487", "gnis:feature_id": "956730", "name": "McCarthy Mountain", "natural": "peak", "wikidata": "Q49048559"}}, {"name": "McDonnel Mountain", "latitude": 44.0803332, "longitude": -73.9340315, "elevation": 1200.0, "source": "osm", "_tags": {"ele": "1200", "gnis:feature_id": "956755", "name": "McDonnel Mountain", "natural": "peak"}}, {"name": "McGann Mountain", "latitude": 43.6486771, "longitude": -73.8792949, "elevation": 443.0, "source": "osm", "_tags": {"ele": "443", "gnis:feature_id": "956762", "name": "McGann Mountain", "natural": "peak", "wikidata": "Q49048783"}}, {"name": "McGinn Hill", "latitude": 43.7761756, "longitude": -74.2240361, "elevation": 620.0, "source": "osm", "_tags": {"ele": "620", "gnis:feature_id": "956765", "name": "McGinn Hill", "natural": "peak"}}, {"name": "Meade Mountain", "latitude": 43.7012545, "longitude": -73.8674142, "elevation": 473.0, "source": "osm", "_tags": {"ele": "473", "gnis:feature_id": "956870", "name": "Meade Mountain", "natural": "peak", "wikidata": "Q34827284"}}, {"name": "Menzie Mountain", "latitude": 43.3447926, "longitude": -73.9004021, "elevation": 479.0, "source": "osm", "_tags": {"ele": "479", "gnis:feature_id": "956969", "name": "Menzie Mountain", "natural": "peak", "wikidata": "Q34827406"}}, {"name": "Merrills Hill", "latitude": 43.8003414, "longitude": -73.85791, "elevation": 622.0, "source": "osm", "_tags": {"ele": "622", "gnis:feature_id": "957007", "name": "Merrills Hill", "natural": "peak", "wikidata": "Q34827443"}}, {"name": "Metcalf Mountain", "latitude": 43.7522873, "longitude": -74.4957146, "elevation": 1007.0, "source": "osm", "_tags": {"ele": "1007", "gnis:feature_id": "957034", "name": "Metcalf Mountain", "natural": "peak", "wikidata": "Q34827526"}}, {"name": "Middle Mountain", "latitude": 43.7883974, "longitude": -74.0695838, "elevation": 674.0, "source": "osm", "_tags": {"ele": "674", "gnis:feature_id": "957124", "name": "Middle Mountain", "natural": "peak", "wikidata": "Q34827666"}}, {"name": "Mill Mountain", "latitude": 43.7997866, "longitude": -74.2923736, "elevation": 661.0, "source": "osm", "_tags": {"ele": "661", "gnis:feature_id": "957253", "name": "Mill Mountain", "natural": "peak", "wikidata": "Q34827858"}}, {"name": "Mill Mountain", "latitude": 43.6233992, "longitude": -73.9320733, "elevation": 587.0, "source": "osm", "_tags": {"ele": "587", "gnis:feature_id": "957254", "name": "Mill Mountain", "natural": "peak", "wikidata": "Q34827870"}}, {"name": "Moon Mountain", "latitude": 43.5264566, "longitude": -73.8076222, "elevation": 439.0, "source": "osm", "_tags": {"ele": "439", "gnis:feature_id": "957585", "name": "Moon Mountain", "natural": "peak", "wikidata": "Q34879562"}}, {"name": "Moose Mountain", "latitude": 43.3200697, "longitude": -74.4668107, "elevation": 847.0, "source": "osm", "_tags": {"ele": "847", "gnis:feature_id": "957622", "name": "Moose Mountain", "natural": "peak", "wikidata": "Q34879726"}}, {"name": "Moose Mountain", "latitude": 43.4900671, "longitude": -73.9534592, "elevation": 852.0, "source": "osm", "_tags": {"ele": "852", "gnis:feature_id": "957623", "name": "Moose Mountain", "natural": "peak", "wikidata": "Q34879762"}}, {"name": "Moose Mountain", "latitude": 43.6697876, "longitude": -74.3157033, "elevation": 711.0, "source": "osm", "_tags": {"ele": "711", "gnis:feature_id": "957624", "name": "Moose Mountain", "natural": "peak", "wikidata": "Q34879750"}}, {"name": "Moose Mountain", "latitude": 44.0350619, "longitude": -74.1957097, "elevation": 911.0, "source": "osm", "_tags": {"ele": "911", "gnis:feature_id": "957626", "name": "Moose Mountain", "natural": "peak", "wikidata": "Q34879702"}}, {"name": "Moose Mountain", "latitude": 44.0442237, "longitude": -73.92153, "elevation": 823.0, "source": "osm", "_tags": {"ele": "823", "gnis:feature_id": "957627", "name": "Moose Mountain", "natural": "peak", "wikidata": "Q34879690"}}, {"name": "Moose Pond Mountain", "latitude": 43.9564503, "longitude": -74.5832244, "elevation": 759.0, "source": "osm", "_tags": {"ele": "759", "gnis:feature_id": "957635", "name": "Moose Pond Mountain", "natural": "peak", "wikidata": "Q34879820"}}, {"name": "Morehouse Mountain", "latitude": 43.3717355, "longitude": -74.6673745, "elevation": 800.0, "source": "osm", "_tags": {"ele": "800", "gnis:feature_id": "957651", "name": "Morehouse Mountain", "natural": "peak", "wikidata": "Q34879854"}}, {"name": "Mount Morris", "latitude": 44.1595046, "longitude": -74.475168, "elevation": 950.0, "source": "osm", "_tags": {"ele": "950", "gnis:feature_id": "957699", "name": "Mount Morris", "natural": "peak", "wikidata": "Q34882663"}}, {"name": "Morton Mountain", "latitude": 43.4064582, "longitude": -73.8740123, "elevation": 323.0, "source": "osm", "_tags": {"ele": "323", "gnis:feature_id": "957722", "name": "Morton Mountain", "natural": "peak", "wikidata": "Q34880161"}}, {"name": "Mosquito Pond Hill", "latitude": 44.0336721, "longitude": -74.4476648, "elevation": 744.0, "source": "osm", "_tags": {"ele": "744", "gnis:feature_id": "957755", "name": "Mosquito Pond Hill", "natural": "peak", "wikidata": "Q34880212"}}, {"name": "Mossy Mountain", "latitude": 43.5561773, "longitude": -74.2987535, "elevation": 705.0, "source": "osm", "_tags": {"ele": "705", "gnis:feature_id": "957768", "name": "Mossy Mountain", "natural": "peak", "wikidata": "Q34880224"}}, {"name": "Moxham Mountain", "latitude": 43.75562, "longitude": -73.9923565, "elevation": 717.0, "source": "osm", "_tags": {"ele": "717", "gnis:feature_id": "957974", "name": "Moxham Mountain", "natural": "peak", "wikidata": "Q34928512"}}, {"name": "Mud Lake Mountain", "latitude": 43.378125, "longitude": -74.5079255, "elevation": 653.0, "source": "osm", "_tags": {"ele": "653", "gnis:feature_id": "958045", "name": "Mud Lake Mountain", "natural": "peak", "wikidata": "Q34928611"}}, {"name": "Mud Pond Mountain", "latitude": 44.0358944, "longitude": -74.4337753, "elevation": 730.0, "source": "osm", "_tags": {"ele": "730", "gnis:feature_id": "958110", "name": "Mud Pond Mountain", "natural": "peak", "wikidata": "Q34928637"}}, {"name": "New Lake Mountain", "latitude": 43.417568, "longitude": -74.1479105, "elevation": 664.0, "source": "osm", "_tags": {"ele": "664", "gnis:feature_id": "958428", "name": "New Lake Mountain", "natural": "peak", "wikidata": "Q34885471"}}, {"name": "Niagara Mountain", "latitude": 44.0014449, "longitude": -73.7656884, "elevation": 913.0, "source": "osm", "_tags": {"ele": "913", "gnis:feature_id": "958546", "name": "Niagara Mountain", "natural": "peak", "wikidata": "Q34885594"}}, {"name": "Nippletop", "latitude": 44.0890497, "longitude": -73.816311, "elevation": 1393.0, "source": "osm", "_tags": {"ele": "1393", "gnis:feature_id": "958617", "name": "Nippletop", "natural": "peak", "wikidata": "Q7039599"}}, {"name": "Nippletop Mountain", "latitude": 43.9922782, "longitude": -73.7526322, "elevation": 900.0, "source": "osm", "_tags": {"ele": "900", "gnis:feature_id": "958618", "name": "Nippletop Mountain", "natural": "peak", "wikidata": "Q34885727"}}, {"name": "Number Six Hill", "latitude": 43.7814526, "longitude": -73.710961, "elevation": 422.0, "source": "osm", "_tags": {"ele": "422", "gnis:feature_id": "958628", "name": "Number Six Hill", "natural": "peak", "wikidata": "Q34886612"}}, {"name": "Number Seven Hill", "latitude": 43.7911744, "longitude": -73.7104055, "elevation": 495.0, "source": "osm", "_tags": {"ele": "495", "gnis:feature_id": "958629", "name": "Number Seven Hill", "natural": "peak", "wikidata": "Q34886587"}}, {"name": "Number Eight Hill", "latitude": 43.795063, "longitude": -73.6948495, "elevation": 567.0, "source": "osm", "_tags": {"ele": "567", "gnis:feature_id": "958631", "name": "Number Eight Hill", "natural": "peak", "wikidata": "Q34886526"}}, {"name": "Noble Mountain", "latitude": 44.1306072, "longitude": -73.6995784, "elevation": 891.0, "source": "osm", "_tags": {"ele": "891", "gnis:feature_id": "958635", "name": "Noble Mountain", "natural": "peak", "wikidata": "Q34885865"}}, {"name": "Noonmark Mountain", "latitude": 44.1285077, "longitude": -73.7724994, "elevation": 1058.0, "source": "osm", "_tags": {"ele": "1058", "gnis:feature_id": "958647", "name": "Noonmark Mountain", "natural": "peak", "wikidata": "Q7049776"}}, {"name": "North Branch Mountain", "latitude": 43.2906254, "longitude": -74.4943107, "elevation": 829.0, "source": "osm", "_tags": {"ele": "829", "gnis:feature_id": "958714", "name": "North Branch Mountain", "natural": "peak", "wikidata": "Q34886125"}}, {"name": "North River Mountains", "latitude": 44.0178377, "longitude": -74.009589, "elevation": 879.0, "source": "osm", "_tags": {"ele": "879", "gnis:feature_id": "958902", "name": "North River Mountains", "natural": "peak", "wikidata": "Q34886303"}}, {"name": "Nubble", "latitude": 44.1464397, "longitude": -73.7443024, "elevation": 836.0, "source": "osm", "_tags": {"ele": "836", "gnis:feature_id": "959053", "name": "Nubble", "natural": "peak", "wikidata": "Q34886449"}}, {"name": "Number Nine Mountain", "latitude": 43.509234, "longitude": -73.8870685, "elevation": 646.0, "source": "osm", "_tags": {"ele": "646", "gnis:feature_id": "959059", "name": "Number Nine Mountain", "natural": "peak", "wikidata": "Q34886553"}}, {"name": "Number Seven Mountain", "latitude": 43.4292357, "longitude": -73.8529005, "elevation": 532.0, "source": "osm", "_tags": {"ele": "532", "gnis:feature_id": "959062", "name": "Number Seven Mountain", "natural": "peak", "wikidata": "Q34886600"}}, {"name": "Number Twentysix Mountain", "latitude": 43.5550667, "longitude": -73.9081817, "elevation": 507.0, "source": "osm", "_tags": {"ele": "507", "gnis:feature_id": "959065", "name": "Number Twentysix Mountain", "natural": "peak", "wikidata": "Q34886623"}}, {"name": "O'Keefe Mountain", "latitude": 43.335904, "longitude": -73.8770681, "elevation": 481.0, "source": "osm", "_tags": {"ele": "481", "gnis:feature_id": "959087", "name": "O'Keefe Mountain", "natural": "peak", "wikidata": "Q34886738"}}, {"name": "Oak Hill", "latitude": 44.2111596, "longitude": -73.7654161, "elevation": 543.0, "source": "osm", "_tags": {"ele": "543", "gnis:feature_id": "959114", "name": "Oak Hill", "natural": "peak", "wikidata": "Q34887016"}}, {"name": "Oak Mountain", "latitude": 43.5242338, "longitude": -74.3607002, "elevation": 736.0, "source": "osm", "_tags": {"ele": "736", "gnis:feature_id": "959138", "name": "Oak Mountain", "natural": "peak", "wikidata": "Q34887188"}}, {"name": "Old Far Mountain", "latitude": 44.0158885, "longitude": -73.7237429, "elevation": 713.0, "source": "osm", "_tags": {"ele": "713", "gnis:feature_id": "959273", "name": "Old Far Mountain", "natural": "peak", "wikidata": "Q34887534"}}, {"name": "Oliver Hill", "latitude": 43.8081191, "longitude": -73.9068004, "elevation": 700.0, "source": "osm", "_tags": {"ele": "700", "gnis:feature_id": "959344", "name": "Oliver Hill", "natural": "peak", "wikidata": "Q34887651"}}, {"name": "Onion Hill", "latitude": 43.6720106, "longitude": -74.4659886, "elevation": 883.0, "source": "osm", "_tags": {"ele": "883", "gnis:feature_id": "959384", "name": "Onion Hill", "natural": "peak", "wikidata": "Q34828223"}}, {"name": "Orange Hill", "latitude": 43.7839528, "longitude": -73.7270727, "elevation": 499.0, "source": "osm", "_tags": {"ele": "499", "gnis:feature_id": "959428", "name": "Orange Hill", "natural": "peak", "wikidata": "Q34828248"}}, {"name": "Mount Orrey", "latitude": 43.4042351, "longitude": -74.3243066, "elevation": 797.0, "source": "osm", "_tags": {"ele": "797", "gnis:feature_id": "959493", "name": "Mount Orrey", "natural": "peak", "wikidata": "Q34882830"}}, {"name": "Oven Mountain", "latitude": 43.6508987, "longitude": -73.9767975, "elevation": 650.0, "source": "osm", "_tags": {"ele": "650", "gnis:feature_id": "959652", "name": "Oven Mountain", "natural": "peak", "wikidata": "Q34888127"}}, {"name": "Mount Overrocker", "latitude": 43.4139571, "longitude": -74.3076393, "elevation": 644.0, "source": "osm", "_tags": {"ele": "644", "gnis:feature_id": "959661", "name": "Mount Overrocker", "natural": "peak", "wikidata": "Q34882868"}}, {"name": "Owls Head", "latitude": 43.865894, "longitude": -73.7209626, "elevation": 380.0, "source": "osm", "_tags": {"ele": "380", "gnis:feature_id": "959686", "name": "Owls Head", "natural": "peak", "wikidata": "Q34888207"}}, {"name": "Owls Head", "latitude": 44.2486582, "longitude": -73.8220864, "elevation": 627.0, "source": "osm", "_tags": {"ele": "627", "gnis:feature_id": "959687", "name": "Owls Head", "natural": "peak"}}, {"name": "Owls Head Mountain", "latitude": 43.9545057, "longitude": -74.4987761, "elevation": 848.0, "source": "osm", "_tags": {"ele": "848", "gnis:feature_id": "959691", "name": "Owls Head Mountain", "natural": "peak"}}, {"name": "Owls Head Mountain", "latitude": 44.2544914, "longitude": -73.813475, "elevation": 513.0, "source": "osm", "_tags": {"ele": "513", "gnis:feature_id": "959692", "name": "Owls Head Mountain", "natural": "peak"}}, {"name": "Oxbow Mountain", "latitude": 43.440347, "longitude": -74.4934828, "elevation": 680.0, "source": "osm", "_tags": {"ele": "680", "gnis:feature_id": "959711", "name": "Oxbow Mountain", "natural": "peak", "wikidata": "Q34828441"}}, {"name": "P Gay Mountain", "latitude": 43.7870086, "longitude": -74.1081969, "elevation": 713.0, "source": "osm", "_tags": {"ele": "713", "gnis:feature_id": "959725", "name": "P Gay Mountain", "natural": "peak", "wikidata": "Q34828477"}}, {"name": "Page Hill", "latitude": 43.5136785, "longitude": -74.3729228, "elevation": 625.0, "source": "osm", "_tags": {"ele": "625", "gnis:feature_id": "959752", "name": "Page Hill", "natural": "peak", "wikidata": "Q34828548"}}, {"name": "Page Mountain", "latitude": 43.5889563, "longitude": -74.4704308, "elevation": 870.0, "source": "osm", "_tags": {"ele": "870", "gnis:feature_id": "959753", "name": "Page Mountain", "natural": "peak", "wikidata": "Q34828572"}}, {"name": "Panther Mountain", "latitude": 43.4181246, "longitude": -74.5690398, "elevation": 824.0, "source": "osm", "_tags": {"ele": "824", "gnis:feature_id": "959822", "name": "Panther Mountain", "natural": "peak", "wikidata": "Q34828782"}}, {"name": "Panther Mountain", "latitude": 43.6464554, "longitude": -73.7884591, "elevation": 458.0, "source": "osm", "_tags": {"ele": "458", "gnis:feature_id": "959824", "name": "Panther Mountain", "natural": "peak", "wikidata": "Q34828922"}}, {"name": "Panther Mountain", "latitude": 43.7367317, "longitude": -74.3907093, "elevation": 1146.0, "source": "osm", "_tags": {"ele": "1146", "gnis:feature_id": "959826", "name": "Panther Mountain", "natural": "peak", "wikidata": "Q34828810"}}, {"name": "Panther Peak", "latitude": 44.0983559, "longitude": -74.1322278, "elevation": 1358.0, "source": "osm", "_tags": {"ele": "1358", "gnis:feature_id": "959830", "name": "Panther Peak", "natural": "peak", "wikidata": "Q7131804"}}, {"name": "Park Mountain", "latitude": 43.7625645, "longitude": -73.717072, "elevation": 611.0, "source": "osm", "_tags": {"ele": "611", "gnis:feature_id": "959882", "name": "Park Mountain", "natural": "peak", "wikidata": "Q34888881"}}, {"name": "Partridge Mountain", "latitude": 43.5400669, "longitude": -73.8987365, "elevation": 587.0, "source": "osm", "_tags": {"ele": "587", "gnis:feature_id": "959959", "name": "Partridge Mountain", "natural": "peak", "wikidata": "Q34889259"}}, {"name": "Pasture Hill", "latitude": 43.5550667, "longitude": -74.345145, "elevation": 707.0, "source": "osm", "_tags": {"ele": "707", "gnis:feature_id": "959969", "name": "Pasture Hill", "natural": "peak", "wikidata": "Q34889328"}}, {"name": "Patent Line Mountain", "latitude": 43.4039587, "longitude": -73.7840095, "elevation": 588.0, "source": "osm", "_tags": {"ele": "588", "gnis:feature_id": "959983", "name": "Patent Line Mountain", "natural": "peak", "wikidata": "Q34889413"}}, {"name": "Payne Mountain", "latitude": 43.7231211, "longitude": -74.4951582, "elevation": 970.0, "source": "osm", "_tags": {"ele": "970", "gnis:feature_id": "960017", "name": "Payne Mountain", "natural": "peak", "wikidata": "Q34829032"}}, {"name": "Peacock Mountain", "latitude": 44.2256035, "longitude": -73.9995941, "elevation": 772.0, "source": "osm", "_tags": {"ele": "772", "gnis:feature_id": "960033", "name": "Peacock Mountain", "natural": "peak", "wikidata": "Q34829151"}}, {"name": "Peaked Hills", "latitude": 43.9081154, "longitude": -73.7898546, "elevation": 593.0, "source": "osm", "_tags": {"ele": "593", "gnis:feature_id": "960041", "name": "Peaked Hills", "natural": "peak", "wikidata": "Q34829231"}}, {"name": "Peaked Mountain", "latitude": 43.7286758, "longitude": -74.1490304, "elevation": 882.0, "source": "osm", "_tags": {"ele": "882", "gnis:feature_id": "960042", "name": "Peaked Mountain", "natural": "peak", "wikidata": "Q34829268"}}, {"name": "Peaked Mountain", "latitude": 43.8853406, "longitude": -74.4646059, "elevation": 787.0, "source": "osm", "_tags": {"ele": "787", "gnis:feature_id": "960043", "name": "Peaked Mountain", "natural": "peak", "wikidata": "Q34829254"}}, {"name": "Peaked Mountain", "latitude": 44.2656034, "longitude": -73.6993039, "elevation": 982.0, "source": "osm", "_tags": {"ele": "982", "gnis:feature_id": "960044", "name": "Peaked Mountain", "natural": "peak", "wikidata": "Q34829242"}}, {"name": "Perry Mountain", "latitude": 43.3514586, "longitude": -74.0465177, "elevation": 708.0, "source": "osm", "_tags": {"ele": "708", "gnis:feature_id": "960207", "name": "Perry Mountain", "natural": "peak", "wikidata": "Q34890606"}}, {"name": "Pete Gay Mountain", "latitude": 43.6911048, "longitude": -74.0438376, "elevation": 944.0, "source": "osm", "_tags": {"ele": "944", "gnis:feature_id": "960228", "name": "Pete Gay Mountain", "natural": "peak", "wikidata": "Q34890655"}}, {"name": "Petes Hill", "latitude": 43.6278433, "longitude": -74.279033, "elevation": 648.0, "source": "osm", "_tags": {"ele": "648", "gnis:feature_id": "960251", "name": "Petes Hill", "natural": "peak", "wikidata": "Q34890757"}}, {"name": "Pettit Mountain", "latitude": 43.423679, "longitude": -74.2943054, "elevation": 541.0, "source": "osm", "_tags": {"ele": "541", "gnis:feature_id": "960262", "name": "Pettit Mountain", "natural": "peak", "wikidata": "Q34890779"}}, {"name": "Phelps Mountain", "latitude": 44.1568609, "longitude": -73.9214754, "elevation": 1268.0, "source": "osm", "_tags": {"ele": "1268", "gnis:feature_id": "960289", "name": "Phelps Mountain", "natural": "peak", "wikidata": "Q7181274"}}, {"name": "Phoebe Mountain", "latitude": 43.4422914, "longitude": -73.7787316, "elevation": 618.0, "source": "osm", "_tags": {"ele": "618", "gnis:feature_id": "960318", "name": "Phoebe Mountain", "natural": "peak", "wikidata": "Q34891278"}}, {"name": "Phoebes Knob", "latitude": 43.7414545, "longitude": -73.7612397, "elevation": 453.0, "source": "osm", "_tags": {"ele": "453", "gnis:feature_id": "960319", "name": "Phoebes Knob", "natural": "peak", "wikidata": "Q34891303"}}, {"name": "Pilgrim Mountain", "latitude": 43.9078401, "longitude": -74.6446145, "elevation": 841.0, "source": "osm", "_tags": {"ele": "841", "gnis:feature_id": "960396", "name": "Pilgrim Mountain", "natural": "peak", "wikidata": "Q34892664"}}, {"name": "Pillsbury Mountain", "latitude": 43.580901, "longitude": -74.5120992, "elevation": 1094.0, "source": "osm", "_tags": {"ele": "1094", "gnis:feature_id": "960405", "name": "Pillsbury Mountain", "natural": "peak", "wikidata": "Q34892762"}}, {"name": "Pine Hill", "latitude": 43.6289551, "longitude": -74.3815384, "elevation": 635.0, "source": "osm", "_tags": {"ele": "635", "gnis:feature_id": "960471", "name": "Pine Hill", "natural": "peak", "wikidata": "Q34894065"}}, {"name": "Pine Hill", "latitude": 43.7711756, "longitude": -73.8373533, "elevation": 661.0, "source": "osm", "_tags": {"ele": "661", "gnis:feature_id": "960472", "name": "Pine Hill", "natural": "peak", "wikidata": "Q34893874"}}, {"name": "Pine Hill", "latitude": 43.7792309, "longitude": -73.7379063, "elevation": 461.0, "source": "osm", "_tags": {"ele": "461", "gnis:feature_id": "960473", "name": "Pine Hill", "natural": "peak", "wikidata": "Q34893913"}}, {"name": "Pine Hill", "latitude": 43.9483951, "longitude": -74.0287542, "elevation": 648.0, "source": "osm", "_tags": {"ele": "648", "gnis:feature_id": "960476", "name": "Pine Hill", "natural": "peak", "wikidata": "Q34893964"}}, {"name": "Pine Mountain", "latitude": 43.2992362, "longitude": -74.5526462, "elevation": 625.0, "source": "osm", "_tags": {"ele": "625", "gnis:feature_id": "960512", "name": "Pine Mountain", "natural": "peak", "wikidata": "Q34894636"}}, {"name": "Pine Mountain", "latitude": 43.3881241, "longitude": -74.1826338, "elevation": 506.0, "source": "osm", "_tags": {"ele": "506", "gnis:feature_id": "960513", "name": "Pine Mountain", "natural": "peak", "wikidata": "Q34894687"}}, {"name": "Pine Mountain", "latitude": 43.4059021, "longitude": -74.6387637, "elevation": 742.0, "source": "osm", "_tags": {"ele": "742", "gnis:feature_id": "960514", "name": "Pine Mountain", "natural": "peak", "wikidata": "Q34894712"}}, {"name": "Pine Mountain", "latitude": 43.466322, "longitude": -73.8128, "elevation": 540.0, "source": "osm", "_tags": {"ele": "540", "gnis:feature_id": "960515", "name": "Pine Mountain", "natural": "peak", "wikidata": "Q34894837"}}, {"name": "Pine Mountain", "latitude": 43.5295109, "longitude": -74.3045861, "elevation": 735.0, "source": "osm", "_tags": {"ele": "735", "gnis:feature_id": "960516", "name": "Pine Mountain", "natural": "peak", "wikidata": "Q34894737"}}, {"name": "Pine Mountain", "latitude": 43.589233, "longitude": -73.918183, "elevation": 615.0, "source": "osm", "_tags": {"ele": "615", "gnis:feature_id": "960517", "name": "Pine Mountain", "natural": "peak", "wikidata": "Q34894863"}},