[{"name": "Carpenter Mountain", "latitude": 44.2812355, "longitude": -122.1442427, "elevation": 1600.0, "source": "osm", "_tags": {"ele": "1600", "gnis:feature_id": "1118625", "name": "Carpenter Mountain", "natural": "peak"}}, {"name": "Deer Butte", "latitude": 44.1801192, "longitude": -121.9308825, "elevation": 1615.0, "source": "osm", "_tags": {"ele": "1615", "gnis:feature_id": "1119802", "name": "Deer Butte", "natural": "peak"}}, {"name": "French Mountain", "latitude": 44.0665096, "longitude": -122.0836562, "elevation": 1730.0, "source": "osm", "_tags": {"ele": "1730", "gnis:feature_id": "1120988", "name": "French Mountain", "natural": "peak"}}, {"name": "Gibraltar Mountain", "latitude": 44.01457, "longitude": -122.4853309, "elevation": 1065.0, "source": "osm", "_tags": {"ele": "1065", "gnis:feature_id": "1121119", "name": "Gibraltar Mountain", "natural": "peak"}}, {"name": "Goat Point", "latitude": 44.079571, "longitude": -122.5647868, "elevation": 1156.0, "source": "osm", "_tags": {"ele": "1156", "gnis:feature_id": "1121178", "name": "Goat Point", "natural": "peak"}}, {"name": "Gold Hill", "latitude": 44.2119172, "longitude": -122.3635433, "elevation": 1455.725, "source": "osm", "_tags": {"ele": "1455.725", "gnis:feature_id": "1121207", "name": "Gold Hill", "natural": "peak"}}, {"name": "Hehe Mountain", "latitude": 44.0274883, "longitude": -122.3530199, "elevation": 1231.392, "source": "osm", "_tags": {"ele": "1231.392", "gnis:feature_id": "1121734", "name": "Hehe Mountain", "natural": "peak"}}, {"name": "Horsepasture Mountain", "latitude": 44.1158401, "longitude": -122.0879643, "elevation": 1723.0, "source": "osm", "_tags": {"ele": "1723", "gnis:feature_id": "1122029", "name": "Horsepasture Mountain", "natural": "peak"}}, {"name": "Katsuk Butte", "latitude": 44.1099244, "longitude": -122.2834943, "elevation": 1454.0, "source": "osm", "_tags": {"ele": "1454", "gnis:feature_id": "1122640", "name": "Katsuk Butte", "natural": "peak"}}, {"name": "Lamb Butte", "latitude": 44.0806301, "longitude": -122.0687677, "elevation": 1653.0, "source": "osm", "_tags": {"ele": "1653", "gnis:feature_id": "1122918", "name": "Lamb Butte", "natural": "peak"}}, {"name": "Lookout Mountain", "latitude": 44.2163387, "longitude": -122.1303999, "elevation": 1625.0, "source": "osm", "_tags": {"ele": "1625", "gnis:feature_id": "1123464", "name": "Lookout Mountain", "natural": "peak"}}, {"name": "Lowder Mountain", "latitude": 44.0715489, "longitude": -122.1256046, "elevation": 1696.8, "source": "osm", "_tags": {"ele": "1696.8", "gnis:feature_id": "1123545", "name": "Lowder Mountain", "natural": "peak", "wikidata": "Q49047045"}}, {"name": "O'Leary Mountain", "latitude": 44.116233, "longitude": -122.1117172, "elevation": 1687.0, "source": "osm", "_tags": {"ele": "1687", "gnis:feature_id": "1124889", "name": "O'Leary Mountain", "natural": "peak"}}, {"name": "Olallie Mountain", "latitude": 44.028731, "longitude": -122.0683746, "elevation": 1737.0, "source": "osm", "_tags": {"ele": "1737", "gnis:feature_id": "1124951", "name": "Olallie Mountain", "natural": "peak", "wikidata": "Q49058324"}}, {"name": "Packsaddle Mountain", "latitude": 43.9148404, "longitude": -121.9294786, "elevation": 1835.0, "source": "osm", "_tags": {"ele": "1835", "gnis:feature_id": "1125116", "name": "Packsaddle Mountain", "natural": "peak", "wikidata": "Q49059320"}}, {"name": "Proxy Point", "latitude": 44.125396, "longitude": -121.9014333, "elevation": 1891.0, "source": "osm", "_tags": {"ele": "1891", "gnis:feature_id": "1125685", "name": "Proxy Point", "natural": "peak"}}, {"name": "Pyramid Mountain", "latitude": 44.0048425, "longitude": -122.111429, "elevation": 1701.0, "source": "osm", "_tags": {"ele": "1701", "gnis:feature_id": "1125717", "name": "Pyramid Mountain", "natural": "peak", "wikidata": "Q49065767"}}, {"name": "Ragged Butte", "latitude": 43.3389908, "longitude": -122.5908673, "elevation": 1363.4, "source": "osm", "_tags": {"ele": "1363.4", "gnis:feature_id": "1125773", "name": "Ragged Butte", "natural": "peak"}}, {"name": "Scott Mountain", "latitude": 44.2406438, "longitude": -121.9150911, "elevation": 1864.0, "source": "osm", "_tags": {"ele": "1864", "gnis:feature_id": "1126690", "name": "Scott Mountain", "natural": "peak", "wikidata": "Q20712137"}}, {"name": "Taylor Castle", "latitude": 44.0881761, "longitude": -122.0650464, "elevation": 1646.0, "source": "osm", "_tags": {"ele": "1646", "gnis:feature_id": "1127900", "name": "Taylor Castle", "natural": "peak"}}, {"name": "Tidbits Lookout Site", "latitude": 44.2672268, "longitude": -122.3215978, "elevation": 1580.1, "source": "osm", "_tags": {"ele": "1580.1", "gnis:feature_id": "1128087", "name": "Tidbits Lookout Site", "natural": "peak"}}, {"name": "Tipsoo Butte", "latitude": 44.0690115, "longitude": -122.1914373, "elevation": 1567.0, "source": "osm", "_tags": {"ele": "1567", "gnis:feature_id": "1128127", "name": "Tipsoo Butte", "natural": "peak", "wikidata": "Q49083995"}}, {"name": "Two Butte", "latitude": 44.1951587, "longitude": -121.915752, "elevation": 1650.492, "source": "osm", "_tags": {"ele": "1650.492", "gnis:feature_id": "1128376", "name": "Two Butte", "natural": "peak"}}, {"name": "Wild Rose Point", "latitude": 43.3655983, "longitude": -122.5520467, "elevation": 1613.3, "source": "osm", "_tags": {"ele": "1613.3", "gnis:feature_id": "1129051", "name": "Wild Rose Point", "natural": "peak"}}, {"name": "Pine Point", "latitude": 43.312343, "longitude": -122.5622692, "elevation": 1097.0, "source": "osm", "_tags": {"ele": "1097", "gnis:feature_id": "1132927", "name": "Pine Point", "natural": "peak"}}, {"name": "Quartz Point", "latitude": 43.372065, "longitude": -122.5983823, "elevation": 1127.0, "source": "osm", "_tags": {"ele": "1127", "gnis:feature_id": "1132928", "name": "Quartz Point", "natural": "peak"}}, {"name": "Youngs Rock", "latitude": 43.5375681, "longitude": -122.3934212, "elevation": 1419.0, "source": "osm", "_tags": {"ele": "1419", "gnis:feature_id": "1135477", "name": "Youngs Rock", "natural": "peak"}}, {"name": "The Twins", "latitude": 43.7061235, "longitude": -121.9734233, "elevation": 2244.0, "source": "osm", "_tags": {"ele": "2244", "gnis:feature_id": "1135771", "name": "The Twins", "natural": "peak"}}, {"name": "Deathball Mountain", "latitude": 44.1081491, "longitude": -122.2990658, "elevation": 1400.0, "source": "osm", "_tags": {"ele": "1400", "gnis:feature_id": "1136208", "name": "Deathball Mountain", "natural": "peak"}}, {"name": "Elk Mountain", "latitude": 44.1912818, "longitude": -122.38309, "elevation": 1354.836, "source": "osm", "_tags": {"ele": "1354.836", "gnis:feature_id": "1136252", "name": "Elk Mountain", "natural": "peak"}}, {"name": "English Mountain", "latitude": 44.0716069, "longitude": -122.0659709, "elevation": 1708.0, "source": "osm", "_tags": {"ele": "1708", "gnis:feature_id": "1136266", "name": "English Mountain", "natural": "peak"}}, {"name": "Mount Hagan", "latitude": 44.1427453, "longitude": -122.4097909, "elevation": 1048.512, "source": "osm", "_tags": {"ele": "1048.512", "gnis:feature_id": "1136349", "name": "Mount Hagan", "natural": "peak"}}, {"name": "Harvey Mountain", "latitude": 44.1033183, "longitude": -122.275161, "elevation": 1475.0, "source": "osm", "_tags": {"ele": "1475", "gnis:feature_id": "1136362", "name": "Harvey Mountain", "natural": "peak"}}, {"name": "Jimbo Mountain", "latitude": 44.1354043, "longitude": -122.4531205, "elevation": 855.0, "source": "osm", "_tags": {"ele": "855", "gnis:feature_id": "1136422", "name": "Jimbo Mountain", "natural": "peak"}}, {"name": "Little Cowhorn Mountain", "latitude": 44.0387371, "longitude": -122.503112, "elevation": 1264.0, "source": "osm", "_tags": {"ele": "1264", "gnis:feature_id": "1136485", "name": "Little Cowhorn Mountain", "natural": "peak"}}, {"name": "Miles Peak", "latitude": 44.0420712, "longitude": -122.6506229, "elevation": 897.0, "source": "osm", "_tags": {"ele": "897", "gnis:feature_id": "1136538", "name": "Miles Peak", "natural": "peak"}}, {"name": "Nimrod Butte", "latitude": 44.0442917, "longitude": -122.4178315, "elevation": 1081.0, "source": "osm", "_tags": {"ele": "1081", "gnis:feature_id": "1136574", "name": "Nimrod Butte", "natural": "peak"}}, {"name": "Pernot Mountain", "latitude": 44.0465148, "longitude": -122.4856121, "elevation": 1246.0, "source": "osm", "_tags": {"ele": "1246", "gnis:feature_id": "1136623", "name": "Pernot Mountain", "natural": "peak"}}, {"name": "Spring Mountain", "latitude": 43.3564409, "longitude": -122.5433827, "elevation": 1673.0, "source": "osm", "_tags": {"ele": "1673", "gnis:feature_id": "1136775", "name": "Spring Mountain", "natural": "peak"}}, {"name": "The Knobs", "latitude": 44.226509, "longitude": -121.9578314, "elevation": 1316.0, "source": "osm", "_tags": {"ele": "1316", "gnis:feature_id": "1136823", "name": "The Knobs", "natural": "peak"}}, {"name": "Thors Hammer", "latitude": 44.1303724, "longitude": -122.3259517, "elevation": 997.0, "source": "osm", "_tags": {"ele": "997", "gnis:feature_id": "1136828", "name": "Thors Hammer", "natural": "peak"}}, {"name": "Yankee Mountain", "latitude": 44.061511, "longitude": -122.170047, "elevation": 1647.0, "source": "osm", "_tags": {"ele": "1647", "gnis:feature_id": "1136928", "name": "Yankee Mountain", "natural": "peak", "wikidata": "Q49091185"}}, {"name": "Aubrey Mountain", "latitude": 43.7445679, "longitude": -122.3994905, "elevation": 921.0, "source": "osm", "_tags": {"ele": "921", "gnis:feature_id": "1137338", "name": "Aubrey Mountain", "natural": "peak"}}, {"name": "Bald Butte", "latitude": 43.7183028, "longitude": -122.3915579, "elevation": 1041.0, "source": "osm", "_tags": {"ele": "1041", "gnis:feature_id": "1137436", "name": "Bald Butte", "natural": "peak"}}, {"name": "Balm Mountain", "latitude": 43.3800388, "longitude": -122.4217154, "elevation": 1845.0, "source": "osm", "_tags": {"ele": "1845", "gnis:feature_id": "1137490", "name": "Balm Mountain", "natural": "peak"}}, {"name": "Basket Butte", "latitude": 43.3298457, "longitude": -122.2322589, "elevation": 1607.0, "source": "osm", "_tags": {"ele": "1607", "gnis:feature_id": "1137567", "name": "Basket Butte", "natural": "peak"}}, {"name": "Battle Peak", "latitude": 43.9053726, "longitude": -122.276849, "elevation": 1174.0, "source": "osm", "_tags": {"ele": "1174", "gnis:feature_id": "1137599", "name": "Battle Peak", "natural": "peak"}}, {"name": "Beach Mountain", "latitude": 43.6692894, "longitude": -122.2878185, "elevation": 1329.0, "source": "osm", "_tags": {"ele": "1329", "gnis:feature_id": "1137612", "name": "Beach Mountain", "natural": "peak"}}, {"name": "Bear Mountain", "latitude": 43.9362369, "longitude": -122.6358952, "elevation": 945.0, "source": "osm", "_tags": {"ele": "945", "gnis:feature_id": "1137728", "name": "Bear Mountain", "natural": "peak"}}, {"name": "Bear Mountain", "latitude": 43.5148177, "longitude": -122.2369682, "elevation": 1842.0, "source": "osm", "_tags": {"ele": "1842", "gnis:feature_id": "1137732", "name": "Bear Mountain", "natural": "peak"}}, {"name": "Bearbones Mountain", "latitude": 43.5437324, "longitude": -122.5158821, "elevation": 1443.0, "source": "osm", "_tags": {"ele": "1443", "gnis:feature_id": "1137780", "name": "Bearbones Mountain", "natural": "peak"}}, {"name": "Big Bunchgrass", "latitude": 43.702578, "longitude": -122.195331, "elevation": 1728.0, "source": "osm", "_tags": {"ele": "1728", "gnis:feature_id": "1137980", "name": "Big Bunchgrass", "natural": "peak"}}, {"name": "Birds Point", "latitude": 43.3809563, "longitude": -122.231704, "elevation": 1822.0, "source": "osm", "_tags": {"ele": "1822", "gnis:feature_id": "1138156", "name": "Birds Point", "natural": "peak"}}, {"name": "Bohemia Mountain", "latitude": 43.5751387, "longitude": -122.6563553, "elevation": 1817.0, "source": "osm", "_tags": {"ele": "1817", "gnis:feature_id": "1138386", "name": "Bohemia Mountain", "natural": "peak", "wikidata": "Q4938073"}}, {"name": "Browns Mountain", "latitude": 43.7492853, "longitude": -121.8016957, "elevation": 1606.0, "source": "osm", "_tags": {"ele": "1606", "gnis:feature_id": "1138691", "name": "Browns Mountain", "natural": "peak"}}, {"name": "Buck Mountain", "latitude": 43.6168925, "longitude": -122.346791, "elevation": 1411.0, "source": "osm", "_tags": {"ele": "1411", "gnis:feature_id": "1138800", "name": "Buck Mountain", "natural": "peak"}}, {"name": "Buckhead Mountain", "latitude": 43.7950381, "longitude": -122.4946255, "elevation": 1027.2, "source": "osm", "_tags": {"ele": "1027.2", "gnis:feature_id": "1138851", "name": "Buckhead Mountain", "natural": "peak"}}, {"name": "Buffalo Peak", "latitude": 43.8944163, "longitude": -122.2860022, "elevation": 976.0, "source": "osm", "_tags": {"ele": "976", "gnis:feature_id": "1138882", "name": "Buffalo Peak", "natural": "peak"}}, {"name": "Bunker Hill", "latitude": 43.3256799, "longitude": -122.1811458, "elevation": 1688.0, "source": "osm", "_tags": {"ele": "1688", "gnis:feature_id": "1138959", "name": "Bunker Hill", "natural": "peak"}}, {"name": "Bunny Butte", "latitude": 43.3979041, "longitude": -121.8628045, "elevation": 1568.0, "source": "osm", "_tags": {"ele": "1568", "gnis:feature_id": "1138961", "name": "Bunny Butte", "natural": "peak"}}, {"name": "Burn Butte", "latitude": 43.3115166, "longitude": -121.9425268, "elevation": 2273.0, "source": "osm", "_tags": {"ele": "2273", "gnis:feature_id": "1138971", "name": "Burn Butte", "natural": "peak"}}, {"name": "Burnt Top", "latitude": 44.0409503, "longitude": -121.8744822, "elevation": 1903.0, "source": "osm", "_tags": {"ele": "1903", "gnis:feature_id": "1139013", "name": "Burnt Top", "natural": "peak"}}, {"name": "Buster Butte", "latitude": 43.4867872, "longitude": -122.5781056, "elevation": 1147.0, "source": "osm", "_tags": {"ele": "1147", "gnis:feature_id": "1139027", "name": "Buster Butte", "natural": "peak"}}, {"name": "Camel Hump", "latitude": 43.315955, "longitude": -122.4405988, "elevation": 1387.0, "source": "osm", "_tags": {"ele": "1387", "gnis:feature_id": "1139182", "name": "Camel Hump", "natural": "peak"}}, {"name": "Cappy Mountain", "latitude": 43.3104055, "longitude": -121.9789162, "elevation": 2244.0, "source": "osm", "_tags": {"ele": "2244", "gnis:feature_id": "1139361", "name": "Cappy Mountain", "natural": "peak"}}, {"name": "Cat Mountain", "latitude": 43.605444, "longitude": -122.6735083, "elevation": 1476.0, "source": "osm", "_tags": {"ele": "1476", "gnis:feature_id": "1139462", "name": "Cat Mountain", "natural": "peak"}}, {"name": "Charlton Butte", "latitude": 43.763731, "longitude": -121.9605869, "elevation": 2010.0, "source": "osm", "_tags": {"ele": "2010", "gnis:feature_id": "1139580", "name": "Charlton Butte", "natural": "peak"}}, {"name": "Chinquapin Butte", "latitude": 43.3794454, "longitude": -121.9232685, "elevation": 1759.61, "source": "osm", "_tags": {"ele": "1759.61", "gnis:feature_id": "1139698", "name": "Chinquapin Butte", "natural": "peak"}}, {"name": "Chucksney Mountain", "latitude": 43.9269995, "longitude": -122.1160667, "elevation": 1755.953, "source": "osm", "_tags": {"ele": "1755.953", "gnis:feature_id": "1139723", "name": "Chucksney Mountain", "natural": "peak"}}, {"name": "Clark Butte", "latitude": 43.9895704, "longitude": -122.5753361, "elevation": 809.0, "source": "osm", "_tags": {"ele": "809", "gnis:feature_id": "1139749", "name": "Clark Butte", "natural": "peak"}}, {"name": "Cloverpatch Butte", "latitude": 43.835379, "longitude": -122.5464989, "elevation": 1111.0, "source": "osm", "_tags": {"ele": "1111", "gnis:feature_id": "1139859", "name": "Cloverpatch Butte", "natural": "peak"}}, {"name": "Condon Butte", "latitude": 44.2248401, "longitude": -121.8400491, "elevation": 1794.0, "source": "osm", "_tags": {"ele": "1794", "gnis:feature_id": "1140029", "name": "Condon Butte", "natural": "peak", "wikidata": "Q19865866"}}, {"name": "Cougar Mountain", "latitude": 43.6921842, "longitude": -122.3352046, "elevation": 1381.0, "source": "osm", "_tags": {"ele": "1381", "gnis:feature_id": "1140235", "name": "Cougar Mountain", "natural": "peak"}}, {"name": "Cowhorn Mountain", "latitude": 43.3995701, "longitude": -122.053642, "elevation": 2314.0, "source": "osm", "_tags": {"ele": "2314", "gnis:feature_id": "1140297", "name": "Cowhorn Mountain", "natural": "peak"}}, {"name": "Coyote Mountain", "latitude": 43.6543221, "longitude": -122.2632443, "elevation": 1768.8, "source": "osm", "_tags": {"ele": "1768.8", "gnis:feature_id": "1140333", "name": "Coyote Mountain", "natural": "peak"}}, {"name": "Crater Butte", "latitude": 43.4987548, "longitude": -122.1188595, "elevation": 2103.73, "source": "osm", "_tags": {"ele": "2103.73", "gnis:feature_id": "1140387", "name": "Crater Butte", "natural": "peak"}}, {"name": "Cryder Butte", "latitude": 43.563734, "longitude": -121.7172483, "elevation": 1669.0, "source": "osm", "_tags": {"ele": "1669", "gnis:feature_id": "1140504", "name": "Cryder Butte", "natural": "peak"}}, {"name": "Cultus Mountain", "latitude": 43.8190074, "longitude": -121.8703091, "elevation": 2058.0, "source": "osm", "_tags": {"ele": "2058", "gnis:feature_id": "1140539", "name": "Cultus Mountain", "natural": "peak"}}, {"name": "Cupit Mary Mountain", "latitude": 43.7315508, "longitude": -122.1098919, "elevation": 1879.0, "source": "osm", "_tags": {"ele": "1879", "gnis:feature_id": "1140556", "name": "Cupit Mary Mountain", "natural": "peak"}}, {"name": "Mount David Douglas", "latitude": 43.6534558, "longitude": -122.1622585, "elevation": 1906.0, "source": "osm", "_tags": {"ele": "1906", "gnis:feature_id": "1140649", "name": "Mount David Douglas", "natural": "peak", "wikidata": "Q20712492"}}, {"name": "Davis Mountain", "latitude": 43.6292878, "longitude": -121.7666941, "elevation": 2021.0, "source": "osm", "_tags": {"ele": "2021", "gnis:feature_id": "1140668", "name": "Davis Mountain", "natural": "peak"}}, {"name": "Dead Mountain", "latitude": 43.7762347, "longitude": -122.4036577, "elevation": 1139.0, "source": "osm", "_tags": {"ele": "1139", "gnis:feature_id": "1140706", "name": "Dead Mountain", "natural": "peak"}}, {"name": "Deception Butte", "latitude": 43.7463574, "longitude": -122.5764254, "elevation": 1081.0, "source": "osm", "_tags": {"ele": "1081", "gnis:feature_id": "1140772", "name": "Deception Butte", "natural": "peak"}}, {"name": "Deception Rock", "latitude": 43.7232151, "longitude": -122.5750744, "elevation": 1266.0, "source": "osm", "_tags": {"ele": "1266", "gnis:feature_id": "1140776", "name": "Deception Rock", "natural": "peak"}}, {"name": "Deer Mountain", "latitude": 43.9904044, "longitude": -122.6564539, "elevation": 732.0, "source": "osm", "_tags": {"ele": "732", "gnis:feature_id": "1140858", "name": "Deer Mountain", "natural": "peak"}}, {"name": "Devils Hill", "latitude": 44.0481613, "longitude": -121.7596445, "elevation": 2157.984, "source": "osm", "_tags": {"ele": "2157.984", "gnis:feature_id": "1140957", "name": "Devils Hill", "natural": "peak"}}, {"name": "Diamond Rockpile", "latitude": 43.4889005, "longitude": -122.1521545, "elevation": 1927.2, "source": "osm", "_tags": {"ele": "1927.2", "gnis:feature_id": "1141009", "name": "Diamond Rockpile", "natural": "peak"}}, {"name": "Dog Mountain", "latitude": 43.3319118, "longitude": -122.6489591, "elevation": 1472.5, "source": "osm", "_tags": {"ele": "1472.5", "gnis:feature_id": "1141139", "name": "Dog Mountain", "natural": "peak"}}, {"name": "Eagle Butte", "latitude": 43.8022697, "longitude": -122.3558778, "elevation": 1100.0, "source": "osm", "_tags": {"ele": "1100", "gnis:feature_id": "1141459", "name": "Eagle Butte", "natural": "peak"}}, {"name": "Eagle Rock", "latitude": 43.2975543, "longitude": -122.5438017, "elevation": 798.576, "source": "osm", "_tags": {"ele": "798.576", "gnis:feature_id": "1141490", "name": "Eagle Rock", "natural": "peak"}}, {"name": "Elephant Mountain", "latitude": 43.3012349, "longitude": -122.2364254, "elevation": 1808.0, "source": "osm", "_tags": {"ele": "1808", "gnis:feature_id": "1141727", "name": "Elephant Mountain", "natural": "peak"}}, {"name": "Elephant Mountain", "latitude": 43.5988707, "longitude": -122.6577256, "elevation": 1703.0, "source": "osm", "_tags": {"ele": "1703", "gnis:feature_id": "1141728", "name": "Elephant Mountain", "natural": "peak"}}, {"name": "Elk Mountain", "latitude": 43.9726162, "longitude": -121.8275335, "elevation": 1805.0, "source": "osm", "_tags": {"ele": "1805", "gnis:feature_id": "1141788", "name": "Elk Mountain", "natural": "peak", "wikidata": "Q49027794"}}, {"name": "Emigrant Butte", "latitude": 43.4479013, "longitude": -122.1533686, "elevation": 1965.0, "source": "osm", "_tags": {"ele": "1965", "gnis:feature_id": "1141852", "name": "Emigrant Butte", "natural": "peak"}}, {"name": "Fairview Mountain", "latitude": 43.9205487, "longitude": -122.6767699, "elevation": 463.296, "source": "osm", "_tags": {"ele": "463.296", "gnis:feature_id": "1141951", "name": "Fairview Mountain", "natural": "peak"}}, {"name": "Fairview Peak", "latitude": 43.585677, "longitude": -122.6531102, "elevation": 1808.0, "source": "osm", "_tags": {"ele": "1808", "gnis:feature_id": "1141953", "name": "Fairview Peak", "natural": "peak"}}, {"name": "Fivepoint Hill", "latitude": 43.7357875, "longitude": -122.595669, "elevation": 1201.5, "source": "osm", "_tags": {"ele": "1201.5", "gnis:feature_id": "1142209", "name": "Fivepoint Hill", "natural": "peak"}}, {"name": "Fuji Mountain", "latitude": 43.6592359, "longitude": -122.1033461, "elevation": 2177.0, "source": "osm", "_tags": {"ele": "2177", "gnis:feature_id": "1142530", "name": "Fuji Mountain", "natural": "peak"}}, {"name": "Gold Point", "latitude": 43.952532, "longitude": -122.4274101, "elevation": 1194.816, "source": "osm", "_tags": {"ele": "1194.816", "gnis:feature_id": "1142828", "name": "Gold Point", "natural": "peak"}}, {"name": "Granddad Butte", "latitude": 43.4135473, "longitude": -122.5637283, "elevation": 1017.422, "source": "osm", "_tags": {"ele": "1017.422", "gnis:feature_id": "1142906", "name": "Granddad Butte", "natural": "peak"}}, {"name": "Grass Mountain", "latitude": 43.5917884, "longitude": -122.543106, "elevation": 1556.0, "source": "osm", "_tags": {"ele": "1556", "gnis:feature_id": "1142955", "name": "Grass Mountain", "natural": "peak"}}, {"name": "Grasshopper Mountain", "latitude": 43.9099684, "longitude": -122.1950099, "elevation": 1719.7, "source": "osm", "_tags": {"ele": "1719.7", "gnis:feature_id": "1142963", "name": "Grasshopper Mountain", "natural": "peak"}}, {"name": "Green Butte", "latitude": 43.9099223, "longitude": -122.6440491, "elevation": 489.5088, "source": "osm", "_tags": {"ele": "489.5088", "gnis:feature_id": "1143024", "name": "Green Butte", "natural": "peak"}}, {"name": "Green Mountain", "latitude": 43.8562358, "longitude": -122.5945018, "elevation": 771.0, "source": "osm", "_tags": {"ele": "771", "gnis:feature_id": "1143042", "name": "Green Mountain", "natural": "peak"}}, {"name": "Green Mountain", "latitude": 43.9820708, "longitude": -122.6511754, "elevation": 656.0, "source": "osm", "_tags": {"ele": "656", "gnis:feature_id": "1143043", "name": "Green Mountain", "natural": "peak"}}, {"name": "Greentop", "latitude": 43.9437371, "longitude": -122.6570081, "elevation": 792.0, "source": "osm", "_tags": {"ele": "792", "gnis:feature_id": "1143070", "name": "Greentop", "natural": "peak"}}, {"name": "Grizzly Mountain", "latitude": 43.5864833, "longitude": -122.6205505, "elevation": 1661.0, "source": "osm", "_tags": {"ele": "1661", "gnis:feature_id": "1143107", "name": "Grizzly Mountain", "natural": "peak"}}, {"name": "Groundhog Mountain", "latitude": 43.582721, "longitude": -122.3392767, "elevation": 1865.0, "source": "osm", "_tags": {"ele": "1865", "gnis:feature_id": "1143116", "name": "Groundhog Mountain", "natural": "peak"}}, {"name": "Grouse Mountain", "latitude": 43.5758634, "longitude": -122.6250128, "elevation": 1678.0, "source": "osm", "_tags": {"ele": "1678", "gnis:feature_id": "1143130", "name": "Grouse Mountain", "natural": "peak"}}, {"name": "Hamner Butte", "latitude": 43.5600775, "longitude": -121.8116576, "elevation": 2158.0, "source": "osm", "_tags": {"ele": "2158", "gnis:feature_id": "1143253", "name": "Hamner Butte", "natural": "peak"}}, {"name": "Hardesty Mountain", "latitude": 43.7991786, "longitude": -122.6688012, "elevation": 1300.3, "source": "osm", "_tags": {"ele": "1300.3", "gnis:feature_id": "1143297", "name": "Hardesty Mountain", "natural": "peak"}}, {"name": "Harding Butte", "latitude": 43.3618902, "longitude": -122.5430621, "elevation": 1718.2, "source": "osm", "_tags": {"ele": "1718.2", "gnis:feature_id": "1143298", "name": "Harding Butte", "natural": "peak"}}, {"name": "Heckletooth Mountain", "latitude": 43.7409567, "longitude": -122.3672667, "elevation": 1100.0, "source": "osm", "_tags": {"ele": "1100", "gnis:feature_id": "1143446", "name": "Heckletooth Mountain", "natural": "peak", "wikidata": "Q19878709"}}, {"name": "Hemlock Butte", "latitude": 43.3054056, "longitude": -121.8916927, "elevation": 1845.0, "source": "osm", "_tags": {"ele": "1845", "gnis:feature_id": "1143474", "name": "Hemlock Butte", "natural": "peak"}}, {"name": "Hemlock Butte", "latitude": 43.5734447, "longitude": -122.2000476, "elevation": 1769.0, "source": "osm", "_tags": {"ele": "1769", "gnis:feature_id": "1143475", "name": "Hemlock Butte", "natural": "peak"}}, {"name": "Hills Peak", "latitude": 43.406019, "longitude": -122.1900552, "elevation": 1833.0, "source": "osm", "_tags": {"ele": "1833", "gnis:feature_id": "1143607", "name": "Hills Peak", "natural": "peak"}}, {"name": "Holland Point", "latitude": 43.6638517, "longitude": -122.5764359, "elevation": 1539.0, "source": "osm", "_tags": {"ele": "1539", "gnis:feature_id": "1143668", "name": "Holland Point", "natural": "peak"}}, {"name": "Horn Butte", "latitude": 43.9326259, "longitude": -122.6747869, "elevation": 511.0, "source": "osm", "_tags": {"ele": "511", "gnis:feature_id": "1143730", "name": "Horn Butte", "natural": "peak"}}, {"name": "Horse Mountain", "latitude": 43.9878949, "longitude": -121.8967019, "elevation": 1882.0, "source": "osm", "_tags": {"ele": "1882", "gnis:feature_id": "1143773", "name": "Horse Mountain", "natural": "peak"}}, {"name": "Huckleberry Butte", "latitude": 44.2301174, "longitude": -121.8119928, "elevation": 1774.0, "source": "osm", "_tags": {"ele": "1774", "gnis:feature_id": "1143867", "name": "Huckleberry Butte", "natural": "peak"}}, {"name": "Huckleberry Mountain", "latitude": 43.8466853, "longitude": -122.3180394, "elevation": 1645.0, "source": "osm", "_tags": {"ele": "1645", "gnis:feature_id": "1143880", "name": "Huckleberry Mountain", "natural": "peak"}}, {"name": "Ingram Butte", "latitude": 43.9440695, "longitude": -122.3173503, "elevation": 1244.0, "source": "osm", "_tags": {"ele": "1244", "gnis:feature_id": "1144095", "name": "Ingram Butte", "natural": "peak"}}, {"name": "Irish Mountain", "latitude": 43.8512304, "longitude": -121.9747558, "elevation": 2085.0, "source": "osm", "_tags": {"ele": "2085", "gnis:feature_id": "1144108", "name": "Irish Mountain", "natural": "peak", "wikidata": "Q49038924"}}, {"name": "Jack Point", "latitude": 43.3227138, "longitude": -122.6673536, "elevation": 1134.2, "source": "osm", "_tags": {"ele": "1134.2", "gnis:feature_id": "1144171", "name": "Jack Point", "natural": "peak"}}, {"name": "Jackass Butte", "latitude": 43.5681768, "longitude": -122.6464429, "elevation": 1613.0, "source": "osm", "_tags": {"ele": "1613", "gnis:feature_id": "1144177", "name": "Jackass Butte", "natural": "peak"}}, {"name": "Joe's Peak", "latitude": 43.8695536, "longitude": -122.5523117, "elevation": 1039.0, "source": "osm", "_tags": {"ele": "1039", "gnis:feature_id": "1144297", "name": "Joe's Peak", "natural": "peak"}}, {"name": "Johnson Butte", "latitude": 43.4353982, "longitude": -122.6361623, "elevation": 979.0, "source": "osm", "_tags": {"ele": "979", "gnis:feature_id": "1144320", "name": "Johnson Butte", "natural": "peak"}}, {"name": "Judd Mountain", "latitude": 43.6205261, "longitude": -122.1983815, "elevation": 1823.0, "source": "osm", "_tags": {"ele": "1823", "gnis:feature_id": "1144414", "name": "Judd Mountain", "natural": "peak"}}, {"name": "Kaleetan Butte", "latitude": 44.0476156, "longitude": -121.7850361, "elevation": 2083.0, "source": "osm", "_tags": {"ele": "2083", "gnis:feature_id": "1144479", "name": "Kaleetan Butte", "natural": "peak", "wikidata": "Q49040645"}}, {"name": "Kelsay Mountain", "latitude": 43.3487352, "longitude": -122.1844795, "elevation": 1821.0, "source": "osm", "_tags": {"ele": "1821", "gnis:feature_id": "1144537", "name": "Kelsay Mountain", "natural": "peak"}}, {"name": "Kelsay Point", "latitude": 43.3004038, "longitude": -122.1075315, "elevation": 1499.0, "source": "osm", "_tags": {"ele": "1499", "gnis:feature_id": "1144538", "name": "Kelsay Point", "natural": "peak"}}, {"name": "Ketchketch Butte", "latitude": 43.7542858, "longitude": -121.8664188, "elevation": 1643.0, "source": "osm", "_tags": {"ele": "1643", "gnis:feature_id": "1144577", "name": "Ketchketch Butte", "natural": "peak"}}, {"name": "Koch Mountain", "latitude": 43.7257318, "longitude": -122.1205798, "elevation": 1855.0, "source": "osm", "_tags": {"ele": "1855", "gnis:feature_id": "1144698", "name": "Koch Mountain", "natural": "peak"}}, {"name": "Koosah Mountain", "latitude": 44.0276161, "longitude": -121.8275358, "elevation": 1987.296, "source": "osm", "_tags": {"ele": "1987.296", "gnis:feature_id": "1144702", "name": "Koosah Mountain", "natural": "peak"}}, {"name": "Lakeview Mountain", "latitude": 43.5329019, "longitude": -122.0386429, "elevation": 2151.0, "source": "osm", "_tags": {"ele": "2151", "gnis:feature_id": "1144792", "name": "Lakeview Mountain", "natural": "peak"}}, {"name": "Lemish Butte", "latitude": 43.7867857, "longitude": -121.8955865, "elevation": 1732.0, "source": "osm", "_tags": {"ele": "1732", "gnis:feature_id": "1144931", "name": "Lemish Butte", "natural": "peak"}}, {"name": "Lemon Butte", "latitude": 43.4770648, "longitude": -122.6542192, "elevation": 1079.0, "source": "osm", "_tags": {"ele": "1079", "gnis:feature_id": "1144939", "name": "Lemon Butte", "natural": "peak"}}, {"name": "Little Brother", "latitude": 44.1794211, "longitude": -121.7971573, "elevation": 2380.5, "source": "osm", "_tags": {"ele": "2380.5", "gnis:feature_id": "1145111", "name": "Little Brother", "natural": "peak"}}, {"name": "Little Groundhog Mountain", "latitude": 43.575692, "longitude": -122.3412387, "elevation": 1803.0, "source": "osm", "_tags": {"ele": "1803", "gnis:feature_id": "1145177", "name": "Little Groundhog Mountain", "natural": "peak"}}, {"name": "Little Roundtop Mountain", "latitude": 43.9009518, "longitude": -121.9394785, "elevation": 1851.0, "source": "osm", "_tags": {"ele": "1851", "gnis:feature_id": "1145244", "name": "Little Roundtop Mountain", "natural": "peak", "wikidata": "Q49045503"}}, {"name": "Little Walker Mountain", "latitude": 43.3115165, "longitude": -121.7565238, "elevation": 1676.4, "source": "osm", "_tags": {"ele": "1676.4", "gnis:feature_id": "1145281", "name": "Little Walker Mountain", "natural": "peak"}}, {"name": "Logger Butte", "latitude": 43.552344, "longitude": -122.3344868, "elevation": 1748.0, "source": "osm", "_tags": {"ele": "1748", "gnis:feature_id": "1145342", "name": "Logger Butte", "natural": "peak"}}, {"name": "Lowell Mountain", "latitude": 43.9603996, "longitude": -122.2097631, "elevation": 1441.0, "source": "osm", "_tags": {"ele": "1441", "gnis:feature_id": "1145599", "name": "Lowell Mountain", "natural": "peak"}}, {"name": "Lucky Butte", "latitude": 43.9015065, "longitude": -121.8719773, "elevation": 1732.0, "source": "osm", "_tags": {"ele": "1732", "gnis:feature_id": "1145654", "name": "Lucky Butte", "natural": "peak"}}, {"name": "Maklaks Mountain", "latitude": 43.5842297, "longitude": -121.9341905, "elevation": 2129.0, "source": "osm", "_tags": {"ele": "2129", "gnis:feature_id": "1145766", "name": "Maklaks Mountain", "natural": "peak"}}, {"name": "McCool Butte", "latitude": 43.5612346, "longitude": -121.902529, "elevation": 1577.0, "source": "osm", "_tags": {"ele": "1577", "gnis:feature_id": "1145941", "name": "McCool Butte", "natural": "peak"}}, {"name": "McFarland Point", "latitude": 43.6345667, "longitude": -122.525606, "elevation": 1342.0, "source": "osm", "_tags": {"ele": "1342", "gnis:feature_id": "1145978", "name": "McFarland Point", "natural": "peak"}}, {"name": "McGowan Mountain", "latitude": 43.424011, "longitude": -122.2830952, "elevation": 1870.0, "source": "osm", "_tags": {"ele": "1870", "gnis:feature_id": "1145983", "name": "McGowan Mountain", "natural": "peak"}}, {"name": "McLean Mountain", "latitude": 43.4483054, "longitude": -122.2883312, "elevation": 1829.0, "source": "osm", "_tags": {"ele": "1829", "gnis:feature_id": "1146016", "name": "McLean Mountain", "natural": "peak"}}, {"name": "Moolack Butte", "latitude": 43.9876155, "longitude": -121.7878108, "elevation": 1677.0, "source": "osm", "_tags": {"ele": "1677", "gnis:feature_id": "1146409", "name": "Moolack Butte", "natural": "peak"}}, {"name": "Moolack Mountain", "latitude": 43.8501133, "longitude": -122.0937727, "elevation": 1671.828, "source": "osm", "_tags": {"ele": "1671.828", "gnis:feature_id": "1146412", "name": "Moolack Mountain", "natural": "peak"}}, {"name": "Moon Point", "latitude": 43.5446053, "longitude": -122.3993603, "elevation": 1521.0, "source": "osm", "_tags": {"ele": "1521", "gnis:feature_id": "1146424", "name": "Moon Point", "natural": "peak"}}, {"name": "Moss Mountain", "latitude": 43.5663519, "longitude": -122.2477837, "elevation": 1837.6, "source": "osm", "_tags": {"ele": "1837.6", "gnis:feature_id": "1146506", "name": "Moss Mountain", "natural": "peak"}}, {"name": "Mule Mountain", "latitude": 43.8330143, "longitude": -122.2247426, "elevation": 1733.0, "source": "osm", "_tags": {"ele": "1733", "gnis:feature_id": "1146640", "name": "Mule Mountain", "natural": "peak"}}, {"name": "Mule Peak", "latitude": 43.2937389, "longitude": -122.0091944, "elevation": 2085.0, "source": "osm", "_tags": {"ele": "2085", "gnis:feature_id": "1146642", "name": "Mule Peak", "natural": "peak"}}, {"name": "Muttonchop Butte", "latitude": 43.3626268, "longitude": -121.855304, "elevation": 1676.0, "source": "osm", "_tags": {"ele": "1676", "gnis:feature_id": "1146702", "name": "Muttonchop Butte", "natural": "peak"}}, {"name": "North Fairview Mountain", "latitude": 43.5931034, "longitude": -122.6545242, "elevation": 1702.0, "source": "osm", "_tags": {"ele": "1702", "gnis:feature_id": "1146897", "name": "North Fairview Mountain", "natural": "peak"}}, {"name": "Odell Butte", "latitude": 43.4709584, "longitude": -121.8639165, "elevation": 2130.0, "source": "osm", "_tags": {"ele": "2130", "gnis:feature_id": "1147154", "name": "Odell Butte", "natural": "peak"}}, {"name": "Patterson Mountain", "latitude": 43.7655898, "longitude": -122.6252995, "elevation": 1368.0, "source": "osm", "_tags": {"ele": "1368", "gnis:feature_id": "1147493", "name": "Patterson Mountain", "natural": "peak"}}, {"name": "Perry Butte", "latitude": 43.3317881, "longitude": -122.4622664, "elevation": 1479.0, "source": "osm", "_tags": {"ele": "1479", "gnis:feature_id": "1147599", "name": "Perry Butte", "natural": "peak"}}, {"name": "Pillar Peak", "latitude": 43.8117859, "longitude": -121.94281, "elevation": 1701.0, "source": "osm", "_tags": {"ele": "1701", "gnis:feature_id": "1147669", "name": "Pillar Peak", "natural": "peak", "wikidata": "Q49061250"}}, {"name": "Pinard Butte", "latitude": 43.7112342, "longitude": -122.6056107, "elevation": 1037.0, "source": "osm", "_tags": {"ele": "1037", "gnis:feature_id": "1147680", "name": "Pinard Butte", "natural": "peak"}}, {"name": "Pine Butte", "latitude": 43.6615099, "longitude": -121.8453067, "elevation": 1503.0, "source": "osm", "_tags": {"ele": "1503", "gnis:feature_id": "1147681", "name": "Pine Butte", "natural": "peak"}}, {"name": "Pinto Mountain", "latitude": 43.595678, "longitude": -122.1869815, "elevation": 1918.0, "source": "osm", "_tags": {"ele": "1918", "gnis:feature_id": "1147751", "name": "Pinto Mountain", "natural": "peak"}}, {"name": "Potter Mountain", "latitude": 43.3650349, "longitude": -122.3387668, "elevation": 1872.082, "source": "osm", "_tags": {"ele": "1872.082", "gnis:feature_id": "1147948", "name": "Potter Mountain", "natural": "peak"}}, {"name": "Ranger Butte", "latitude": 43.6059558, "longitude": -121.8836401, "elevation": 1538.0, "source": "osm", "_tags": {"ele": "1538", "gnis:feature_id": "1148207", "name": "Ranger Butte", "natural": "peak"}}, {"name": "Mount Ray", "latitude": 43.666002, "longitude": -122.0492852, "elevation": 2134.0, "source": "osm", "_tags": {"ele": "2134", "gnis:feature_id": "1148257", "name": "Mount Ray", "natural": "peak"}}, {"name": "Rebel Rock", "latitude": 43.985398, "longitude": -122.109206, "elevation": 1693.0, "source": "osm", "_tags": {"ele": "1693", "gnis:feature_id": "1148265", "name": "Rebel Rock", "natural": "peak", "wikidata": "Q49067009"}}, {"name": "Red Hill", "latitude": 44.0184497, "longitude": -121.8472579, "elevation": 1903.476, "source": "osm", "_tags": {"ele": "1903.476", "gnis:feature_id": "1148302", "name": "Red Hill", "natural": "peak"}}, {"name": "Redmans Tooth", "latitude": 43.3444085, "longitude": -122.679561, "elevation": 1066.0, "source": "osm", "_tags": {"ele": "1066", "gnis:feature_id": "1148346", "name": "Redmans Tooth", "natural": "peak"}}, {"name": "Redtop Mountain", "latitude": 43.5101245, "longitude": -122.030587, "elevation": 2104.0, "source": "osm", "_tags": {"ele": "2104", "gnis:feature_id": "1148349", "name": "Redtop Mountain", "natural": "peak"}}, {"name": "Reynolds Butte", "latitude": 43.4070173, "longitude": -122.5397197, "elevation": 1341.12, "source": "osm", "_tags": {"ele": "1341.12", "gnis:feature_id": "1148391", "name": "Reynolds Butte", "natural": "peak"}}, {"name": "Rigdon Butte", "latitude": 43.7745791, "longitude": -122.045481, "elevation": 1768.0, "source": "osm", "_tags": {"ele": "1768", "gnis:feature_id": "1148438", "name": "Rigdon Butte", "natural": "peak"}}, {"name": "Ringo Butte", "latitude": 43.5498453, "longitude": -121.7550265, "elevation": 1882.0, "source": "osm", "_tags": {"ele": "1882", "gnis:feature_id": "1148477", "name": "Ringo Butte", "natural": "peak"}}, {"name": "Rocky Point", "latitude": 43.6070663, "longitude": -122.5469953, "elevation": 1432.0, "source": "osm", "_tags": {"ele": "1432", "gnis:feature_id": "1148668", "name": "Rocky Point", "natural": "peak"}}, {"name": "Round Mountain", "latitude": 43.7576184, "longitude": -121.7103059, "elevation": 1797.0, "source": "osm", "_tags": {"ele": "1797", "gnis:feature_id": "1148784", "name": "Round Mountain", "natural": "peak"}}, {"name": "Royce Mountain", "latitude": 43.5198466, "longitude": -121.9022509, "elevation": 1870.0, "source": "osm", "_tags": {"ele": "1870", "gnis:feature_id": "1148820", "name": "Royce Mountain", "natural": "peak"}}, {"name": "Saddleblanket Mountain", "latitude": 43.8937359, "longitude": -122.5106079, "elevation": 1519.0, "source": "osm", "_tags": {"ele": "1519", "gnis:feature_id": "1148918", "name": "Saddleblanket Mountain", "natural": "peak"}}, {"name": "Mount Salem", "latitude": 43.9290146, "longitude": -122.6433956, "elevation": 900.0, "source": "osm", "_tags": {"ele": "900", "gnis:feature_id": "1148958", "name": "Mount Salem", "natural": "peak"}}, {"name": "Sardine Butte", "latitude": 43.9734563, "longitude": -122.2997661, "elevation": 1540.0, "source": "osm", "_tags": {"ele": "1540", "gnis:feature_id": "1149071", "name": "Sardine Butte", "natural": "peak"}}, {"name": "Scorpion Butte", "latitude": 43.5495655, "longitude": -122.6533872, "elevation": 1331.0, "source": "osm", "_tags": {"ele": "1331", "gnis:feature_id": "1149157", "name": "Scorpion Butte", "natural": "peak"}}, {"name": "Sinker Mountain", "latitude": 43.9400318, "longitude": -122.4076674, "elevation": 1440.5, "source": "osm", "_tags": {"ele": "1440.5", "gnis:feature_id": "1149540", "name": "Sinker Mountain", "natural": "peak"}}, {"name": "Sixbit Point", "latitude": 43.9159507, "longitude": -121.8680887, "elevation": 1781.0, "source": "osm", "_tags": {"ele": "1781", "gnis:feature_id": "1149565", "name": "Sixbit Point", "natural": "peak"}}, {"name": "Slapjack Butte", "latitude": 43.6414726, "longitude": -122.367321, "elevation": 1475.8, "source": "osm", "_tags": {"ele": "1475.8", "gnis:feature_id": "1149657", "name": "Slapjack Butte", "natural": "peak"}}, {"name": "Sourgrass Mountain", "latitude": 43.8659577, "longitude": -122.4894955, "elevation": 1458.0, "source": "osm", "_tags": {"ele": "1458", "gnis:feature_id": "1149894", "name": "Sourgrass Mountain", "natural": "peak"}}, {"name": "Sphinx Butte", "latitude": 44.073398, "longitude": -121.8619393, "elevation": 1967.484, "source": "osm", "_tags": {"ele": "1967.484", "gnis:feature_id": "1150122", "name": "Sphinx Butte", "natural": "peak"}}, {"name": "Spring Butte", "latitude": 43.5153989, "longitude": -122.4922697, "elevation": 1342.0, "source": "osm", "_tags": {"ele": "1342", "gnis:feature_id": "1150151", "name": "Spring Butte", "natural": "peak"}}, {"name": "Kwiskwis Butte", "latitude": 43.7489757, "longitude": -122.3307822, "elevation": 1408.8, "source": "osm", "_tags": {"alt_name": "Squaw Butte", "ele": "1408.8", "gnis:feature_id": "1150225", "name": "Kwiskwis Butte", "natural": "peak"}}, {"name": "Station Butte", "latitude": 43.8990142, "longitude": -122.6111704, "elevation": 501.0, "source": "osm", "_tags": {"ele": "501", "gnis:feature_id": "1150366", "name": "Station Butte", "natural": "peak"}}, {"name": "Stone Mountain", "latitude": 43.6207982, "longitude": -122.3919655, "elevation": 1197.0, "source": "osm", "_tags": {"ele": "1197", "gnis:feature_id": "1150447", "name": "Stone Mountain", "natural": "peak"}}, {"name": "Sugarloaf Mountain", "latitude": 43.6643505, "longitude": -122.6261433, "elevation": 1420.368, "source": "osm", "_tags": {"ele": "1420.368", "gnis:feature_id": "1150559", "name": "Sugarloaf Mountain", "natural": "peak"}}, {"name": "Mount Halo", "latitude": 43.6923451, "longitude": -122.6019991, "elevation": 1184.0, "source": "osm", "_tags": {"ele": "1184", "gnis:feature_id": "1150767", "name": "Mount Halo", "name:etymology": "Halito", "name:etymology:wikidata": "Q105815203", "natural": "peak", "old_name": "Swastika Mountain", "wikidata": "Q18158926"}}, {"name": "Taylor Butte", "latitude": 43.804914, "longitude": -122.0178846, "elevation": 1779.0, "source": "osm", "_tags": {"ele": "1779", "gnis:feature_id": "1150908", "name": "Taylor Butte", "natural": "peak"}}, {"name": "Tenas Peak", "latitude": 43.3242935, "longitude": -122.0358624, "elevation": 1991.0, "source": "osm", "_tags": {"ele": "1991", "gnis:feature_id": "1150968", "name": "Tenas Peak", "natural": "peak"}}, {"name": "The House Rock", "latitude": 44.0476161, "longitude": -121.8150368, "elevation": 2055.876, "source": "osm", "_tags": {"ele": "2055.876", "gnis:feature_id": "1151017", "name": "The House Rock", "natural": "peak"}}, {"name": "The Husband", "latitude": 44.1276152, "longitude": -121.8566013, "elevation": 2293.0, "source": "osm", "_tags": {"ele": "2293", "gnis:feature_id": "1151018", "name": "The Husband", "natural": "peak"}}, {"name": "The Wife", "latitude": 44.0619206, "longitude": -121.8240298, "elevation": 2150.059, "source": "osm", "_tags": {"ele": "2150.059", "gnis:feature_id": "1151048", "name": "The Wife", "natural": "peak"}}, {"name": "Thorn Mountain", "latitude": 43.3295663, "longitude": -122.4053201, "elevation": 1606.0, "source": "osm", "_tags": {"ele": "1606", "gnis:feature_id": "1151130", "name": "Thorn Mountain", "natural": "peak"}}, {"name": "Tire Mountain", "latitude": 43.8355588, "longitude": -122.5262272, "elevation": 1320.0, "source": "osm", "_tags": {"ele": "1320", "gnis:feature_id": "1151281", "name": "Tire Mountain", "natural": "peak"}}, {"name": "Tolo Mountain", "latitude": 43.3184607, "longitude": -122.012806, "elevation": 2142.0, "source": "osm", "_tags": {"ele": "2142", "gnis:feature_id": "1151308", "name": "Tolo Mountain", "natural": "peak"}}, {"name": "Tufti Mountain", "latitude": 43.672927, "longitude": -122.3881783, "elevation": 955.0, "source": "osm", "_tags": {"ele": "955", "gnis:feature_id": "1151483", "name": "Tufti Mountain", "natural": "peak", "wikidata": "Q20712565"}}, {"name": "Waldo Mountain", "latitude": 43.7652164, "longitude": -122.0989424, "elevation": 1937.0, "source": "osm", "_tags": {"ele": "1937", "gnis:feature_id": "1151821", "name": "Waldo Mountain", "natural": "peak", "wikidata": "Q20712657"}}, {"name": "Walker Mountain", "latitude": 43.3051281, "longitude": -121.7166904, "elevation": 2158.0, "source": "osm", "_tags": {"ele": "2158", "gnis:feature_id": "1151834", "name": "Walker Mountain", "natural": "peak"}}, {"name": "Warm Spring Butte", "latitude": 43.3967903, "longitude": -122.1767022, "elevation": 1774.0, "source": "osm", "_tags": {"ele": "1774", "gnis:feature_id": "1151892", "name": "Warm Spring Butte", "natural": "peak"}}, {"name": "", "latitude": 43.549961, "longitude": -122.3817893, "elevation": 1736.8, "source": "osm", "_tags": {"ele": "1736.8", "gnis:feature_id": "1151909", "natural": "peak"}}, {"name": "Watson Butte", "latitude": 43.29179, "longitude": -122.2742044, "elevation": 1728.0, "source": "osm", "_tags": {"ele": "1728", "gnis:feature_id": "1151963", "name": "Watson Butte", "natural": "peak"}}, {"name": "Williamson Mountain", "latitude": 43.9239776, "longitude": -121.8254749, "elevation": 1921.459, "source": "osm", "_tags": {"ele": "1921.459", "gnis:feature_id": "1152397", "name": "Williamson Mountain", "natural": "peak", "wikidata": "Q8021227"}}, {"name": "Winberry Mountain", "latitude": 43.8845694, "longitude": -122.5808903, "elevation": 846.0, "source": "osm", "_tags": {"ele": "846", "gnis:feature_id": "1152472", "name": "Winberry Mountain", "natural": "peak"}}, {"name": "Windigo Butte", "latitude": 43.3564933, "longitude": -122.0338071, "elevation": 1946.0, "source": "osm", "_tags": {"ele": "1946", "gnis:feature_id": "1152497", "name": "Windigo Butte", "natural": "peak"}}, {"name": "Wolf Mountain", "latitude": 43.6162975, "longitude": -122.2306522, "elevation": 1959.0, "source": "osm", "_tags": {"ele": "1959", "gnis:feature_id": "1152592", "name": "Wolf Mountain", "natural": "peak"}}, {"name": "Mount Yoran", "latitude": 43.5628754, "longitude": -122.1345322, "elevation": 2164.0, "source": "osm", "_tags": {"ele": "2164", "gnis:feature_id": "1152745", "name": "Mount Yoran", "natural": "peak"}}, {"name": "Timber Butte", "latitude": 43.925757, "longitude": -122.5723175, "elevation": 1113.13, "source": "osm", "_tags": {"ele": "1113.13", "gnis:feature_id": "1153377", "name": "Timber Butte", "natural": "peak"}}, {"name": "Elephant Rock", "latitude": 43.9308886, "longitude": -122.4548523, "elevation": 878.1288, "source": "osm", "_tags": {"ele": "878.1288", "gnis:feature_id": "1153382", "name": "Elephant Rock", "natural": "peak"}}, {"name": "T V Butte", "latitude": 43.7442901, "longitude": -122.4233806, "elevation": 546.0, "source": "osm", "_tags": {"ele": "546", "gnis:feature_id": "1156735", "name": "T V Butte", "natural": "peak"}}, {"name": "Ranger Stone", "latitude": 43.4564013, "longitude": -122.4741848, "elevation": 1425.55, "source": "osm", "_tags": {"ele": "1425.55", "gnis:feature_id": "1156873", "name": "Ranger Stone", "natural": "peak"}}, {"name": "Gerdine Butte", "latitude": 43.725676, "longitude": -121.9633643, "elevation": 1979.0, "source": "osm", "_tags": {"ele": "1979", "gnis:feature_id": "1158256", "name": "Gerdine Butte", "natural": "peak"}}, {"name": "Kokostick Butte", "latitude": 44.0315046, "longitude": -121.7980909, "elevation": 1873.0, "source": "osm", "_tags": {"ele": "1873", "gnis:feature_id": "1158310", "name": "Kokostick Butte", "natural": "peak", "wikidata": "Q49042313"}}, {"name": "Lookout Point", "latitude": 43.7961277, "longitude": -122.5458291, "elevation": 491.0, "source": "osm", "_tags": {"ele": "491", "name": "Lookout Point", "natural": "peak"}}, {"name": "Substitute Point", "latitude": 44.1134513, "longitude": -121.8961545, "elevation": 1914.0, "source": "osm", "_tags": {"ele": "1914", "gnis:feature_id": "1158509", "name": "Substitute Point", "natural": "peak"}}, {"name": "Walker Point", "latitude": 44.0595711, "longitude": -122.6208999, "elevation": 1148.0, "source": "osm", "_tags": {"ele": "1148", "gnis:feature_id": "1158542", "name": "Walker Point", "natural": "peak"}}, {"name": "Rigdon Point", "latitude": 43.4186915, "longitude": -122.3221312, "elevation": 1828.0, "source": "osm", "_tags": {"ele": "1828", "gnis:feature_id": "1161485", "name": "Rigdon Point", "natural": "peak"}}, {"name": "Macduff Mountain", "latitude": 44.1284988, "longitude": -122.1651449, "elevation": 1538.0, "source": "osm", "_tags": {"ele": "1538", "gnis:feature_id": "1161740", "name": "Macduff Mountain", "natural": "peak"}}, {"name": "McLennan Mountain", "latitude": 44.121971, "longitude": -122.1444732, "elevation": 1536.192, "source": "osm", "_tags": {"ele": "1536.192", "gnis:feature_id": "1161741", "name": "McLennan Mountain", "natural": "peak"}}, {"name": "Quentin Knob", "latitude": 44.2776258, "longitude": -122.2039579, "elevation": 989.0, "source": "osm", "_tags": {"ele": "989", "gnis:feature_id": "1162209", "name": "Quentin Knob", "natural": "peak"}}, {"name": "Little Smokey", "latitude": 44.1734559, "longitude": -122.1039445, "elevation": 625.0, "source": "osm", "_tags": {"ele": "625", "gnis:feature_id": "1167044", "name": "Little Smokey", "natural": "peak"}}, {"name": "Harlow Crater", "latitude": 44.2455492, "longitude": -121.7690965, "elevation": 1894.6, "source": "osm", "_tags": {"ele": "1894.6", "gnis:feature_id": "1851703", "name": "Harlow Crater", "natural": "peak", "wikidata": "Q49004626"}}, {"name": "Sawtooth Mountain", "latitude": 43.3839542, "longitude": -122.1017011, "elevation": 2225.3, "source": "osm", "_tags": {"ele": "2225.3", "gnis:feature_id": "1149100", "name": "Sawtooth Mountain", "natural": "peak"}}, {"name": "Timbered Knoll", "latitude": 43.6402567, "longitude": -122.5652546, "elevation": 1505.0, "source": "osm", "_tags": {"ele": "1505", "gnis:feature_id": "1151245", "name": "Timbered Knoll", "natural": "peak"}}, {"name": "Flagstone Peak", "latitude": 43.9854757, "longitude": -122.2984155, "elevation": null, "source": "osm", "_tags": {"name": "Flagstone Peak", "natural": "peak"}}, {"name": "", "latitude": 43.5160799, "longitude": -122.1484637, "elevation": 2566.7, "source": "osm", "_tags": {"ele": "2566.7", "natural": "peak"}}, {"name": "", "latitude": 44.07314, "longitude": -121.7136264, "elevation": 2297.0, "source": "osm", "_tags": {"ele": "2297", "natural": "peak"}}, {"name": "", "latitude": 44.078123, "longitude": -121.7009923, "elevation": 2772.0, "source": "osm", "_tags": {"ele": "2772", "natural": "peak"}}, {"name": "", "latitude": 44.0788578, "longitude": -121.6909542, "elevation": 2671.0, "source": "osm", "_tags": {"ele": "2671", "natural": "peak"}}, {"name": "", "latitude": 44.0716259, "longitude": -121.7278708, "elevation": 2033.0, "source": "osm", "_tags": {"ele": "2033", "natural": "peak"}}, {"name": "Pulpit Rock", "latitude": 43.6066369, "longitude": -122.0036675, "elevation": 1946.0, "source": "osm", "_tags": {"ele": "1946", "name": "Pulpit Rock", "natural": "peak", "source": "USGS"}}, {"name": "Green Mountain", "latitude": 43.8526091, "longitude": -122.599875, "elevation": null, "source": "osm", "_tags": {"name": "Green Mountain", "natural": "peak"}}, {"name": "Little Bunchgrass", "latitude": 43.7384506, "longitude": -122.2689657, "elevation": 1618.0, "source": "osm", "_tags": {"ele": "1618", "name": "Little Bunchgrass", "natural": "peak"}}, {"name": "Grasshopper Point", "latitude": 43.8972865, "longitude": -122.1854048, "elevation": 1654.1, "source": "osm", "_tags": {"ele": "1654.1", "name": "Grasshopper Point", "natural": "peak"}}, {"name": "", "latitude": 43.3544633, "longitude": -122.3448697, "elevation": null, "source": "osm", "_tags": {"natural": "peak"}}, {"name": "", "latitude": 43.4085553, "longitude": -122.2896416, "elevation": null, "source": "osm", "_tags": {"natural": "peak"}}, {"name": "", "latitude": 43.4146725, "longitude": -122.3084707, "elevation": null, "source": "osm", "_tags": {"natural": "peak"}}, {"name": "", "latitude": 43.4383263, "longitude": -122.2808169, "elevation": null, "source": "osm", "_tags": {"natural": "peak"}}, {"name": "", "latitude": 43.3700409, "longitude": -122.3412756, "elevation": 1850.746, "source": "osm", "_tags": {"ele": "1850.746", "natural": "peak"}}, {"name": "Little Dome Rock", "latitude": 43.4294975, "longitude": -122.3919194, "elevation": null, "source": "osm", "_tags": {"name": "Little Dome Rock", "natural": "peak"}}, {"name": "Dome Rock", "latitude": 43.4517077, "longitude": -122.402479, "elevation": null, "source": "osm", "_tags": {"name": "Dome Rock", "natural": "peak"}}, {"name": "Bulldog Rock", "latitude": 43.4229041, "longitude": -122.4810662, "elevation": null, "source": "osm", "_tags": {"name": "Bulldog Rock", "natural": "peak"}}, {"name": "Lost Prairie Rock", "latitude": 43.4198385, "longitude": -122.4826233, "elevation": null, "source": "osm", "_tags": {"name": "Lost Prairie Rock", "natural": "peak"}}, {"name": "Pyramid Rock", "latitude": 43.455259, "longitude": -122.5028205, "elevation": 1460.9, "source": "osm", "_tags": {"ele": "1460.9", "name": "Pyramid Rock", "natural": "peak"}}, {"name": "Juniper Mountain", "latitude": 43.5617962, "longitude": -122.3245633, "elevation": 1812.6, "source": "osm", "_tags": {"ele": "1812.6", "gnis:feature_id": "1144459", "name": "Juniper Mountain", "natural": "peak"}}, {"name": "", "latitude": 43.9093927, "longitude": -122.1152039, "elevation": null, "source": "osm", "_tags": {"natural": "peak"}}, {"name": "Monteith Rock", "latitude": 43.7323013, "longitude": -122.3532861, "elevation": null, "source": "osm", "_tags": {"name": "Monteith Rock", "natural": "peak"}}, {"name": "", "latitude": 44.0250218, "longitude": -121.8046528, "elevation": 1847.0, "source": "osm", "_tags": {"ele": "1847", "natural": "peak"}}, {"name": "", "latitude": 44.0282348, "longitude": -121.6970835, "elevation": 2109.0, "source": "osm", "_tags": {"ele": "2109", "natural": "peak"}}, {"name": "Todd Ridge", "latitude": 44.0335523, "longitude": -121.7045885, "elevation": 2143.0, "source": "osm", "_tags": {"ele": "2143", "name": "Todd Ridge", "natural": "peak"}}, {"name": "", "latitude": 44.0356639, "longitude": -121.6946707, "elevation": 2032.0, "source": "osm", "_tags": {"ele": "2032", "natural": "peak"}}, {"name": "Millican Crater", "latitude": 44.2472895, "longitude": -121.7454404, "elevation": 1964.1, "source": "osm", "_tags": {"ele": "1964.1", "name": "Millican Crater", "natural": "peak"}}, {"name": "Little Broken Top", "latitude": 44.0727321, "longitude": -121.777712, "elevation": null, "source": "osm", "_tags": {"name": "Little Broken Top", "natural": "peak"}}, {"name": "Prouty Point", "latitude": 44.155163, "longitude": -121.7810031, "elevation": null, "source": "osm", "_tags": {"name": "Prouty Point", "natural": "peak"}}, {"name": "Hodge Crest", "latitude": 44.0998733, "longitude": -121.7641612, "elevation": 3060.0, "source": "osm", "_tags": {"ele": "3060", "name": "Hodge Crest", "natural": "peak"}}, {"name": "Kruger Rock", "latitude": 43.7636791, "longitude": -122.5917792, "elevation": 1040.6, "source": "osm", "_tags": {"ele": "1040.6", "name": "Kruger Rock", "natural": "peak"}}, {"name": "Alpine Ridge", "latitude": 43.9267991, "longitude": -122.4196673, "elevation": 1285.6, "source": "osm", "_tags": {"ele": "1285.6", "name": "Alpine Ridge", "natural": "peak"}}, {"name": "", "latitude": 43.9212198, "longitude": -122.426641, "elevation": 1312.8, "source": "osm", "_tags": {"ele": "1312.8", "natural": "peak"}}, {"name": "", "latitude": 43.9103998, "longitude": -122.4319089, "elevation": 1330.4, "source": "osm", "_tags": {"ele": "1330.4", "natural": "peak"}}, {"name": "", "latitude": 43.8805571, "longitude": -122.4865294, "elevation": 1421.0, "source": "osm", "_tags": {"ele": "1421", "natural": "peak"}}, {"name": "", "latitude": 43.9008301, "longitude": -122.4538493, "elevation": 1267.7, "source": "osm", "_tags": {"ele": "1267.7", "natural": "peak"}}, {"name": "Alpine Ridge", "latitude": 43.9071224, "longitude": -122.4471116, "elevation": 1301.5, "source": "osm", "_tags": {"ele": "1301.5", "name": "Alpine Ridge", "natural": "peak"}}, {"name": "", "latitude": 43.8892331, "longitude": -122.4873018, "elevation": 1354.0, "source": "osm", "_tags": {"ele": "1354", "natural": "peak"}}, {"name": "", "latitude": 43.5573404, "longitude": -122.1310321, "elevation": 2175.6, "source": "osm", "_tags": {"ele": "2175.6", "natural": "peak"}}, {"name": "", "latitude": 43.5520006, "longitude": -122.1336472, "elevation": 2119.0, "source": "osm", "_tags": {"ele": "2119", "natural": "peak"}}, {"name": "", "latitude": 43.5271793, "longitude": -122.1276552, "elevation": 2379.2, "source": "osm", "_tags": {"ele": "2379.2", "natural": "peak"}}, {"name": "", "latitude": 43.5240871, "longitude": -122.1559149, "elevation": 2531.6, "source": "osm", "_tags": {"ele": "2531.6", "natural": "peak"}}, {"name": "", "latitude": 43.5283783, "longitude": -122.1455213, "elevation": 2630.1, "source": "osm", "_tags": {"ele": "2630.1", "natural": "peak"}}, {"name": "Bunchgrass Ridge", "latitude": 43.7175935, "longitude": -122.2478503, "elevation": 1674.9, "source": "osm", "_tags": {"ele": "1674.9", "name": "Bunchgrass Ridge", "natural": "peak"}}, {"name": "Verdun Rock", "latitude": 43.6714415, "longitude": -122.1944475, "elevation": 1720.6, "source": "osm", "_tags": {"ele": "1720.6", "name": "Verdun Rock", "natural": "peak"}}, {"name": "Larison Rock", "latitude": 43.7114247, "longitude": -122.4717021, "elevation": 1099.4, "source": "osm", "_tags": {"ele": "1099.4", "name": "Larison Rock", "natural": "peak"}}, {"name": "", "latitude": 44.2361907, "longitude": -121.7722035, "elevation": 1920.8, "source": "osm", "_tags": {"ele": "1920.8", "natural": "peak"}}, {"name": "", "latitude": 44.2078423, "longitude": -121.8949199, "elevation": 1640.0, "source": "osm", "_tags": {"ele": "1640", "natural": "peak"}}, {"name": "", "latitude": 44.1910667, "longitude": -121.9144034, "elevation": 1642.0, "source": "osm", "_tags": {"ele": "1642", "natural": "peak"}}, {"name": "", "latitude": 43.6642045, "longitude": -122.0626223, "elevation": 1956.0, "source": "osm", "_tags": {"ele": "1956", "natural": "peak"}}, {"name": "", "latitude": 43.6724193, "longitude": -122.0792842, "elevation": 1980.0, "source": "osm", "_tags": {"ele": "1980", "natural": "peak"}}, {"name": "", "latitude": 43.7057244, "longitude": -122.0720744, "elevation": 1732.0, "source": "osm", "_tags": {"ele": "1732", "natural": "peak"}}, {"name": "", "latitude": 43.7185977, "longitude": -122.072348, "elevation": 1971.0, "source": "osm", "_tags": {"ele": "1971", "natural": "peak"}}, {"name": "", "latitude": 43.5306447, "longitude": -122.1656084, "elevation": 2226.9, "source": "osm", "_tags": {"ele": "2226.9", "natural": "peak"}}, {"name": "Warner Mountain", "latitude": 43.5433767, "longitude": -122.3662886, "elevation": 1744.4, "source": "osm", "_tags": {"ele": "1744.4", "name": "Warner Mountain", "natural": "peak"}}, {"name": "Frissell Point", "latitude": 44.2116644, "longitude": -122.1013749, "elevation": 1568.0, "source": "osm", "_tags": {"ele": "1568", "name": "Frissell Point", "natural": "peak"}}, {"name": "Castle Rock", "latitude": 44.1513778, "longitude": -122.2121394, "elevation": 1160.7, "source": "osm", "_tags": {"ele": "1160.7", "name": "Castle Rock", "natural": "peak"}}, {"name": "Devil's Stairway", "latitude": 43.3669236, "longitude": -122.533291, "elevation": 1649.0, "source": "osm", "_tags": {"ele": "1649", "name": "Devil's Stairway", "natural": "peak"}}, {"name": "Illahee Rock", "latitude": 43.3490873, "longitude": -122.5626344, "elevation": 1640.4, "source": "osm", "_tags": {"ele": "1640.4", "name": "Illahee Rock", "natural": "peak"}}, {"name": "Kitten Rock", "latitude": 43.6012319, "longitude": -122.6670098, "elevation": 1529.0, "source": "osm", "_tags": {"ele": "1529", "name": "Kitten Rock", "natural": "peak"}}, {"name": "Bartrum's Rock", "latitude": 43.3414176, "longitude": -122.5731218, "elevation": 1463.6, "source": "osm", "_tags": {"ele": "1463.6", "name": "Bartrum's Rock", "natural": "peak"}}, {"name": "Limpy Rock", "latitude": 43.3180865, "longitude": -122.6335681, "elevation": 1115.3, "source": "osm", "_tags": {"ele": "1115.3", "name": "Limpy Rock", "natural": "peak"}}, {"name": "Eagle Peak", "latitude": 43.6067269, "longitude": -122.0195964, "elevation": null, "source": "osm", "_tags": {"gnis:feature_id": "2663597", "name": "Eagle Peak", "natural": "peak"}}, {"name": "Rock Knob", "latitude": 43.7884668, "longitude": -122.5952175, "elevation": null, "source": "osm", "_tags": {"gnis:feature_id": "1156737", "name": "Rock Knob", "natural": "peak"}}, {"name": "Buck Mountain", "latitude": 44.2299917, "longitude": -122.3051235, "elevation": 1463.04, "source": "osm", "_tags": {"ele": "1463.04", "gnis:feature_id": "1118202", "name": "Buck Mountain", "natural": "peak"}}, {"name": "Tidbits Mountain", "latitude": 44.2679751, "longitude": -122.3188752, "elevation": 1585.0, "source": "osm", "_tags": {"ele": "1585", "name": "Tidbits Mountain", "natural": "peak"}}, {"name": "", "latitude": 44.1503681, "longitude": -122.3971837, "elevation": 1030.529, "source": "osm", "_tags": {"ele": "1030.529", "natural": "peak"}}, {"name": "Staley Ridge", "latitude": 43.3987292, "longitude": -122.4004236, "elevation": 1886.712, "source": "osm", "_tags": {"ele": "1886.712", "name": "Staley Ridge", "natural": "peak"}}, {"name": "South Chucksney", "latitude": 43.9165573, "longitude": -122.114532, "elevation": 1766.316, "source": "osm", "_tags": {"ele": "1766.316", "name": "South Chucksney", "natural": "peak"}}, {"name": "Augusta Creek Ridge", "latitude": 43.9066138, "longitude": -122.1415844, "elevation": 1670.304, "source": "osm", "_tags": {"ele": "1670.304", "name": "Augusta Creek Ridge", "natural": "peak"}}, {"name": "Roaring River Ridge", "latitude": 43.9294492, "longitude": -122.0490868, "elevation": 1531.925, "source": "osm", "_tags": {"ele": "1531.925", "name": "Roaring River Ridge", "natural": "peak"}}]