[{"name": "Dills Mound", "latitude": 44.7794121, "longitude": -92.7563121, "elevation": 320.0, "source": "osm", "_tags": {"ele": "320", "gnis:feature_id": "1563983", "name": "Dills Mound", "natural": "peak"}}, {"name": "Starks Mound", "latitude": 44.8099677, "longitude": -92.7518679, "elevation": 310.0, "source": "osm", "_tags": {"ele": "310", "gnis:feature_id": "1574818", "name": "Starks Mound", "natural": "peak"}}, {"name": "Coons Hill", "latitude": 44.9746896, "longitude": -92.7410362, "elevation": 268.0, "source": "osm", "_tags": {"ele": "268", "gnis:feature_id": "1831733", "name": "Coons Hill", "natural": "peak"}}, {"name": "Melander Hill", "latitude": 44.8561111, "longitude": -92.6963889, "elevation": 330.0, "source": "osm", "_tags": {"ele": "330", "gnis:feature_id": "2514792", "name": "Melander Hill", "natural": "peak"}}, {"name": "Norwegian Hill", "latitude": 45.024604, "longitude": -93.2430709, "elevation": 293.522, "source": "osm", "_tags": {"ele": "293.522", "name": "Norwegian Hill", "natural": "peak", "note": "Location of node is not specific. Please adjust if you have a better gauge of where the peak is."}}, {"name": "Seminary Hill", "latitude": 45.0610013, "longitude": -93.1648952, "elevation": null, "source": "osm", "_tags": {"name": "Seminary Hill", "natural": "peak"}}, {"name": "Sand Creek Sledding Hill", "latitude": 45.1926813, "longitude": -93.2879183, "elevation": null, "source": "osm", "_tags": {"name": "Sand Creek Sledding Hill", "natural": "peak"}}, {"name": "Hill of Three Oaks", "latitude": 44.4632391, "longitude": -93.1472639, "elevation": null, "source": "osm", "_tags": {"name": "Hill of Three Oaks", "natural": "peak"}}, {"name": "", "latitude": 45.1069861, "longitude": -93.3431782, "elevation": null, "source": "osm", "_tags": {"ele:ft": "870", "natural": "peak"}}, {"name": "Bissel's Mound", "latitude": 44.9233224, "longitude": -92.8337804, "elevation": 307.0, "source": "osm", "_tags": {"ele": "307", "name": "Bissel's Mound", "natural": "peak"}}, {"name": "", "latitude": 44.8405803, "longitude": -93.1680522, "elevation": null, "source": "osm", "_tags": {"natural": "peak"}}, {"name": "Sky Hill Park Overlook", "latitude": 44.8272161, "longitude": -93.190209, "elevation": null, "source": "osm", "_tags": {"name": "Sky Hill Park Overlook", "natural": "peak"}}, {"name": "Friendship Point", "latitude": 44.5096854, "longitude": -92.9692155, "elevation": null, "source": "osm", "_tags": {"name": "Friendship Point", "natural": "peak"}}, {"name": "Mount Gilboa", "latitude": 44.840234, "longitude": -93.3671633, "elevation": null, "source": "osm", "_tags": {"gnis:feature_id": "644133", "name": "Mount Gilboa", "natural": "peak"}}, {"name": "West Praire Hill", "latitude": 44.5016899, "longitude": -93.0333536, "elevation": 294.0, "source": "osm", "_tags": {"ele": "294", "name": "West Praire Hill", "natural": "peak"}}, {"name": "East Prairie Hill", "latitude": 44.5015834, "longitude": -93.0289855, "elevation": 297.0, "source": "osm", "_tags": {"ele": "297", "name": "East Prairie Hill", "natural": "peak"}}, {"name": "", "latitude": 44.9264957, "longitude": -92.8306988, "elevation": null, "source": "osm", "_tags": {"natural": "peak"}}, {"name": "", "latitude": 44.9214345, "longitude": -92.8452525, "elevation": null, "source": "osm", "_tags": {"natural": "peak"}}, {"name": "", "latitude": 44.9225645, "longitude": -92.8436351, "elevation": null, "source": "osm", "_tags": {"natural": "peak"}}, {"name": "", "latitude": 44.921765, "longitude": -92.8394133, "elevation": null, "source": "osm", "_tags": {"natural": "peak"}}, {"name": "", "latitude": 44.9221752, "longitude": -92.8386931, "elevation": null, "source": "osm", "_tags": {"natural": "peak"}}]