[{"name": "Aldis Hill", "latitude": 44.8183791, "longitude": -73.0693036, "elevation": 256.0, "source": "osm", "_tags": {"ele": "256", "gnis:feature_id": "1456133", "name": "Aldis Hill", "natural": "peak", "wikidata": "Q35723914"}}, {"name": "Armstrong Hill", "latitude": 44.700605, "longitude": -72.8809665, "elevation": 434.0, "source": "osm", "_tags": {"ele": "434", "gnis:feature_id": "1456173", "name": "Armstrong Hill", "natural": "peak", "wikidata": "Q35724419"}}, {"name": "Arrowhead Mountain", "latitude": 44.6706029, "longitude": -73.1201345, "elevation": 275.0, "source": "osm", "_tags": {"ele": "275", "gnis:feature_id": "1456176", "name": "Arrowhead Mountain", "natural": "peak", "wikidata": "Q35724450"}}, {"name": "Ayers Hill", "latitude": 45.0122676, "longitude": -72.7354155, "elevation": 387.0, "source": "osm", "_tags": {"ele": "387", "gnis:feature_id": "1456197", "name": "Ayers Hill", "natural": "peak", "wikidata": "Q35724633"}}, {"name": "Bald Hill", "latitude": 44.3192222, "longitude": -72.9073424, "elevation": 927.0, "source": "osm", "_tags": {"ele": "927", "gnis:feature_id": "1456219", "name": "Bald Hill", "natural": "peak", "wikidata": "Q35724978"}}, {"name": "Bald Hill", "latitude": 44.4972392, "longitude": -72.9199647, "elevation": 584.0, "source": "osm", "_tags": {"ele": "584", "gnis:feature_id": "1456220", "name": "Bald Hill", "natural": "peak", "wikidata": "Q35724986"}}, {"name": "Bald Hill", "latitude": 44.5872713, "longitude": -73.0717982, "elevation": 318.0, "source": "osm", "_tags": {"ele": "318", "gnis:feature_id": "1456221", "name": "Bald Hill", "natural": "peak", "wikidata": "Q35724994"}}, {"name": "Bald Knob", "latitude": 44.6661609, "longitude": -72.8962436, "elevation": 309.0, "source": "osm", "_tags": {"ele": "309", "gnis:feature_id": "1456223", "name": "Bald Knob", "natural": "peak", "wikidata": "Q35725095"}}, {"name": "Barber Hill", "latitude": 44.3031077, "longitude": -73.2587362, "elevation": 117.0, "source": "osm", "_tags": {"ele": "117", "gnis:feature_id": "1456246", "name": "Barber Hill", "natural": "peak", "wikidata": "Q35725813"}}, {"name": "Bartlett Hill", "latitude": 44.6689387, "longitude": -72.8445741, "elevation": 422.0, "source": "osm", "_tags": {"ele": "422", "gnis:feature_id": "1456280", "name": "Bartlett Hill", "natural": "peak", "wikidata": "Q35726006"}}, {"name": "Bear Head", "latitude": 44.5522737, "longitude": -72.8084571, "elevation": 1192.0, "source": "osm", "_tags": {"ele": "1192", "gnis:feature_id": "1456313", "name": "Bear Head", "natural": "peak", "wikidata": "Q35726501"}}, {"name": "Bears Den Hill", "latitude": 44.7403267, "longitude": -72.7809614, "elevation": 397.0, "source": "osm", "_tags": {"ele": "397", "gnis:feature_id": "1456330", "name": "Bears Den Hill", "natural": "peak", "wikidata": "Q35726700"}}, {"name": "Bellevue Hill", "latitude": 44.7819912, "longitude": -73.0648613, "elevation": 401.0, "source": "osm", "_tags": {"ele": "401", "gnis:feature_id": "1456380", "name": "Bellevue Hill", "natural": "peak", "wikidata": "Q35726857"}}, {"name": "Birch Hill", "latitude": 44.4625518, "longitude": -72.9598468, "elevation": 372.0, "source": "osm", "_tags": {"ele": "372", "gnis:feature_id": "1456428", "name": "Birch Hill", "natural": "peak", "wikidata": "Q35727376"}}, {"name": "Black Hill", "latitude": 44.6617165, "longitude": -72.8998546, "elevation": 332.0, "source": "osm", "_tags": {"ele": "332", "gnis:feature_id": "1456444", "name": "Black Hill", "natural": "peak", "wikidata": "Q35727627"}}, {"name": "Blush Hill", "latitude": 44.3675559, "longitude": -72.7337288, "elevation": 255.0, "source": "osm", "_tags": {"ele": "255", "gnis:feature_id": "1456500", "name": "Blush Hill", "natural": "peak", "wikidata": "Q35728489"}}, {"name": "Bolton Mountain", "latitude": 44.4492199, "longitude": -72.8395662, "elevation": 1123.0, "source": "osm", "_tags": {"ele": "1123", "gnis:feature_id": "1456515", "name": "Bolton Mountain", "natural": "peak", "wikidata": "Q4940205"}}, {"name": "Bone Mountain", "latitude": 44.4025542, "longitude": -72.8442875, "elevation": 889.0, "source": "osm", "_tags": {"ele": "889", "gnis:feature_id": "1456523", "name": "Bone Mountain", "natural": "peak", "wikidata": "Q35728675"}}, {"name": "Bradley Hill", "latitude": 44.7139344, "longitude": -73.1798559, "elevation": 124.0, "source": "osm", "_tags": {"ele": "124", "gnis:feature_id": "1456542", "name": "Bradley Hill", "natural": "peak", "wikidata": "Q35729118"}}, {"name": "Bridgeman Hill", "latitude": 44.9888457, "longitude": -72.935897, "elevation": 220.0, "source": "osm", "_tags": {"ele": "220", "gnis:feature_id": "1456563", "name": "Bridgeman Hill", "natural": "peak", "wikidata": "Q35729293"}}, {"name": "Brigham Hill", "latitude": 44.5581046, "longitude": -73.1009632, "elevation": 308.0, "source": "osm", "_tags": {"ele": "308", "gnis:feature_id": "1456568", "name": "Brigham Hill", "natural": "peak", "wikidata": "Q35729340"}}, {"name": "Brownell Mountain", "latitude": 44.4064402, "longitude": -73.1362366, "elevation": 248.0, "source": "osm", "_tags": {"ele": "248", "gnis:feature_id": "1456602", "name": "Brownell Mountain", "natural": "peak", "wikidata": "Q35729585"}}, {"name": "Buck Hill", "latitude": 44.7047715, "longitude": -72.9995854, "elevation": 291.0, "source": "osm", "_tags": {"ele": "291", "gnis:feature_id": "1456622", "name": "Buck Hill", "natural": "peak", "wikidata": "Q35729815"}}, {"name": "Buck Mountain", "latitude": 44.7294935, "longitude": -72.9731964, "elevation": 404.0, "source": "osm", "_tags": {"ele": "404", "gnis:feature_id": "1456626", "name": "Buck Mountain", "natural": "peak", "wikidata": "Q35729909"}}, {"name": "Buker Hill", "latitude": 44.6140853, "longitude": -72.8881861, "elevation": 483.0, "source": "osm", "_tags": {"ele": "483", "gnis:feature_id": "1456631", "name": "Buker Hill", "natural": "peak", "wikidata": "Q35730203"}}, {"name": "Bull Moose Hill", "latitude": 44.5459314, "longitude": -72.697895, "elevation": 606.0, "source": "osm", "_tags": {"ele": "606", "gnis:feature_id": "1456636", "name": "Bull Moose Hill", "natural": "peak", "wikidata": "Q35730287"}}, {"name": "Burnt Mountain", "latitude": 44.7500487, "longitude": -72.7692941, "elevation": 513.0, "source": "osm", "_tags": {"ele": "513", "gnis:feature_id": "1456675", "name": "Burnt Mountain", "natural": "peak", "wikidata": "Q35730705"}}, {"name": "Cobbler Hill", "latitude": 44.7417157, "longitude": -72.9270829, "elevation": 420.0, "source": "osm", "_tags": {"ele": "420", "gnis:feature_id": "1456710", "name": "Cobbler Hill", "natural": "peak", "wikidata": "Q35735260"}}, {"name": "Cady Hill", "latitude": 44.4639427, "longitude": -72.7034516, "elevation": 357.0, "source": "osm", "_tags": {"ele": "357", "gnis:feature_id": "1456714", "name": "Cady Hill", "natural": "peak", "wikidata": "Q35732425"}}, {"name": "Camels Hump", "latitude": 44.3195633, "longitude": -72.8863168, "elevation": 1243.0, "source": "osm", "_tags": {"ele": "1243", "gnis:feature_id": "1456724", "name": "Camels Hump", "natural": "peak", "source": "knowledge", "source:ele": "USGS Geonames", "wikidata": "Q5025846", "wikipedia": "en:Camel's Hump"}}, {"name": "Cap Hill", "latitude": 44.5389625, "longitude": -72.9593613, "elevation": 373.0, "source": "osm", "_tags": {"ele": "373", "gnis:feature_id": "1456763", "name": "Cap Hill", "natural": "peak", "wikidata": "Q35732733"}}, {"name": "Caper Hill", "latitude": 44.5839405, "longitude": -72.6959534, "elevation": 636.0, "source": "osm", "_tags": {"ele": "636", "gnis:feature_id": "1456764", "name": "Caper Hill", "natural": "peak", "wikidata": "Q35732772"}}, {"name": "Carter Hill", "latitude": 44.9450428, "longitude": -73.0642971, "elevation": 122.0, "source": "osm", "_tags": {"ele": "122", "gnis:feature_id": "1456779", "name": "Carter Hill", "natural": "peak", "wikidata": "Q35732903"}}, {"name": "Chamberlain Hill", "latitude": 44.410608, "longitude": -73.021791, "elevation": 285.0, "source": "osm", "_tags": {"ele": "285", "gnis:feature_id": "1456837", "name": "Chamberlain Hill", "natural": "peak", "wikidata": "Q35733956"}}, {"name": "Church Hill", "latitude": 44.6911606, "longitude": -72.8870776, "elevation": 370.0, "source": "osm", "_tags": {"ele": "370", "gnis:feature_id": "1456890", "name": "Church Hill", "natural": "peak", "wikidata": "Q35734700"}}, {"name": "Mount Cobb", "latitude": 44.3011685, "longitude": -72.7401167, "elevation": 484.0, "source": "osm", "_tags": {"ele": "484", "gnis:feature_id": "1456939", "name": "Mount Cobb", "natural": "peak", "wikidata": "Q49052345"}}, {"name": "Cobble Hill", "latitude": 44.5992147, "longitude": -73.1348535, "elevation": 276.0, "source": "osm", "_tags": {"ele": "276", "gnis:feature_id": "1456943", "name": "Cobble Hill", "natural": "peak", "wikidata": "Q35735219"}}, {"name": "Coombs Hill", "latitude": 44.7292158, "longitude": -72.9312491, "elevation": 450.0, "source": "osm", "_tags": {"ele": "450", "gnis:feature_id": "1457011", "name": "Coombs Hill", "natural": "peak", "wikidata": "Q35735794"}}, {"name": "Crossett Hill", "latitude": 44.3176526, "longitude": -72.8130381, "elevation": 694.0, "source": "osm", "_tags": {"ele": "694", "gnis:feature_id": "1457061", "name": "Crossett Hill", "natural": "peak", "wikidata": "Q35736539"}}, {"name": "Cushing Hill", "latitude": 44.485843, "longitude": -72.8961544, "elevation": 354.0, "source": "osm", "_tags": {"ele": "354", "gnis:feature_id": "1457076", "name": "Cushing Hill", "natural": "peak", "wikidata": "Q35736740"}}, {"name": "Cushman Hill", "latitude": 44.7128257, "longitude": -73.0662497, "elevation": 329.0, "source": "osm", "_tags": {"ele": "329", "gnis:feature_id": "1457078", "name": "Cushman Hill", "natural": "peak", "wikidata": "Q35736762"}}, {"name": "Dewey Mountain", "latitude": 44.4936634, "longitude": -72.8212334, "elevation": 1013.0, "source": "osm", "_tags": {"ele": "1013", "gnis:feature_id": "1457164", "name": "Dewey Mountain", "natural": "peak", "wikidata": "Q49024641"}}, {"name": "Diamond Hill", "latitude": 44.665324, "longitude": -73.1856877, "elevation": 160.0, "source": "osm", "_tags": {"ele": "160", "gnis:feature_id": "1457169", "name": "Diamond Hill", "natural": "peak", "wikidata": "Q49024720"}}, {"name": "Dow Hill", "latitude": 44.3622752, "longitude": -73.0642903, "elevation": 378.0, "source": "osm", "_tags": {"ele": "378", "gnis:feature_id": "1457188", "name": "Dow Hill", "natural": "peak", "wikidata": "Q49025712"}}, {"name": "Duffy Hill", "latitude": 44.5919489, "longitude": -72.9482102, "elevation": 398.0, "source": "osm", "_tags": {"ele": "398", "gnis:feature_id": "1457209", "name": "Duffy Hill", "natural": "peak", "wikidata": "Q49026069"}}, {"name": "Eagle Mountain", "latitude": 44.6697679, "longitude": -73.2081871, "elevation": 168.0, "source": "osm", "_tags": {"ele": "168", "gnis:feature_id": "1457236", "name": "Eagle Mountain", "natural": "peak", "wikidata": "Q49026540"}}, {"name": "Ellenwood Hill", "latitude": 44.6744941, "longitude": -72.893466, "elevation": 333.0, "source": "osm", "_tags": {"ele": "333", "gnis:feature_id": "1457355", "name": "Ellenwood Hill", "natural": "peak", "wikidata": "Q49027913"}}, {"name": "Feigel Hill", "latitude": 44.4844964, "longitude": -72.8745677, "elevation": 526.0, "source": "osm", "_tags": {"ele": "526", "gnis:feature_id": "1457417", "name": "Feigel Hill", "natural": "peak", "wikidata": "Q49028692"}}, {"name": "Fletcher Mountain", "latitude": 44.7189381, "longitude": -72.7984619, "elevation": 643.0, "source": "osm", "_tags": {"ele": "643", "gnis:feature_id": "1457455", "name": "Fletcher Mountain", "natural": "peak", "wikidata": "Q49029714"}}, {"name": "Flynn Hill", "latitude": 44.5566392, "longitude": -72.8932911, "elevation": 569.0, "source": "osm", "_tags": {"ele": "569", "gnis:feature_id": "1457463", "name": "Flynn Hill", "natural": "peak", "wikidata": "Q49029843"}}, {"name": "Fox Hill", "latitude": 44.6267134, "longitude": -73.1945754, "elevation": 115.0, "source": "osm", "_tags": {"ele": "115", "gnis:feature_id": "1457484", "name": "Fox Hill", "natural": "peak", "wikidata": "Q49030323"}}, {"name": "Fox Hill", "latitude": 44.7967145, "longitude": -72.9137478, "elevation": 236.0, "source": "osm", "_tags": {"ele": "236", "gnis:feature_id": "1457485", "name": "Fox Hill", "natural": "peak", "wikidata": "Q49030324"}}, {"name": "Gates Hill", "latitude": 44.9639329, "longitude": -72.9167987, "elevation": 253.0, "source": "osm", "_tags": {"ele": "253", "gnis:feature_id": "1457527", "name": "Gates Hill", "natural": "peak", "wikidata": "Q49031189"}}, {"name": "Georgia Mountain", "latitude": 44.6639372, "longitude": -73.0706913, "elevation": 438.0, "source": "osm", "_tags": {"ele": "438", "gnis:feature_id": "1457533", "name": "Georgia Mountain", "natural": "peak", "wikidata": "Q49031305"}}, {"name": "Giddings Hill", "latitude": 44.8161588, "longitude": -72.8106876, "elevation": 396.0, "source": "osm", "_tags": {"ele": "396", "gnis:feature_id": "1457538", "name": "Giddings Hill", "natural": "peak", "wikidata": "Q49031434"}}, {"name": "Gilson Mountain", "latitude": 44.7294935, "longitude": -72.9126368, "elevation": 598.0, "source": "osm", "_tags": {"ele": "598", "gnis:feature_id": "1457551", "name": "Gilson Mountain", "natural": "peak", "wikidata": "Q49031530"}}, {"name": "Gregg Hill", "latitude": 44.4011662, "longitude": -72.7409519, "elevation": 336.0, "source": "osm", "_tags": {"ele": "336", "gnis:feature_id": "1457651", "name": "Gregg Hill", "natural": "peak", "wikidata": "Q49033809"}}, {"name": "Hedgehog Hill", "latitude": 44.5371508, "longitude": -72.9185576, "elevation": 478.0, "source": "osm", "_tags": {"ele": "478", "gnis:feature_id": "1457792", "name": "Hedgehog Hill", "natural": "peak", "wikidata": "Q49035815"}}, {"name": "Hedgehog Hill", "latitude": 44.6622719, "longitude": -72.9345788, "elevation": 278.0, "source": "osm", "_tags": {"ele": "278", "gnis:feature_id": "1457793", "name": "Hedgehog Hill", "natural": "peak", "wikidata": "Q49035819"}}, {"name": "High Rock", "latitude": 44.3453306, "longitude": -73.1156794, "elevation": 151.0, "source": "osm", "_tags": {"ele": "151", "gnis:feature_id": "1457819", "name": "High Rock", "natural": "peak", "wikidata": "Q49036413"}}, {"name": "Huckleberry Hill", "latitude": 44.4314414, "longitude": -72.9567904, "elevation": 503.0, "source": "osm", "_tags": {"ele": "503", "gnis:feature_id": "1457929", "name": "Huckleberry Hill", "natural": "peak", "wikidata": "Q49037780"}}, {"name": "Jack Lot Hill", "latitude": 44.5611155, "longitude": -72.9794307, "elevation": 438.0, "source": "osm", "_tags": {"ele": "438", "gnis:feature_id": "1457981", "name": "Jack Lot Hill", "natural": "peak", "wikidata": "Q49039321"}}, {"name": "Kings Hill Mountain", "latitude": 44.7281047, "longitude": -72.7909617, "elevation": 601.0, "source": "osm", "_tags": {"ele": "601", "gnis:feature_id": "1458101", "name": "Kings Hill Mountain", "natural": "peak", "wikidata": "Q49041759"}}, {"name": "Laisdell Hill", "latitude": 44.4772735, "longitude": -72.9820698, "elevation": 315.0, "source": "osm", "_tags": {"ele": "315", "gnis:feature_id": "1458132", "name": "Laisdell Hill", "natural": "peak", "wikidata": "Q49043214"}}, {"name": "Laraway Mountain", "latitude": 44.7269935, "longitude": -72.7106788, "elevation": 830.0, "source": "osm", "_tags": {"ele": "830", "gnis:feature_id": "1458167", "name": "Laraway Mountain", "natural": "peak", "wikidata": "Q49043493"}}, {"name": "Leach Hill", "latitude": 44.709216, "longitude": -72.9187472, "elevation": 510.0, "source": "osm", "_tags": {"ele": "510", "gnis:feature_id": "1458182", "name": "Leach Hill", "natural": "peak", "wikidata": "Q49043770"}}, {"name": "Leach Hill", "latitude": 44.8578247, "longitude": -72.8440225, "elevation": 376.0, "source": "osm", "_tags": {"ele": "376", "gnis:feature_id": "1458183", "name": "Leach Hill", "natural": "peak", "wikidata": "Q49043772"}}, {"name": "Lincoln Hill", "latitude": 44.3000545, "longitude": -73.0484553, "elevation": 492.0, "source": "osm", "_tags": {"ele": "492", "gnis:feature_id": "1458222", "name": "Lincoln Hill", "natural": "peak", "wikidata": "Q49044334"}}, {"name": "Lone Tree Hill", "latitude": 44.3908887, "longitude": -73.260635, "elevation": 110.0, "source": "osm", "_tags": {"ele": "110", "gnis:feature_id": "1458266", "name": "Lone Tree Hill", "natural": "peak", "wikidata": "Q49046250"}}, {"name": "Luce Hill", "latitude": 44.4683868, "longitude": -72.7470645, "elevation": 503.0, "source": "osm", "_tags": {"ele": "503", "gnis:feature_id": "1458311", "name": "Luce Hill", "natural": "peak", "wikidata": "Q49047105"}}, {"name": "Madonna Peak", "latitude": 44.5613426, "longitude": -72.7584782, "elevation": 1107.0, "source": "osm", "_tags": {"ele": "1107", "gnis:feature_id": "1458334", "name": "Madonna Peak", "natural": "peak", "wikidata": "Q49047373"}}, {"name": "Malletts Head", "latitude": 44.5706027, "longitude": -73.2392958, "elevation": 93.0, "source": "osm", "_tags": {"ele": "93", "gnis:feature_id": "1458340", "name": "Malletts Head", "natural": "peak", "wikidata": "Q49047659"}}, {"name": "Mayers Dome", "latitude": 44.464219, "longitude": -72.8967899, "elevation": 421.0, "source": "osm", "_tags": {"ele": "421", "gnis:feature_id": "1458385", "name": "Mayers Dome", "natural": "peak", "wikidata": "Q49048450"}}, {"name": "McLean Hill", "latitude": 44.5721656, "longitude": -72.9508526, "elevation": 436.0, "source": "osm", "_tags": {"ele": "436", "gnis:feature_id": "1458399", "name": "McLean Hill", "natural": "peak", "wikidata": "Q49048937"}}, {"name": "Metcalf Hill", "latitude": 44.5708228, "longitude": -72.9311576, "elevation": 411.0, "source": "osm", "_tags": {"ele": "411", "gnis:feature_id": "1458424", "name": "Metcalf Hill", "natural": "peak", "wikidata": "Q49049657"}}, {"name": "Minister Hill", "latitude": 45.0028211, "longitude": -72.9106869, "elevation": 203.0, "source": "osm", "_tags": {"ele": "203", "gnis:feature_id": "1458492", "name": "Minister Hill", "natural": "peak", "wikidata": "Q49050578"}}, {"name": "Morgan Hill", "latitude": 44.6031056, "longitude": -72.9948557, "elevation": 251.0, "source": "osm", "_tags": {"ele": "251", "gnis:feature_id": "1458536", "name": "Morgan Hill", "natural": "peak", "wikidata": "Q49051532"}}, {"name": "Morse Mountain", "latitude": 44.5764404, "longitude": -72.7517891, "elevation": 1029.0, "source": "osm", "_tags": {"ele": "1029", "gnis:feature_id": "1458552", "name": "Morse Mountain", "natural": "peak", "wikidata": "Q49051654"}}, {"name": "Mount Clark", "latitude": 44.4786636, "longitude": -72.8412335, "elevation": 903.0, "source": "osm", "_tags": {"ele": "903", "gnis:feature_id": "1458576", "name": "Mount Clark", "natural": "peak", "wikidata": "Q49052321"}}, {"name": "Mount Mayo", "latitude": 44.4619973, "longitude": -72.8381775, "elevation": 952.0, "source": "osm", "_tags": {"ele": "952", "gnis:feature_id": "1458579", "name": "Mount Mayo", "natural": "peak", "wikidata": "Q49053573"}}, {"name": "Mount Pritchard", "latitude": 44.3703302, "longitude": -73.1045687, "elevation": 356.0, "source": "osm", "_tags": {"ele": "356", "gnis:feature_id": "1458584", "name": "Mount Pritchard", "natural": "peak", "wikidata": "Q49054222"}}, {"name": "North Hill", "latitude": 44.4200548, "longitude": -72.7045619, "elevation": 516.0, "source": "osm", "_tags": {"ele": "516", "gnis:feature_id": "1458744", "name": "North Hill", "natural": "peak", "wikidata": "Q49057332"}}, {"name": "Number Eleven Hill", "latitude": 44.6112251, "longitude": -72.9596114, "elevation": 360.0, "source": "osm", "_tags": {"ele": "360", "gnis:feature_id": "1458794", "name": "Number Eleven Hill", "natural": "peak", "wikidata": "Q49057722"}}, {"name": "O P Hill", "latitude": 44.4664409, "longitude": -72.9240127, "elevation": 448.0, "source": "osm", "_tags": {"ele": "448", "gnis:feature_id": "1458802", "name": "O P Hill", "natural": "peak", "wikidata": "Q49057800"}}, {"name": "Oak Hill", "latitude": 44.6353964, "longitude": -72.9542372, "elevation": 352.0, "source": "osm", "_tags": {"ele": "352", "gnis:feature_id": "1458810", "name": "Oak Hill", "natural": "peak", "wikidata": "Q49057962"}}, {"name": "Oak Hill", "latitude": 44.6939384, "longitude": -72.8887445, "elevation": 377.0, "source": "osm", "_tags": {"ele": "377", "gnis:feature_id": "1458811", "name": "Oak Hill", "natural": "peak", "wikidata": "Q49057965"}}, {"name": "Owls Head", "latitude": 44.3739422, "longitude": -73.0073455, "elevation": 343.0, "source": "osm", "_tags": {"ele": "343", "gnis:feature_id": "1458864", "name": "Owls Head", "natural": "peak", "wikidata": "Q49059193"}}, {"name": "Owlshead Mountain", "latitude": 44.3345013, "longitude": -72.6931709, "elevation": 510.0, "source": "osm", "_tags": {"ele": "510", "gnis:feature_id": "1458868", "name": "Owlshead Mountain", "natural": "peak", "wikidata": "Q49059202"}}, {"name": "Peaked Mountain", "latitude": 44.7869926, "longitude": -72.7492946, "elevation": 577.0, "source": "osm", "_tags": {"ele": "577", "gnis:feature_id": "1458921", "name": "Peaked Mountain", "natural": "peak", "wikidata": "Q49060362"}}, {"name": "Pease Mountain", "latitude": 44.3073265, "longitude": -73.2376911, "elevation": 248.0, "source": "osm", "_tags": {"ele": "248", "gnis:feature_id": "1458927", "name": "Pease Mountain", "natural": "peak", "wikidata": "Q49060426"}}, {"name": "Perry Hill", "latitude": 44.3361679, "longitude": -72.7137274, "elevation": 406.0, "source": "osm", "_tags": {"ele": "406", "gnis:feature_id": "1458946", "name": "Perry Hill", "natural": "peak", "wikidata": "Q49060736"}}, {"name": "Pheasant Hill", "latitude": 44.4092168, "longitude": -73.2573492, "elevation": 86.0, "source": "osm", "_tags": {"ele": "86", "gnis:feature_id": "1458949", "name": "Pheasant Hill", "natural": "peak", "wikidata": "Q49060952"}}, {"name": "Pine Hill", "latitude": 44.75116, "longitude": -72.9212496, "elevation": 449.0, "source": "osm", "_tags": {"ele": "449", "gnis:feature_id": "1458973", "name": "Pine Hill", "natural": "peak", "wikidata": "Q49061606"}}, {"name": "Prospect Hill", "latitude": 44.6386603, "longitude": -73.034302, "elevation": 312.0, "source": "osm", "_tags": {"ele": "312", "gnis:feature_id": "1459086", "name": "Prospect Hill", "natural": "peak", "wikidata": "Q49064232"}}, {"name": "Prospect Rock", "latitude": 44.6552188, "longitude": -72.7221615, "elevation": 311.0, "source": "osm", "_tags": {"ele": "311", "gnis:feature_id": "1459089", "name": "Prospect Rock", "natural": "peak", "wikidata": "Q49064291"}}, {"name": "Putnam Hill", "latitude": 44.6323105, "longitude": -72.9021248, "elevation": 343.0, "source": "osm", "_tags": {"ele": "343", "gnis:feature_id": "1459108", "name": "Putnam Hill", "natural": "peak", "wikidata": "Q49064600"}}, {"name": "Red Rock", "latitude": 44.2978325, "longitude": -73.0403995, "elevation": 493.0, "source": "osm", "_tags": {"ele": "493", "gnis:feature_id": "1459155", "name": "Red Rock", "natural": "peak", "wikidata": "Q49067946"}}, {"name": "Rice Hill", "latitude": 44.9321993, "longitude": -72.9593765, "elevation": 241.0, "source": "osm", "_tags": {"ele": "241", "gnis:feature_id": "1459173", "name": "Rice Hill", "natural": "peak", "wikidata": "Q49068363"}}, {"name": "Ricker Mountain", "latitude": 44.4205399, "longitude": -72.8280368, "elevation": 1035.0, "source": "osm", "_tags": {"ele": "1035", "gnis:feature_id": "1459184", "name": "Ricker Mountain", "natural": "peak", "wikidata": "Q49068491"}}, {"name": "Robbins Mountain", "latitude": 44.364221, "longitude": -72.930955, "elevation": 624.0, "source": "osm", "_tags": {"ele": "624", "gnis:feature_id": "1459216", "name": "Robbins Mountain", "natural": "peak", "wikidata": "Q49068736"}}, {"name": "Roundtop", "latitude": 44.5106084, "longitude": -72.6990078, "elevation": 532.0, "source": "osm", "_tags": {"ele": "532", "gnis:feature_id": "1459266", "name": "Roundtop", "natural": "peak", "wikidata": "Q49070185"}}, {"name": "Ryan Mountain", "latitude": 44.7317157, "longitude": -72.8429098, "elevation": 325.0, "source": "osm", "_tags": {"ele": "325", "gnis:feature_id": "1459294", "name": "Ryan Mountain", "natural": "peak", "wikidata": "Q49070465"}}, {"name": "Saint Albans Hill", "latitude": 44.7750462, "longitude": -73.098749, "elevation": 275.0, "source": "osm", "_tags": {"ele": "275", "gnis:feature_id": "1459311", "name": "Saint Albans Hill", "natural": "peak", "wikidata": "Q49070834"}}, {"name": "Sand Hill", "latitude": 44.6606053, "longitude": -72.9506906, "elevation": 267.0, "source": "osm", "_tags": {"ele": "267", "gnis:feature_id": "1459360", "name": "Sand Hill", "natural": "peak", "wikidata": "Q49071194"}}, {"name": "Saxon Hill", "latitude": 44.488384, "longitude": -73.0234596, "elevation": 294.0, "source": "osm", "_tags": {"ele": "294", "gnis:feature_id": "1459394", "name": "Saxon Hill", "natural": "peak", "wikidata": "Q49071681"}}, {"name": "Seeley Hill", "latitude": 44.6444679, "longitude": -72.8168004, "elevation": 222.0, "source": "osm", "_tags": {"ele": "222", "gnis:feature_id": "1459444", "name": "Seeley Hill", "natural": "peak", "wikidata": "Q49072156"}}, {"name": "Shattuck Mountain", "latitude": 44.7572708, "longitude": -72.7687389, "elevation": 497.0, "source": "osm", "_tags": {"ele": "497", "gnis:feature_id": "1459465", "name": "Shattuck Mountain", "natural": "peak", "wikidata": "Q49072660"}}, {"name": "Sheldon Hill", "latitude": 44.8758795, "longitude": -72.8884676, "elevation": 271.0, "source": "osm", "_tags": {"ele": "271", "gnis:feature_id": "1459484", "name": "Sheldon Hill", "natural": "peak", "wikidata": "Q49073133"}}, {"name": "Shingle Hill", "latitude": 45.0061547, "longitude": -72.8837439, "elevation": 218.0, "source": "osm", "_tags": {"ele": "218", "gnis:feature_id": "1459495", "name": "Shingle Hill", "natural": "peak", "wikidata": "Q49073332"}}, {"name": "South Hill", "latitude": 44.5059457, "longitude": -72.927538, "elevation": 490.0, "source": "osm", "_tags": {"ele": "490", "gnis:feature_id": "1459591", "name": "South Hill", "natural": "peak", "wikidata": "Q49075838"}}, {"name": "Spruce Peak", "latitude": 44.5517458, "longitude": -72.7828516, "elevation": 1013.0, "source": "osm", "_tags": {"ele": "1013", "gnis:feature_id": "1459656", "name": "Spruce Peak", "natural": "peak", "wikidata": "Q49076911"}}, {"name": "Stanhope Hill", "latitude": 44.9014294, "longitude": -73.3437439, "elevation": 51.0, "source": "osm", "_tags": {"ele": "51", "gnis:feature_id": "1459666", "name": "Stanhope Hill", "natural": "peak", "wikidata": "Q49077573"}}, {"name": "Stewart Hill", "latitude": 44.5719947, "longitude": -72.9740194, "elevation": 501.0, "source": "osm", "_tags": {"ele": "501", "gnis:feature_id": "1459709", "name": "Stewart Hill", "natural": "peak", "wikidata": "Q49078127"}}, {"name": "Stimson Mountain", "latitude": 44.3914429, "longitude": -72.8898437, "elevation": 608.0, "source": "osm", "_tags": {"ele": "608", "gnis:feature_id": "1459723", "name": "Stimson Mountain", "natural": "peak", "wikidata": "Q49078207"}}, {"name": "Sugarloaf", "latitude": 44.4847746, "longitude": -72.8329001, "elevation": 658.0, "source": "osm", "_tags": {"ele": "658", "gnis:feature_id": "1459772", "name": "Sugarloaf", "natural": "peak", "wikidata": "Q49079343"}}, {"name": "Texas Hill", "latitude": 44.3539422, "longitude": -73.0551234, "elevation": 481.0, "source": "osm", "_tags": {"ele": "481", "gnis:feature_id": "1459839", "name": "Texas Hill", "natural": "peak", "wikidata": "Q49082066"}}, {"name": "The Cobble", "latitude": 44.44283, "longitude": -72.9595685, "elevation": 388.0, "source": "osm", "_tags": {"ele": "388", "gnis:feature_id": "1459849", "name": "The Cobble", "natural": "peak", "wikidata": "Q49082284"}}, {"name": "The Gore", "latitude": 44.7417156, "longitude": -72.881524, "elevation": 438.0, "source": "osm", "_tags": {"ele": "438", "gnis:feature_id": "1459858", "name": "The Gore", "natural": "peak", "wikidata": "Q49082415"}}, {"name": "The Head", "latitude": 44.8311525, "longitude": -73.3451328, "elevation": 74.0, "source": "osm", "_tags": {"ele": "74", "gnis:feature_id": "1459864", "name": "The Head", "natural": "peak", "wikidata": "Q49082438"}}, {"name": "The Pinnacle", "latitude": 44.5344965, "longitude": -72.7692887, "elevation": 666.0, "source": "osm", "_tags": {"ele": "666", "gnis:feature_id": "1459892", "name": "The Pinnacle", "natural": "peak", "wikidata": "Q49082823"}}, {"name": "Warner Hill", "latitude": 44.6067174, "longitude": -72.8206817, "elevation": 368.0, "source": "osm", "_tags": {"ele": "368", "gnis:feature_id": "1460066", "name": "Warner Hill", "natural": "peak", "wikidata": "Q49087653"}}, {"name": "Warner Hill", "latitude": 44.6571921, "longitude": -72.8434893, "elevation": 348.0, "source": "osm", "_tags": {"ele": "348", "gnis:feature_id": "1460067", "name": "Warner Hill", "natural": "peak", "wikidata": "Q49087655"}}, {"name": "Whiteface Mountain", "latitude": 44.5822411, "longitude": -72.7399182, "elevation": 1101.0, "source": "osm", "_tags": {"ele": "1101", "gnis:feature_id": "1460221", "name": "Whiteface Mountain", "natural": "peak", "source:name": "knowledge", "wikidata": "Q49078065"}}, {"name": "White Rocks", "latitude": 44.5736627, "longitude": -72.7309548, "elevation": 906.0, "source": "osm", "_tags": {"ele": "906", "gnis:feature_id": "1460226", "name": "White Rocks", "natural": "peak", "wikidata": "Q49089537"}}, {"name": "Willey Hill", "latitude": 44.4156104, "longitude": -72.7403966, "elevation": 379.0, "source": "osm", "_tags": {"ele": "379", "gnis:feature_id": "1460267", "name": "Willey Hill", "natural": "peak", "wikidata": "Q49090140"}}, {"name": "Wintergreen Mountain", "latitude": 44.7283824, "longitude": -72.862911, "elevation": 489.0, "source": "osm", "_tags": {"ele": "489", "gnis:feature_id": "1460305", "name": "Wintergreen Mountain", "natural": "peak", "wikidata": "Q49090612"}}, {"name": "Woodward Mountain", "latitude": 44.4069986, "longitude": -72.8323429, "elevation": 940.0, "source": "osm", "_tags": {"ele": "940", "gnis:feature_id": "1460318", "name": "Woodward Mountain", "natural": "peak", "wikidata": "Q49090979"}}, {"name": "Yantz Hill", "latitude": 44.4169963, "longitude": -73.0529025, "elevation": 353.0, "source": "osm", "_tags": {"ele": "353", "gnis:feature_id": "1460337", "name": "Yantz Hill", "natural": "peak", "wikidata": "Q49091188"}}, {"name": "Mutton Hill", "latitude": 44.3178297, "longitude": -73.2440139, "elevation": 203.0, "source": "osm", "_tags": {"ele": "203", "gnis:feature_id": "1460347", "name": "Mutton Hill", "natural": "peak", "wikidata": "Q49056058"}}, {"name": "Spruce Ridge", "latitude": 44.3222742, "longitude": -73.2312361, "elevation": 138.0, "source": "osm", "_tags": {"ele": "138", "gnis:feature_id": "1460348", "name": "Spruce Ridge", "natural": "peak", "wikidata": "Q49076917"}}, {"name": "Mount Ethan Allen", "latitude": 44.2939452, "longitude": -72.884008, "elevation": 1120.0, "source": "osm", "_tags": {"ele": "1120", "gnis:feature_id": "1919120", "name": "Mount Ethan Allen", "natural": "peak", "wikidata": "Q49052641"}}, {"name": "Alec La Mountain Mountain", "latitude": 44.4497704, "longitude": -73.5384688, "elevation": 362.0, "source": "osm", "_tags": {"ele": "362", "gnis:feature_id": "942296", "name": "Alec La Mountain Mountain", "natural": "peak", "wikidata": "Q34802097"}}, {"name": "Arnold Mountain", "latitude": 44.3303257, "longitude": -73.6637482, "elevation": 853.0, "source": "osm", "_tags": {"ele": "853", "gnis:feature_id": "942580", "name": "Arnold Mountain", "natural": "peak", "wikidata": "Q34802298"}}, {"name": "Bailey Mountain", "latitude": 44.4483806, "longitude": -73.6637499, "elevation": 293.0, "source": "osm", "_tags": {"ele": "293", "gnis:feature_id": "942793", "name": "Bailey Mountain", "natural": "peak", "wikidata": "Q34803285"}}, {"name": "Bald Mountain", "latitude": 44.4067146, "longitude": -73.6204147, "elevation": 645.0, "source": "osm", "_tags": {"ele": "645", "gnis:feature_id": "942873", "name": "Bald Mountain", "natural": "peak", "wikidata": "Q34803409"}}, {"name": "Bald Peak", "latitude": 44.3128262, "longitude": -73.6268024, "elevation": 705.0, "source": "osm", "_tags": {"ele": "705", "gnis:feature_id": "942881", "name": "Bald Peak", "natural": "peak", "wikidata": "Q34803532"}}, {"name": "Baldface Mountain", "latitude": 44.4264374, "longitude": -73.527357, "elevation": 673.0, "source": "osm", "_tags": {"ele": "673", "gnis:feature_id": "942885", "name": "Baldface Mountain", "natural": "peak", "wikidata": "Q34803554"}}, {"name": "Barber Mountain", "latitude": 44.4256039, "longitude": -73.5459686, "elevation": 634.0, "source": "osm", "_tags": {"ele": "634", "gnis:feature_id": "942984", "name": "Barber Mountain", "natural": "peak", "wikidata": "Q34804217"}}, {"name": "Barnett Mountain", "latitude": 44.3031053, "longitude": -73.5087432, "elevation": 248.0, "source": "osm", "_tags": {"ele": "248", "gnis:feature_id": "943058", "name": "Barnett Mountain", "natural": "peak", "wikidata": "Q34804347"}}, {"name": "Bear Hill", "latitude": 44.4808804, "longitude": -73.6662505, "elevation": 441.0, "source": "osm", "_tags": {"ele": "441", "gnis:feature_id": "943270", "name": "Bear Hill", "natural": "peak", "wikidata": "Q34804603"}}, {"name": "Beech Hill", "latitude": 44.3531043, "longitude": -73.5643012, "elevation": 344.0, "source": "osm", "_tags": {"ele": "344", "gnis:feature_id": "943511", "name": "Beech Hill", "natural": "peak", "wikidata": "Q34804862"}}, {"name": "Bennett Hill", "latitude": 44.5381019, "longitude": -73.6309721, "elevation": 326.0, "source": "osm", "_tags": {"ele": "326", "gnis:feature_id": "943673", "name": "Bennett Hill", "natural": "peak", "wikidata": "Q34805035"}}, {"name": "Big Church Mountain", "latitude": 44.3303267, "longitude": -73.5690231, "elevation": 467.0, "source": "osm", "_tags": {"ele": "467", "gnis:feature_id": "943864", "name": "Big Church Mountain", "natural": "peak", "wikidata": "Q34805205"}}, {"name": "Big Hill", "latitude": 44.5361573, "longitude": -73.6551395, "elevation": 454.0, "source": "osm", "_tags": {"ele": "454", "gnis:feature_id": "943895", "name": "Big Hill", "natural": "peak", "wikidata": "Q34805253"}}, {"name": "Big Hill", "latitude": 44.8447617, "longitude": -73.6373636, "elevation": 339.0, "source": "osm", "_tags": {"ele": "339", "gnis:feature_id": "943896", "name": "Big Hill", "natural": "peak", "wikidata": "Q34805260"}}, {"name": "Big Nineteen Mountain", "latitude": 44.5383793, "longitude": -73.6770844, "elevation": 637.0, "source": "osm", "_tags": {"ele": "637", "gnis:feature_id": "943931", "name": "Big Nineteen Mountain", "natural": "peak", "wikidata": "Q34805306"}}, {"name": "Big Spur Mountain", "latitude": 44.341716, "longitude": -73.5206886, "elevation": 372.0, "source": "osm", "_tags": {"ele": "372", "gnis:feature_id": "943956", "name": "Big Spur Mountain", "natural": "peak", "wikidata": "Q34805353"}}, {"name": "Bigelow Mountain", "latitude": 44.4481042, "longitude": -73.4687446, "elevation": 501.0, "source": "osm", "_tags": {"ele": "501", "gnis:feature_id": "943968", "name": "Bigelow Mountain", "natural": "peak", "wikidata": "Q34805370"}}, {"name": "Billy Mountain", "latitude": 44.3469937, "longitude": -73.5120773, "elevation": 355.0, "source": "osm", "_tags": {"ele": "355", "gnis:feature_id": "943983", "name": "Billy Mountain", "natural": "peak", "wikidata": "Q34805389"}}, {"name": "Bitch Mountain", "latitude": 44.3656034, "longitude": -73.6518039, "elevation": 796.0, "source": "osm", "_tags": {"ele": "796", "gnis:feature_id": "944059", "name": "Bitch Mountain", "natural": "peak"}}, {"name": "Black Ash Mountain", "latitude": 44.3478257, "longitude": -73.6570816, "elevation": 728.0, "source": "osm", "_tags": {"ele": "728", "gnis:feature_id": "944065", "name": "Black Ash Mountain", "natural": "peak", "wikidata": "Q34805451"}}, {"name": "Black Mountain", "latitude": 44.3881036, "longitude": -73.6148588, "elevation": 649.0, "source": "osm", "_tags": {"ele": "649", "gnis:feature_id": "944150", "name": "Black Mountain", "natural": "peak", "wikidata": "Q34805499"}}, {"name": "Blueberry Mountain", "latitude": 44.3153265, "longitude": -73.5976349, "elevation": 645.0, "source": "osm", "_tags": {"ele": "645", "gnis:feature_id": "944342", "name": "Blueberry Mountain", "natural": "peak", "wikidata": "Q34805812"}}, {"name": "Bluff Mountain", "latitude": 44.3392148, "longitude": -73.6359697, "elevation": 893.0, "source": "osm", "_tags": {"ele": "893", "gnis:feature_id": "944349", "name": "Bluff Mountain", "natural": "peak", "wikidata": "Q34805826"}}, {"name": "Buckley Mountain", "latitude": 44.533935, "longitude": -73.673751, "elevation": 648.0, "source": "osm", "_tags": {"ele": "648", "gnis:feature_id": "945079", "name": "Buckley Mountain", "natural": "peak", "wikidata": "Q34806725"}}, {"name": "Burbank Mountain", "latitude": 44.4333812, "longitude": -73.5948589, "elevation": 392.0, "source": "osm", "_tags": {"ele": "392", "gnis:feature_id": "945192", "name": "Burbank Mountain", "natural": "peak", "wikidata": "Q34806948"}}, {"name": "Burnt Hill", "latitude": 44.4758805, "longitude": -73.6609725, "elevation": 349.0, "source": "osm", "_tags": {"ele": "349", "gnis:feature_id": "945248", "name": "Burnt Hill", "natural": "peak", "wikidata": "Q34807050"}}, {"name": "Burnt Mountain", "latitude": 44.3928263, "longitude": -73.5604128, "elevation": 466.0, "source": "osm", "_tags": {"ele": "466", "gnis:feature_id": "945262", "name": "Burnt Mountain", "natural": "peak", "wikidata": "Q34807144"}}, {"name": "Burnt Spot Hill", "latitude": 44.4972692, "longitude": -73.6745842, "elevation": 473.0, "source": "osm", "_tags": {"ele": "473", "gnis:feature_id": "945274", "name": "Burnt Spot Hill", "natural": "peak", "wikidata": "Q34807195"}}, {"name": "Burt Mountain", "latitude": 44.4256036, "longitude": -73.5931921, "elevation": 458.0, "source": "osm", "_tags": {"ele": "458", "gnis:feature_id": "945291", "name": "Burt Mountain", "natural": "peak", "wikidata": "Q34807233"}}, {"name": "Calkins Hill", "latitude": 44.356438, "longitude": -73.5192999, "elevation": 314.0, "source": "osm", "_tags": {"ele": "314", "gnis:feature_id": "945467", "name": "Calkins Hill", "natural": "peak", "wikidata": "Q34807391"}}, {"name": "Carl Mountain", "latitude": 44.4050486, "longitude": -73.5323567, "elevation": 682.0, "source": "osm", "_tags": {"ele": "682", "gnis:feature_id": "945833", "name": "Carl Mountain", "natural": "peak", "wikidata": "Q34807618"}}, {"name": "Carney Mountain", "latitude": 44.4564368, "longitude": -73.570692, "elevation": 277.0, "source": "osm", "_tags": {"ele": "277", "gnis:feature_id": "945872", "name": "Carney Mountain", "natural": "peak", "wikidata": "Q34807640"}}, {"name": "Carrow Hill", "latitude": 44.4956027, "longitude": -73.6601394, "elevation": 440.0, "source": "osm", "_tags": {"ele": "440", "gnis:feature_id": "945915", "name": "Carrow Hill", "natural": "peak", "wikidata": "Q34807715"}}, {"name": "Carson Mountain", "latitude": 44.3147709, "longitude": -73.5918014, "elevation": 642.0, "source": "osm", "_tags": {"ele": "642", "gnis:feature_id": "945921", "name": "Carson Mountain", "natural": "peak", "wikidata": "Q34807723"}}, {"name": "Cassidy Mountain", "latitude": 44.4511594, "longitude": -73.5262463, "elevation": 332.0, "source": "osm", "_tags": {"ele": "332", "gnis:feature_id": "945978", "name": "Cassidy Mountain", "natural": "peak", "wikidata": "Q34807819"}}, {"name": "Cedar Hill", "latitude": 44.3622713, "longitude": -73.5226335, "elevation": 361.0, "source": "osm", "_tags": {"ele": "361", "gnis:feature_id": "946110", "name": "Cedar Hill", "natural": "peak", "wikidata": "Q34808274"}}, {"name": "Clark Mountain", "latitude": 44.4658814, "longitude": -73.538469, "elevation": 351.0, "source": "osm", "_tags": {"ele": "351", "gnis:feature_id": "946771", "name": "Clark Mountain", "natural": "peak", "wikidata": "Q34808826"}}, {"name": "Cobblestone Hill", "latitude": 44.840873, "longitude": -73.5709724, "elevation": 213.0, "source": "osm", "_tags": {"ele": "213", "gnis:feature_id": "946976", "name": "Cobblestone Hill", "natural": "peak", "wikidata": "Q34809081"}}, {"name": "Colby Mountain", "latitude": 44.4344922, "longitude": -73.6126372, "elevation": 334.0, "source": "osm", "_tags": {"ele": "334", "gnis:feature_id": "947021", "name": "Colby Mountain", "natural": "peak", "wikidata": "Q34809135"}}, {"name": "Cold Spring Mountain", "latitude": 44.5067143, "longitude": -73.5401364, "elevation": 329.0, "source": "osm", "_tags": {"ele": "329", "gnis:feature_id": "947078", "name": "Cold Spring Mountain", "natural": "peak", "wikidata": "Q34809170"}}, {"name": "Conway Hill", "latitude": 44.5458793, "longitude": -73.6345833, "elevation": 427.0, "source": "osm", "_tags": {"ele": "427", "gnis:feature_id": "947335", "name": "Conway Hill", "natural": "peak", "wikidata": "Q34809442"}}, {"name": "Cook Mountain", "latitude": 44.4897698, "longitude": -73.5809706, "elevation": 336.0, "source": "osm", "_tags": {"ele": "336", "gnis:feature_id": "947350", "name": "Cook Mountain", "natural": "peak", "wikidata": "Q34809471"}}, {"name": "Crossway Mountain", "latitude": 44.5111578, "longitude": -73.6768066, "elevation": 505.0, "source": "osm", "_tags": {"ele": "505", "gnis:feature_id": "947819", "name": "Crossway Mountain", "natural": "peak", "wikidata": "Q34809925"}}, {"name": "Curren Mountain", "latitude": 44.4636591, "longitude": -73.5473581, "elevation": 364.0, "source": "osm", "_tags": {"ele": "364", "gnis:feature_id": "947944", "name": "Curren Mountain", "natural": "peak", "wikidata": "Q34810118"}}, {"name": "Daby Mountain", "latitude": 44.3817145, "longitude": -73.6437484, "elevation": 623.0, "source": "osm", "_tags": {"ele": "623", "gnis:feature_id": "947985", "name": "Daby Mountain", "natural": "peak", "wikidata": "Q34810139"}}, {"name": "Death Mountain", "latitude": 44.3211592, "longitude": -73.6462476, "elevation": 865.0, "source": "osm", "_tags": {"ele": "865", "gnis:feature_id": "948148", "name": "Death Mountain", "natural": "peak", "wikidata": "Q34821455"}}, {"name": "Deerfield Mountain", "latitude": 44.3917154, "longitude": -73.5359677, "elevation": 638.0, "source": "osm", "_tags": {"ele": "638", "gnis:feature_id": "948239", "name": "Deerfield Mountain", "natural": "peak"}}, {"name": "Drag Mountain", "latitude": 44.497825, "longitude": -73.6337499, "elevation": 399.0, "source": "osm", "_tags": {"ele": "399", "gnis:feature_id": "948628", "name": "Drag Mountain", "natural": "peak", "wikidata": "Q34821512"}}, {"name": "Drake Mountain", "latitude": 44.454493, "longitude": -73.4473553, "elevation": 401.0, "source": "osm", "_tags": {"ele": "401", "gnis:feature_id": "948631", "name": "Drake Mountain", "natural": "peak", "wikidata": "Q34821523"}}, {"name": "Dry Mountain", "latitude": 44.3672713, "longitude": -73.5145778, "elevation": 375.0, "source": "osm", "_tags": {"ele": "375", "gnis:feature_id": "948700", "name": "Dry Mountain", "natural": "peak", "wikidata": "Q34821630"}}, {"name": "Dry Mountain", "latitude": 44.3889374, "longitude": -73.5579127, "elevation": 491.0, "source": "osm", "_tags": {"ele": "491", "gnis:feature_id": "948701", "name": "Dry Mountain", "natural": "peak", "wikidata": "Q34821642"}}, {"name": "Eagle Mountain", "latitude": 44.3983816, "longitude": -73.5787468, "elevation": 383.0, "source": "osm", "_tags": {"ele": "383", "gnis:feature_id": "948931", "name": "Eagle Mountain", "natural": "peak", "wikidata": "Q34914221"}}, {"name": "Ellis Mountain", "latitude": 44.4050478, "longitude": -73.6318039, "elevation": 556.0, "source": "osm", "_tags": {"ele": "556", "gnis:feature_id": "949529", "name": "Ellis Mountain", "natural": "peak", "wikidata": "Q34822022"}}, {"name": "Mount Etna", "latitude": 44.5517127, "longitude": -73.6170829, "elevation": 457.0, "source": "osm", "_tags": {"ele": "457", "gnis:feature_id": "949725", "name": "Mount Etna", "natural": "peak", "wikidata": "Q34881190"}}, {"name": "Mount Fay", "latitude": 44.3136597, "longitude": -73.6023572, "elevation": 701.0, "source": "osm", "_tags": {"ele": "701", "gnis:feature_id": "949940", "name": "Mount Fay", "natural": "peak", "wikidata": "Q34881243"}}, {"name": "Flagstaff Mountain", "latitude": 44.4750481, "longitude": -73.5215243, "elevation": 420.0, "source": "osm", "_tags": {"ele": "420", "gnis:feature_id": "950226", "name": "Flagstaff Mountain", "natural": "peak", "wikidata": "Q34868901"}}, {"name": "Flat Mountain", "latitude": 44.5308797, "longitude": -73.6443058, "elevation": 459.0, "source": "osm", "_tags": {"ele": "459", "gnis:feature_id": "950244", "name": "Flat Mountain", "natural": "peak", "wikidata": "Q34868981"}}, {"name": "Fleury Mountain", "latitude": 44.3267155, "longitude": -73.574301, "elevation": 478.0, "source": "osm", "_tags": {"ele": "478", "gnis:feature_id": "950283", "name": "Fleury Mountain", "natural": "peak", "wikidata": "Q34869157"}}, {"name": "Fordway Mountain", "latitude": 44.4769925, "longitude": -73.5165242, "elevation": 374.0, "source": "osm", "_tags": {"ele": "374", "gnis:feature_id": "950382", "name": "Fordway Mountain", "natural": "peak", "wikidata": "Q34822241"}}, {"name": "Forge Mountain", "latitude": 44.3775486, "longitude": -73.555968, "elevation": 372.0, "source": "osm", "_tags": {"ele": "372", "gnis:feature_id": "950440", "name": "Forge Mountain", "natural": "peak", "wikidata": "Q34822264"}}, {"name": "French Hill", "latitude": 44.4906027, "longitude": -73.6631949, "elevation": 435.0, "source": "osm", "_tags": {"ele": "435", "gnis:feature_id": "950693", "name": "French Hill", "natural": "peak", "wikidata": "Q34869889"}}, {"name": "Garvey Hill", "latitude": 44.3625491, "longitude": -73.5173556, "elevation": 342.0, "source": "osm", "_tags": {"ele": "342", "gnis:feature_id": "950928", "name": "Garvey Hill", "natural": "peak", "wikidata": "Q34915793"}}, {"name": "Golf Ground Hill", "latitude": 44.450325, "longitude": -73.6731946, "elevation": 280.0, "source": "osm", "_tags": {"ele": "280", "gnis:feature_id": "951304", "name": "Golf Ground Hill", "natural": "peak", "wikidata": "Q34916650"}}, {"name": "Greenwood Mountain", "latitude": 44.422548, "longitude": -73.5959699, "elevation": 458.0, "source": "osm", "_tags": {"ele": "458", "gnis:feature_id": "951791", "name": "Greenwood Mountain", "natural": "peak", "wikidata": "Q34870349"}}, {"name": "Hale Hill", "latitude": 44.3439375, "longitude": -73.5884684, "elevation": 494.0, "source": "osm", "_tags": {"ele": "494", "gnis:feature_id": "952014", "name": "Hale Hill", "natural": "peak", "wikidata": "Q34822984"}}, {"name": "Hall Hill", "latitude": 44.3656042, "longitude": -73.564857, "elevation": 365.0, "source": "osm", "_tags": {"ele": "365", "gnis:feature_id": "952052", "name": "Hall Hill", "natural": "peak", "wikidata": "Q34823037"}}, {"name": "Hardwood Hill", "latitude": 44.3431034, "longitude": -73.6693041, "elevation": 683.0, "source": "osm", "_tags": {"ele": "683", "gnis:feature_id": "952216", "name": "Hardwood Hill", "natural": "peak", "wikidata": "Q34873967"}}, {"name": "Haystack Mountain", "latitude": 44.4197698, "longitude": -73.6479157, "elevation": 429.0, "source": "osm", "_tags": {"ele": "429", "gnis:feature_id": "952462", "name": "Haystack Mountain", "natural": "peak", "wikidata": "Q34921125"}}, {"name": "Hog Back Mountain", "latitude": 44.3456037, "longitude": -73.6376366, "elevation": 812.0, "source": "osm", "_tags": {"ele": "812", "gnis:feature_id": "952935", "name": "Hog Back Mountain", "natural": "peak", "wikidata": "Q34823882"}}, {"name": "Hogback Mountain", "latitude": 44.443937, "longitude": -73.5668027, "elevation": 441.0, "source": "osm", "_tags": {"ele": "441", "gnis:feature_id": "952958", "name": "Hogback Mountain", "natural": "peak", "wikidata": "Q34824023"}}, {"name": "Hogback Mountain", "latitude": 44.5161577, "longitude": -73.6670841, "elevation": 544.0, "source": "osm", "_tags": {"ele": "544", "gnis:feature_id": "952959", "name": "Hogback Mountain", "natural": "peak", "wikidata": "Q34824011"}}, {"name": "Hood Mountain", "latitude": 44.2928275, "longitude": -73.5170765, "elevation": 255.0, "source": "osm", "_tags": {"ele": "255", "gnis:feature_id": "953156", "name": "Hood Mountain", "natural": "peak", "wikidata": "Q34922978"}}, {"name": "Jay Mountain", "latitude": 44.3125477, "longitude": -73.685693, "elevation": 1028.0, "source": "osm", "_tags": {"ele": "1028", "gnis:feature_id": "953949", "name": "Jay Mountain", "natural": "peak", "source:elevation": "Metric USGS quad", "source:location": "Bureau of Geographic Names https://geonames.usgs.gov/apex/f?p=GNISPQ:3:::NO::P3_FID:953949", "source:name": "Bureau of Geographic Names https://geonames.usgs.gov/apex/f?p=GNISPQ:3:::NO::P3_FID:953949"}}, {"name": "Jug Mountain", "latitude": 44.3708811, "longitude": -73.6481928, "elevation": 742.0, "source": "osm", "_tags": {"ele": "742", "gnis:feature_id": "954220", "name": "Jug Mountain", "natural": "peak", "wikidata": "Q34825207"}}, {"name": "Keeton Mountain", "latitude": 44.4689369, "longitude": -73.5529139, "elevation": 334.0, "source": "osm", "_tags": {"ele": "334", "gnis:feature_id": "954440", "name": "Keeton Mountain", "natural": "peak", "wikidata": "Q34825399"}}, {"name": "Kiln Mountain", "latitude": 44.3411599, "longitude": -73.5665232, "elevation": 334.0, "source": "osm", "_tags": {"ele": "334", "gnis:feature_id": "954609", "name": "Kiln Mountain", "natural": "peak"}}, {"name": "Kiln Mountain", "latitude": 44.4044929, "longitude": -73.5520795, "elevation": 520.0, "source": "osm", "_tags": {"ele": "520", "gnis:feature_id": "954610", "name": "Kiln Mountain", "natural": "peak"}}, {"name": "Lamora Hill", "latitude": 44.4825471, "longitude": -73.6684728, "elevation": 454.0, "source": "osm", "_tags": {"ele": "454", "gnis:feature_id": "955010", "name": "Lamora Hill", "natural": "peak", "wikidata": "Q49043380"}}, {"name": "Lesperance Mountain", "latitude": 44.3222709, "longitude": -73.5856902, "elevation": 532.0, "source": "osm", "_tags": {"ele": "532", "gnis:feature_id": "955222", "name": "Lesperance Mountain", "natural": "peak", "wikidata": "Q34923914"}}, {"name": "Lily Pond Hill", "latitude": 44.4819921, "longitude": -73.5795815, "elevation": 325.0, "source": "osm", "_tags": {"ele": "325", "gnis:feature_id": "955327", "name": "Lily Pond Hill", "natural": "peak", "wikidata": "Q34826091"}}, {"name": "Lincoln Mountain", "latitude": 44.3647699, "longitude": -73.662082, "elevation": 714.0, "source": "osm", "_tags": {"ele": "714", "gnis:feature_id": "955371", "name": "Lincoln Mountain", "natural": "peak", "wikidata": "Q34826172"}}, {"name": "Little Bluff Mountain", "latitude": 44.3392149, "longitude": -73.6284695, "elevation": 746.0, "source": "osm", "_tags": {"ele": "746", "gnis:feature_id": "955467", "name": "Little Bluff Mountain", "natural": "peak", "wikidata": "Q34826279"}}, {"name": "Little Church Mountain", "latitude": 44.3322711, "longitude": -73.5673565, "elevation": 406.0, "source": "osm", "_tags": {"ele": "406", "gnis:feature_id": "955491", "name": "Little Church Mountain", "natural": "peak", "wikidata": "Q34826382"}}, {"name": "Little Deerfield Mountain", "latitude": 44.3936598, "longitude": -73.5287453, "elevation": 563.0, "source": "osm", "_tags": {"ele": "563", "gnis:feature_id": "955510", "name": "Little Deerfield Mountain", "natural": "peak", "wikidata": "Q34826439"}}, {"name": "Little Fay Mountain", "latitude": 44.311993, "longitude": -73.6018016, "elevation": 642.0, "source": "osm", "_tags": {"ele": "642", "gnis:feature_id": "955524", "name": "Little Fay Mountain", "natural": "peak", "wikidata": "Q34826498"}}, {"name": "Little Fordway Mountain", "latitude": 44.4719925, "longitude": -73.5293022, "elevation": 348.0, "source": "osm", "_tags": {"ele": "348", "gnis:feature_id": "955529", "name": "Little Fordway Mountain", "natural": "peak", "wikidata": "Q34826510"}}, {"name": "Little Mountain", "latitude": 44.4250478, "longitude": -73.6151372, "elevation": 391.0, "source": "osm", "_tags": {"ele": "391", "gnis:feature_id": "955603", "name": "Little Mountain", "natural": "peak", "wikidata": "Q34826769"}}, {"name": "Little Nineteen Mountain", "latitude": 44.5417126, "longitude": -73.6801401, "elevation": 568.0, "source": "osm", "_tags": {"ele": "568", "gnis:feature_id": "955612", "name": "Little Nineteen Mountain", "natural": "peak", "wikidata": "Q34924473"}}, {"name": "Little Spur Mountain", "latitude": 44.3300493, "longitude": -73.5276331, "elevation": 271.0, "source": "osm", "_tags": {"ele": "271", "gnis:feature_id": "955701", "name": "Little Spur Mountain", "natural": "peak", "wikidata": "Q34924738"}}, {"name": "Long Tom Mountain", "latitude": 44.397548, "longitude": -73.6137478, "elevation": 640.0, "source": "osm", "_tags": {"ele": "640", "gnis:feature_id": "955938", "name": "Long Tom Mountain", "natural": "peak", "wikidata": "Q34925726"}}, {"name": "Lynch Mountain", "latitude": 44.4231045, "longitude": -73.4665218, "elevation": 425.0, "source": "osm", "_tags": {"ele": "425", "gnis:feature_id": "956172", "name": "Lynch Mountain", "natural": "peak", "wikidata": "Q34926389"}}, {"name": "Lynch Mountain", "latitude": 44.5469903, "longitude": -73.6601396, "elevation": 513.0, "source": "osm", "_tags": {"ele": "513", "gnis:feature_id": "956173", "name": "Lynch Mountain", "natural": "peak", "wikidata": "Q34926378"}}, {"name": "Marshall Mountain", "latitude": 44.2986608, "longitude": -73.5129098, "elevation": 285.0, "source": "osm", "_tags": {"ele": "285", "gnis:feature_id": "956572", "name": "Marshall Mountain", "natural": "peak", "wikidata": "Q34826960"}}, {"name": "McCray Mountain", "latitude": 44.3758818, "longitude": -73.5759686, "elevation": 371.0, "source": "osm", "_tags": {"ele": "371", "gnis:feature_id": "956749", "name": "McCray Mountain", "natural": "peak"}}, {"name": "McGuire Mountain", "latitude": 44.4175485, "longitude": -73.5329125, "elevation": 664.0, "source": "osm", "_tags": {"ele": "664", "gnis:feature_id": "956780", "name": "McGuire Mountain", "natural": "peak", "wikidata": "Q34827158"}}, {"name": "Mitchell Mountain", "latitude": 44.5261576, "longitude": -73.6481948, "elevation": 445.0, "source": "osm", "_tags": {"ele": "445", "gnis:feature_id": "957446", "name": "Mitchell Mountain", "natural": "peak", "wikidata": "Q34828175"}}, {"name": "Nancy Ryan Mountain", "latitude": 44.5208798, "longitude": -73.6751399, "elevation": 605.0, "source": "osm", "_tags": {"ele": "605", "gnis:feature_id": "958244", "name": "Nancy Ryan Mountain", "natural": "peak", "wikidata": "Q34884766"}}, {"name": "Negro Hill", "latitude": 44.8203178, "longitude": -73.57375, "elevation": 221.0, "source": "osm", "_tags": {"ele": "221", "gnis:feature_id": "958341", "name": "Negro Hill", "natural": "peak", "wikidata": "Q34884972"}}, {"name": "North Boquet Mountain", "latitude": 44.3011617, "longitude": -73.4179072, "elevation": 307.0, "source": "osm", "_tags": {"ele": "307", "gnis:feature_id": "958692", "name": "North Boquet Mountain", "natural": "peak", "wikidata": "Q34886113"}}, {"name": "North Pole", "latitude": 44.5256019, "longitude": -73.67764, "elevation": 611.0, "source": "osm", "_tags": {"ele": "611", "gnis:feature_id": "958879", "name": "North Pole", "natural": "peak", "wikidata": "Q34886291"}}, {"name": "Notch Mountain", "latitude": 44.4064374, "longitude": -73.5412459, "elevation": 632.0, "source": "osm", "_tags": {"ele": "632", "gnis:feature_id": "959037", "name": "Notch Mountain", "natural": "peak", "wikidata": "Q34886388"}}, {"name": "Oak Hill", "latitude": 44.3050488, "longitude": -73.5859677, "elevation": 422.0, "source": "osm", "_tags": {"ele": "422", "gnis:feature_id": "959115", "name": "Oak Hill", "natural": "peak", "wikidata": "Q34887029"}}, {"name": "Oak Hill", "latitude": 44.3528269, "longitude": -73.5234667, "elevation": 311.0, "source": "osm", "_tags": {"ele": "311", "gnis:feature_id": "959116", "name": "Oak Hill", "natural": "peak", "wikidata": "Q34887041"}}, {"name": "Oak Hill", "latitude": 44.3567153, "longitude": -73.5759683, "elevation": 454.0, "source": "osm", "_tags": {"ele": "454", "gnis:feature_id": "959117", "name": "Oak Hill", "natural": "peak", "wikidata": "Q34887052"}}, {"name": "Oak Hill", "latitude": 44.5419905, "longitude": -73.6429169, "elevation": 433.0, "source": "osm", "_tags": {"ele": "433", "gnis:feature_id": "959119", "name": "Oak Hill", "natural": "peak", "wikidata": "Q34886979"}}, {"name": "Old Rang Mountain", "latitude": 44.4158818, "longitude": -73.5370793, "elevation": 694.0, "source": "osm", "_tags": {"ele": "694", "gnis:feature_id": "959311", "name": "Old Rang Mountain", "natural": "peak", "wikidata": "Q34887572"}}, {"name": "Ore Bed Mountain", "latitude": 44.4308813, "longitude": -73.5859698, "elevation": 324.0, "source": "osm", "_tags": {"ele": "324", "gnis:feature_id": "959453", "name": "Ore Bed Mountain", "natural": "peak", "wikidata": "Q34828271"}}, {"name": "Paddy Mountain", "latitude": 44.5336574, "longitude": -73.6487504, "elevation": 459.0, "source": "osm", "_tags": {"ele": "459", "gnis:feature_id": "959738", "name": "Paddy Mountain", "natural": "peak", "wikidata": "Q34828535"}}, {"name": "Palmer Hill", "latitude": 44.4658804, "longitude": -73.674306, "elevation": 352.0, "source": "osm", "_tags": {"ele": "352", "gnis:feature_id": "959789", "name": "Palmer Hill", "natural": "peak", "wikidata": "Q34828668"}}, {"name": "Perkett Mountain", "latitude": 44.3633818, "longitude": -73.5770795, "elevation": 467.0, "source": "osm", "_tags": {"ele": "467", "gnis:feature_id": "960186", "name": "Perkett Mountain", "natural": "peak", "wikidata": "Q34829477"}}, {"name": "Perkett Mountain", "latitude": 44.4461595, "longitude": -73.5165236, "elevation": 373.0, "source": "osm", "_tags": {"ele": "373", "gnis:feature_id": "960187", "name": "Perkett Mountain", "natural": "peak", "wikidata": "Q34829490"}}, {"name": "Pigback Mountain", "latitude": 44.4386592, "longitude": -73.5654137, "elevation": 414.0, "source": "osm", "_tags": {"ele": "414", "gnis:feature_id": "960369", "name": "Pigback Mountain", "natural": "peak", "wikidata": "Q34892255"}}, {"name": "Pigeon Hill", "latitude": 44.4736582, "longitude": -73.6745839, "elevation": 379.0, "source": "osm", "_tags": {"ele": "379", "gnis:feature_id": "960377", "name": "Pigeon Hill", "natural": "peak", "wikidata": "Q34892390"}}, {"name": "Pine Hill", "latitude": 44.3514364, "longitude": -73.6895826, "elevation": 438.0, "source": "osm", "_tags": {"ele": "438", "gnis:feature_id": "960478", "name": "Pine Hill", "natural": "peak", "wikidata": "Q34894015"}}, {"name": "Pokamoonshine Mountain", "latitude": 44.401715, "longitude": -73.51319, "elevation": 659.0, "source": "osm", "_tags": {"ele": "659", "gnis:feature_id": "960845", "name": "Pokamoonshine Mountain", "natural": "peak"}}, {"name": "Pond Mountain", "latitude": 44.3842153, "longitude": -73.5551348, "elevation": 442.0, "source": "osm", "_tags": {"ele": "442", "gnis:feature_id": "960900", "name": "Pond Mountain", "natural": "peak", "wikidata": "Q34897049"}}, {"name": "Prospect Mountain", "latitude": 44.490326, "longitude": -73.4668008, "elevation": 276.0, "source": "osm", "_tags": {"ele": "276", "gnis:feature_id": "961187", "name": "Prospect Mountain", "natural": "peak", "wikidata": "Q34899906"}}, {"name": "Quinn Mountain", "latitude": 44.5508792, "longitude": -73.644028, "elevation": 459.0, "source": "osm", "_tags": {"ele": "459", "gnis:feature_id": "962107", "name": "Quinn Mountain", "natural": "peak", "wikidata": "Q49066208"}}, {"name": "Ragged Mountain", "latitude": 44.4306031, "longitude": -73.6473603, "elevation": 395.0, "source": "osm", "_tags": {"ele": "395", "gnis:feature_id": "962135", "name": "Ragged Mountain", "natural": "peak", "wikidata": "Q34900370"}}, {"name": "Rand Hill", "latitude": 44.7714294, "longitude": -73.6126392, "elevation": 459.0, "source": "osm", "_tags": {"ele": "459", "gnis:feature_id": "962164", "name": "Rand Hill", "natural": "peak", "wikidata": "Q34900499"}}, {"name": "Rattlesnake Mountain", "latitude": 44.4028271, "longitude": -73.4331872, "elevation": 394.0, "source": "osm", "_tags": {"ele": "394", "gnis:feature_id": "962222", "name": "Rattlesnake Mountain", "natural": "peak", "wikidata": "Q34829668"}}, {"name": "Rocky Mountain", "latitude": 44.4222705, "longitude": -73.550413, "elevation": 665.0, "source": "osm", "_tags": {"ele": "665", "gnis:feature_id": "962783", "name": "Rocky Mountain", "natural": "peak", "wikidata": "Q34830614"}}, {"name": "Saddleback Mountain", "latitude": 44.2950869, "longitude": -73.6683093, "elevation": 1102.0, "source": "osm", "_tags": {"ele": "1102", "gnis:feature_id": "963211", "name": "Saddleback Mountain", "natural": "peak", "wikidata": "Q34831866"}}, {"name": "Schoolhouse Mountain", "latitude": 44.3722705, "longitude": -73.5920801, "elevation": 404.0, "source": "osm", "_tags": {"ele": "404", "gnis:feature_id": "964612", "name": "Schoolhouse Mountain", "natural": "peak", "wikidata": "Q34904333"}}, {"name": "Seventy Mountain", "latitude": 44.3167151, "longitude": -73.6226357, "elevation": 671.0, "source": "osm", "_tags": {"ele": "671", "gnis:feature_id": "964872", "name": "Seventy Mountain", "natural": "peak", "wikidata": "Q34905455"}}, {"name": "Sheep Mountain", "latitude": 44.4308811, "longitude": -73.6156928, "elevation": 357.0, "source": "osm", "_tags": {"ele": "357", "gnis:feature_id": "964994", "name": "Sheep Mountain", "natural": "peak", "wikidata": "Q34832154"}}, {"name": "Sheep Mountain", "latitude": 44.5086578, "longitude": -73.6893069, "elevation": 549.0, "source": "osm", "_tags": {"ele": "549", "gnis:feature_id": "964995", "name": "Sheep Mountain", "natural": "peak", "wikidata": "Q34832138"}}, {"name": "Slash Hill", "latitude": 44.3506043, "longitude": -73.5690235, "elevation": 374.0, "source": "osm", "_tags": {"ele": "374", "gnis:feature_id": "965384", "name": "Slash Hill", "natural": "peak", "wikidata": "Q34907807"}}, {"name": "MacDonough Mountain", "latitude": 44.3050482, "longitude": -73.644025, "elevation": 1012.0, "source": "osm", "_tags": {"ele": "1012", "gnis:feature_id": "965427", "name": "MacDonough Mountain", "natural": "peak", "old_name": "Slip Mountain", "wikidata": "Q34926518"}}, {"name": "Smith Mountain", "latitude": 44.4972702, "longitude": -73.5181913, "elevation": 244.0, "source": "osm", "_tags": {"ele": "244", "gnis:feature_id": "965499", "name": "Smith Mountain", "natural": "peak", "wikidata": "Q34908512"}}, {"name": "South Boquet Mountain", "latitude": 44.2933839, "longitude": -73.4262407, "elevation": 366.0, "source": "osm", "_tags": {"ele": "366", "gnis:feature_id": "965687", "name": "South Boquet Mountain", "natural": "peak", "wikidata": "Q34909348"}}, {"name": "Spear Mountain", "latitude": 44.345882, "longitude": -73.5684679, "elevation": 391.0, "source": "osm", "_tags": {"ele": "391", "gnis:feature_id": "965960", "name": "Spear Mountain", "natural": "peak", "wikidata": "Q34834762"}}, {"name": "Stewart Mountain", "latitude": 44.5022693, "longitude": -73.6398612, "elevation": 433.0, "source": "osm", "_tags": {"ele": "433", "gnis:feature_id": "966411", "name": "Stewart Mountain", "natural": "peak", "wikidata": "Q34930453"}}, {"name": "Stratton Hill", "latitude": 44.8136516, "longitude": -73.4729135, "elevation": 89.0, "source": "osm", "_tags": {"ele": "89", "gnis:feature_id": "966626", "name": "Stratton Hill", "natural": "peak", "wikidata": "Q34837328"}}, {"name": "Sugar Hill", "latitude": 44.3361598, "longitude": -73.5806903, "elevation": 461.0, "source": "osm", "_tags": {"ele": "461", "gnis:feature_id": "966710", "name": "Sugar Hill", "natural": "peak", "wikidata": "Q34841321"}}, {"name": "Sunset Hill", "latitude": 44.3531041, "longitude": -73.5845796, "elevation": 421.0, "source": "osm", "_tags": {"ele": "421", "gnis:feature_id": "966837", "name": "Sunset Hill", "natural": "peak", "wikidata": "Q34933023"}}, {"name": "Tamarack Hill", "latitude": 44.4872692, "longitude": -73.6768064, "elevation": 443.0, "source": "osm", "_tags": {"ele": "443", "gnis:feature_id": "967016", "name": "Tamarack Hill", "natural": "peak", "wikidata": "Q34811521"}}, {"name": "Taylor Mountain", "latitude": 44.3122713, "longitude": -73.5612449, "elevation": 322.0, "source": "osm", "_tags": {"ele": "322", "gnis:feature_id": "967096", "name": "Taylor Mountain", "natural": "peak", "wikidata": "Q34811717"}}, {"name": "Terry Mountain", "latitude": 44.571434, "longitude": -73.6812513, "elevation": 628.0, "source": "osm", "_tags": {"ele": "628", "gnis:feature_id": "967177", "name": "Terry Mountain", "natural": "peak", "wikidata": "Q34812106"}}, {"name": "The Pinnacle", "latitude": 44.541157, "longitude": -73.685418, "elevation": 562.0, "source": "osm", "_tags": {"ele": "562", "gnis:feature_id": "967318", "name": "The Pinnacle", "natural": "peak", "wikidata": "Q34812466"}}, {"name": "Trembleau Mountain", "latitude": 44.5036592, "longitude": -73.4162441, "elevation": 301.0, "source": "osm", "_tags": {"ele": "301", "gnis:feature_id": "967783", "name": "Trembleau Mountain", "natural": "peak", "wikidata": "Q34814042"}}, {"name": "U S Mountain", "latitude": 44.326159, "longitude": -73.6640259, "elevation": 870.0, "source": "osm", "_tags": {"ele": "870", "gnis:feature_id": "968245", "name": "U S Mountain", "natural": "peak", "wikidata": "Q34816262"}}, {"name": "Walker Hill", "latitude": 44.5553236, "longitude": -73.627361, "elevation": 427.0, "source": "osm", "_tags": {"ele": "427", "gnis:feature_id": "968683", "name": "Walker Hill", "natural": "peak", "wikidata": "Q34818532"}}, {"name": "Arnold Hill", "latitude": 44.4894917, "longitude": -73.6268051, "elevation": 372.0, "source": "osm", "_tags": {"ele": "372", "gnis:feature_id": "969324", "name": "Arnold Hill", "natural": "peak", "wikidata": "Q34802289"}}, {"name": "Bull Hill", "latitude": 44.3742141, "longitude": -73.690694, "elevation": 330.0, "source": "osm", "_tags": {"ele": "330", "gnis:feature_id": "969926", "name": "Bull Hill", "natural": "peak", "wikidata": "Q34806783"}}, {"name": "Pine Hill", "latitude": 44.3486599, "longitude": -73.56319, "elevation": 343.0, "source": "osm", "_tags": {"ele": "343", "gnis:feature_id": "970476", "name": "Pine Hill", "natural": "peak", "wikidata": "Q34893990"}}, {"name": "Sugarloaf Mountain", "latitude": 44.375327, "longitude": -73.487355, "elevation": 440.0, "source": "osm", "_tags": {"ele": "440", "gnis:feature_id": "970685", "name": "Sugarloaf Mountain", "natural": "peak", "wikidata": "Q34932779"}}, {"name": "Weston Mountain", "latitude": 44.4283815, "longitude": -73.558469, "elevation": 544.0, "source": "osm", "_tags": {"ele": "544", "gnis:feature_id": "970937", "name": "Weston Mountain", "natural": "peak", "wikidata": "Q34819813"}}, {"name": "York Hill", "latitude": 44.3808824, "longitude": -73.5065222, "elevation": 324.0, "source": "osm", "_tags": {"ele": "324", "gnis:feature_id": "971833", "name": "York Hill", "natural": "peak", "wikidata": "Q34822353"}}, {"name": "Mont Gale", "latitude": 45.2770411, "longitude": -72.6982342, "elevation": 372.0, "source": "osm", "_tags": {"ele": "372", "name": "Mont Gale", "natural": "peak", "source": "CanVec 6.0 - NRCan"}}, {"name": "Cte de Sable", "latitude": 45.1885949, "longitude": -72.9962354, "elevation": null, "source": "osm", "_tags": {"name": "Cte de Sable", "natural": "peak", "source": "NRCan-CanVec-7.0"}}, {"name": "Colline des Chnes", "latitude": 45.1717508, "longitude": -72.7399272, "elevation": 290.0, "source": "osm", "_tags": {"ele": "290", "name": "Colline des Chnes", "natural": "peak", "source": "NRCan-CanVec-7.0"}}, {"name": "Le Pinacle", "latitude": 45.0464378, "longitude": -72.739033, "elevation": 712.0, "source": "osm", "_tags": {"ele": "712", "name": "Le Pinacle", "natural": "peak", "source": "NRCan-CanVec-7.0"}}, {"name": "Le Petit Pinacle", "latitude": 45.0656201, "longitude": -72.7495911, "elevation": 482.0, "source": "osm", "_tags": {"ele": "482", "name": "Le Petit Pinacle", "natural": "peak", "source": "NRCan-CanVec-7.0"}}, {"name": "Colline Spruce", "latitude": 45.0531751, "longitude": -72.7255857, "elevation": 510.0, "source": "osm", "_tags": {"ele": "510", "name": "Colline Spruce", "natural": "peak", "source": "NRCan-CanVec-7.0"}}, {"name": "Montagne  Romo", "latitude": 45.0339198, "longitude": -73.424708, "elevation": null, "source": "osm", "_tags": {"name": "Montagne  Romo", "natural": "peak", "source": "NRCan-CanVec-7.0"}}, {"name": "Round Top", "latitude": 44.4857828, "longitude": -72.7676172, "elevation": null, "source": "osm", "_tags": {"name": "Round Top", "natural": "peak", "wikidata": "Q122602786"}}, {"name": "Indian Lookout", "latitude": 44.4498493, "longitude": -73.0355437, "elevation": null, "source": "osm", "_tags": {"description": "Lookout point which affords a view of Camels Hump, Winoski River, and even Mount Mansfield", "name": "Indian Lookout", "natural": "peak"}}, {"name": "Shaw Hill", "latitude": 44.4562644, "longitude": -72.7160488, "elevation": 300.0, "source": "osm", "_tags": {"ele": "300", "name": "Shaw Hill", "natural": "peak"}}, {"name": "East Shaw Hill", "latitude": 44.4497161, "longitude": -72.711587, "elevation": null, "source": "osm", "_tags": {"name": "East Shaw Hill", "natural": "peak"}}, {"name": "West Shaw Hill", "latitude": 44.4498259, "longitude": -72.7215106, "elevation": null, "source": "osm", "_tags": {"name": "West Shaw Hill", "natural": "peak"}}, {"name": "Rice Nill", "latitude": 44.934102, "longitude": -72.9696701, "elevation": 212.0, "source": "osm", "_tags": {"ele": "212", "name": "Rice Nill", "natural": "peak"}}, {"name": "Rice Nill", "latitude": 44.9453997, "longitude": -72.9601852, "elevation": 214.0, "source": "osm", "_tags": {"ele": "214", "name": "Rice Nill", "natural": "peak"}}, {"name": "Macomber Mountain", "latitude": 44.552397, "longitude": -72.874685, "elevation": 480.0, "source": "osm", "_tags": {"ele": "480", "name": "Macomber Mountain", "natural": "peak", "wikidata": "Q49047339"}}, {"name": "", "latitude": 44.6057589, "longitude": -72.892799, "elevation": 453.0, "source": "osm", "_tags": {"ele": "453", "natural": "peak"}}, {"name": "", "latitude": 44.3209136, "longitude": -73.0402536, "elevation": 525.0, "source": "osm", "_tags": {"ele": "525", "natural": "peak"}}, {"name": "", "latitude": 44.3526645, "longitude": -72.8947553, "elevation": 730.0, "source": "osm", "_tags": {"ele": "730", "natural": "peak"}}, {"name": "", "latitude": 44.3228419, "longitude": -72.9384009, "elevation": 585.0, "source": "osm", "_tags": {"ele": "585", "natural": "peak"}}, {"name": "", "latitude": 44.3246999, "longitude": -72.9223422, "elevation": 760.0, "source": "osm", "_tags": {"ele": "760", "natural": "peak"}}, {"name": "", "latitude": 44.3370938, "longitude": -72.936232, "elevation": 710.0, "source": "osm", "_tags": {"ele": "710", "natural": "peak"}}, {"name": "", "latitude": 44.3679007, "longitude": -72.9490123, "elevation": 310.0, "source": "osm", "_tags": {"ele": "310", "natural": "peak"}}, {"name": "", "latitude": 44.3165501, "longitude": -73.010439, "elevation": 492.0, "source": "osm", "_tags": {"ele": "492", "natural": "peak"}}, {"name": "", "latitude": 44.3254557, "longitude": -73.0035159, "elevation": 468.0, "source": "osm", "_tags": {"ele": "468", "natural": "peak"}}, {"name": "", "latitude": 44.3227218, "longitude": -73.0075175, "elevation": 483.0, "source": "osm", "_tags": {"ele": "483", "natural": "peak"}}, {"name": "", "latitude": 44.3249574, "longitude": -73.037757, "elevation": 490.0, "source": "osm", "_tags": {"ele": "490", "natural": "peak"}}, {"name": "", "latitude": 44.3310062, "longitude": -73.049639, "elevation": 469.0, "source": "osm", "_tags": {"ele": "469", "natural": "peak"}}, {"name": "", "latitude": 44.296563, "longitude": -72.8225829, "elevation": 815.0, "source": "osm", "_tags": {"ele": "815", "natural": "peak"}}, {"name": "", "latitude": 44.2917009, "longitude": -72.8420139, "elevation": 810.0, "source": "osm", "_tags": {"ele": "810", "natural": "peak"}}, {"name": "Adams Apple", "latitude": 44.546573, "longitude": -72.810353, "elevation": 1256.0, "source": "osm", "_tags": {"ele": "1256", "name": "Adams Apple", "natural": "peak", "wikidata": "Q35723526"}}, {"name": "Lower Lip", "latitude": 44.5386, "longitude": -72.816793, "elevation": 1256.0, "source": "osm", "_tags": {"ele": "1256", "name": "Lower Lip", "natural": "peak", "wikidata": "Q122601840"}}, {"name": "Upper Lip", "latitude": 44.53419, "longitude": -72.817195, "elevation": 1208.0, "source": "osm", "_tags": {"ele": "1208", "name": "Upper Lip", "natural": "peak", "wikidata": "Q122602526"}}, {"name": "The Nose", "latitude": 44.5261735, "longitude": -72.8151024, "elevation": 1225.0, "source": "osm", "_tags": {"ele": "1225", "name": "The Nose", "natural": "peak", "wikidata": "Q49082751"}}, {"name": "The Forehead", "latitude": 44.521228, "longitude": -72.818033, "elevation": 1189.0, "source": "osm", "_tags": {"ele": "1189", "name": "The Forehead", "natural": "peak", "wikidata": "Q49082393"}}, {"name": "Mount Mansfield", "latitude": 44.543947, "longitude": -72.81431, "elevation": 1340.0, "source": "osm", "_tags": {"alt_name": "The Chin", "ele": "1340", "highest_point": "4", "name": "Mount Mansfield", "name:br": "Menez Mansfield", "name:fr": "Mont Mansfield", "natural": "peak", "wikidata": "Q573840", "wikipedia": "en:Mount Mansfield"}}, {"name": "Jay Benchmark", "latitude": 44.310915, "longitude": -73.666428, "elevation": 1097.0, "source": "osm", "_tags": {"ele": "1097", "name": "Jay Benchmark", "natural": "peak", "source:elevation": "NOAA NGS https://www.ngs.noaa.gov/cgi-bin/ds_mark.prl?PidBox=PG2069", "source:location": "NOAA NGS https://www.ngs.noaa.gov/cgi-bin/ds_mark.prl?PidBox=PG2069", "source:name": "NOAA NGS https://www.ngs.noaa.gov/cgi-bin/ds_mark.prl?PidBox=PG2069"}}, {"name": "", "latitude": 44.567419, "longitude": -72.9019904, "elevation": null, "source": "osm", "_tags": {"natural": "peak"}}, {"name": "", "latitude": 44.5852791, "longitude": -72.8948772, "elevation": null, "source": "osm", "_tags": {"natural": "peak"}}, {"name": "", "latitude": 44.6078696, "longitude": -72.9146505, "elevation": null, "source": "osm", "_tags": {"natural": "peak"}}, {"name": "", "latitude": 44.6357117, "longitude": -72.8872705, "elevation": null, "source": "osm", "_tags": {"natural": "peak"}}, {"name": "", "latitude": 44.6175387, "longitude": -72.8976345, "elevation": null, "source": "osm", "_tags": {"natural": "peak"}}, {"name": "", "latitude": 44.607671, "longitude": -72.9023552, "elevation": 453.0, "source": "osm", "_tags": {"ele": "453", "natural": "peak"}}, {"name": "Oxbow Mountain", "latitude": 44.4297888, "longitude": -72.8831985, "elevation": null, "source": "osm", "_tags": {"name": "Oxbow Mountain", "natural": "peak"}}, {"name": "Emery Mountain", "latitude": 44.692151, "longitude": -72.7165684, "elevation": null, "source": "osm", "_tags": {"gnis:feature_id": "2797094", "name": "Emery Mountain", "natural": "peak"}}, {"name": "", "latitude": 44.3134188, "longitude": -73.672712, "elevation": null, "source": "osm", "_tags": {"natural": "peak"}}, {"name": "", "latitude": 45.035875, "longitude": -72.7783899, "elevation": 400.0, "source": "osm", "_tags": {"ele": "400", "natural": "peak"}}, {"name": "", "latitude": 44.8406204, "longitude": -73.2182329, "elevation": 53.0, "source": "osm", "_tags": {"ele": "53", "natural": "peak", "source": "usgs topo"}}, {"name": "", "latitude": 44.8350739, "longitude": -73.2131753, "elevation": 47.2, "source": "osm", "_tags": {"ele": "47.2", "natural": "peak", "source": "usgs topo"}}, {"name": "", "latitude": 44.8373237, "longitude": -73.2168162, "elevation": 54.9, "source": "osm", "_tags": {"ele": "54.9", "natural": "peak", "source": "the national map topo"}}]