[{"name": "Badger Butte", "latitude": 44.8726176, "longitude": -121.6972919, "elevation": 1672.0, "source": "osm", "_tags": {"ele": "1672", "gnis:feature_id": "1117131", "name": "Badger Butte", "natural": "peak"}}, {"name": "Bald Peter", "latitude": 44.4966883, "longitude": -122.5767339, "elevation": 1243.584, "source": "osm", "_tags": {"ele": "1243.584", "gnis:feature_id": "1117189", "name": "Bald Peter", "natural": "peak"}}, {"name": "Big Green Mountain", "latitude": 44.8287331, "longitude": -122.526751, "elevation": 957.0, "source": "osm", "_tags": {"ele": "957", "gnis:feature_id": "1117628", "name": "Big Green Mountain", "natural": "peak"}}, {"name": "Mount Bruno", "latitude": 44.6606844, "longitude": -121.9891632, "elevation": 1615.7, "source": "osm", "_tags": {"ele": "1615.7", "gnis:feature_id": "1118146", "name": "Mount Bruno", "natural": "peak"}}, {"name": "Cedar Butte", "latitude": 44.8440066, "longitude": -121.6956243, "elevation": 1586.0, "source": "osm", "_tags": {"ele": "1586", "gnis:feature_id": "1118718", "name": "Cedar Butte", "natural": "peak"}}, {"name": "Crabtree Mountain", "latitude": 44.5961512, "longitude": -122.4632046, "elevation": 1358.0, "source": "osm", "_tags": {"ele": "1358", "gnis:feature_id": "1119494", "name": "Crabtree Mountain", "natural": "peak"}}, {"name": "Duffy Butte", "latitude": 44.4980901, "longitude": -121.8972953, "elevation": 1782.8, "source": "osm", "_tags": {"ele": "1782.8", "gnis:feature_id": "1120197", "name": "Duffy Butte", "natural": "peak"}}, {"name": "Farmers Butte", "latitude": 44.3115155, "longitude": -122.5839701, "elevation": 1101.0, "source": "osm", "_tags": {"ele": "1101", "gnis:feature_id": "1120633", "name": "Farmers Butte", "natural": "peak"}}, {"name": "Green Butte", "latitude": 44.3384597, "longitude": -122.5259143, "elevation": 1064.0, "source": "osm", "_tags": {"ele": "1064", "gnis:feature_id": "1121371", "name": "Green Butte", "natural": "peak"}}, {"name": "Green Peak", "latitude": 44.5185576, "longitude": -121.8838339, "elevation": 1862.6, "source": "osm", "_tags": {"ele": "1862.6", "gnis:feature_id": "1121391", "name": "Green Peak", "natural": "peak"}}, {"name": "Green Peter", "latitude": 44.4829768, "longitude": -122.5830235, "elevation": 1212.19, "source": "osm", "_tags": {"ele": "1212.19", "gnis:feature_id": "1121393", "name": "Green Peter", "natural": "peak"}}, {"name": "Highland Butte", "latitude": 45.2372088, "longitude": -122.4427542, "elevation": 470.0, "source": "osm", "_tags": {"ele": "470", "gnis:feature_id": "1121818", "name": "Highland Butte", "natural": "peak"}}, {"name": "Hoodoo Butte", "latitude": 44.4018396, "longitude": -121.8823271, "elevation": 1735.0, "source": "osm", "_tags": {"ele": "1735", "gnis:feature_id": "1121960", "name": "Hoodoo Butte", "natural": "peak", "wikidata": "Q4502096", "wikipedia": "en:Hoodoo Butte"}}, {"name": "Jumpoff Joe Mountain", "latitude": 44.3690135, "longitude": -122.183404, "elevation": 1275.0, "source": "osm", "_tags": {"ele": "1275", "gnis:feature_id": "1122559", "name": "Jumpoff Joe Mountain", "natural": "peak"}}, {"name": "Lookout Mountain", "latitude": 44.8535318, "longitude": -122.4090122, "elevation": 1207.008, "source": "osm", "_tags": {"ele": "1207.008", "gnis:feature_id": "1123465", "name": "Lookout Mountain", "natural": "peak"}}, {"name": "Maxwell Butte", "latitude": 44.4642493, "longitude": -121.9015565, "elevation": 1831.0, "source": "osm", "_tags": {"ele": "1831", "gnis:feature_id": "1123854", "name": "Maxwell Butte", "natural": "peak"}}, {"name": "McCully Mountain", "latitude": 44.7573442, "longitude": -122.6236966, "elevation": 513.0, "source": "osm", "_tags": {"ele": "513", "gnis:feature_id": "1123929", "name": "McCully Mountain", "natural": "peak"}}, {"name": "Minto Mountain", "latitude": 44.6406756, "longitude": -121.9053464, "elevation": 1563.0, "source": "osm", "_tags": {"ele": "1563", "gnis:feature_id": "1124249", "name": "Minto Mountain", "natural": "peak"}}, {"name": "Outerson Mountain", "latitude": 44.729638, "longitude": -121.9493474, "elevation": 1591.0, "source": "osm", "_tags": {"ele": "1591", "gnis:feature_id": "1125068", "name": "Outerson Mountain", "natural": "peak"}}, {"name": "Potato Hill", "latitude": 44.7419577, "longitude": -122.3825759, "elevation": 540.0, "source": "osm", "_tags": {"ele": "540", "gnis:feature_id": "1125603", "name": "Potato Hill", "natural": "peak"}}, {"name": "Pyramid Butte", "latitude": 44.7615078, "longitude": -121.8000695, "elevation": 1838.0, "source": "osm", "_tags": {"ele": "1838", "gnis:feature_id": "1125716", "name": "Pyramid Butte", "natural": "peak"}}, {"name": "Rocky Top", "latitude": 44.5162349, "longitude": -122.426193, "elevation": 1054.0, "source": "osm", "_tags": {"ele": "1054", "gnis:feature_id": "1126250", "name": "Rocky Top", "natural": "peak"}}, {"name": "Rocky Top", "latitude": 44.8348442, "longitude": -122.5034172, "elevation": 1018.0, "source": "osm", "_tags": {"ele": "1018", "gnis:feature_id": "1126251", "name": "Rocky Top", "natural": "peak"}}, {"name": "Saddle Mountain", "latitude": 44.523175, "longitude": -121.8825644, "elevation": 1883.7, "source": "osm", "_tags": {"ele": "1883.7", "gnis:feature_id": "1126425", "name": "Saddle Mountain", "natural": "peak"}}, {"name": "Snow Peak", "latitude": 44.6308887, "longitude": -122.5826689, "elevation": 1310.03, "source": "osm", "_tags": {"ele": "1310.03", "gnis:feature_id": "1127166", "name": "Snow Peak", "natural": "peak"}}, {"name": "Latiwi Mountain", "latitude": 44.3356799, "longitude": -122.163402, "elevation": 1613.0, "source": "osm", "_tags": {"ele": "1613", "gnis:feature_id": "1127500", "name": "Latiwi Mountain", "natural": "peak"}}, {"name": "Stout Mountain", "latitude": 44.7945665, "longitude": -122.6639753, "elevation": 419.0, "source": "osm", "_tags": {"ele": "419", "gnis:feature_id": "1127640", "name": "Stout Mountain", "natural": "peak"}}, {"name": "Swamp Mountain", "latitude": 44.3176267, "longitude": -122.4406339, "elevation": 1321.0, "source": "osm", "_tags": {"ele": "1321", "gnis:feature_id": "1127803", "name": "Swamp Mountain", "natural": "peak"}}, {"name": "Sweet Spring Mountain", "latitude": 44.8559554, "longitude": -122.4606386, "elevation": 1239.0, "source": "osm", "_tags": {"ele": "1239", "gnis:feature_id": "1127833", "name": "Sweet Spring Mountain", "natural": "peak"}}, {"name": "Triangulation Peak", "latitude": 44.7181428, "longitude": -121.9246689, "elevation": 1576.0, "source": "osm", "_tags": {"ele": "1576", "gnis:feature_id": "1128224", "name": "Triangulation Peak", "natural": "peak"}}, {"name": "Turpentine Peak", "latitude": 44.5232417, "longitude": -121.9207084, "elevation": 1760.0, "source": "osm", "_tags": {"ele": "1760", "gnis:feature_id": "1128320", "name": "Turpentine Peak", "natural": "peak"}}, {"name": "Two Girls", "latitude": 44.3271808, "longitude": -122.2967738, "elevation": 1471.879, "source": "osm", "_tags": {"ele": "1471.879", "gnis:feature_id": "1128380", "name": "Two Girls", "natural": "peak"}}, {"name": "Whisky Butte", "latitude": 44.3823476, "longitude": -122.6156385, "elevation": 616.0, "source": "osm", "_tags": {"ele": "616", "gnis:feature_id": "1128951", "name": "Whisky Butte", "natural": "peak"}}, {"name": "Wildcat Mountain", "latitude": 44.3362345, "longitude": -122.1086771, "elevation": 1583.0, "source": "osm", "_tags": {"ele": "1583", "gnis:feature_id": "1129066", "name": "Wildcat Mountain", "natural": "peak"}}, {"name": "Yellowstone Mountain", "latitude": 44.5681788, "longitude": -122.4836945, "elevation": 1291.0, "source": "osm", "_tags": {"ele": "1291", "gnis:feature_id": "1129381", "name": "Yellowstone Mountain", "natural": "peak"}}, {"name": "Fibre Rock", "latitude": 44.8926723, "longitude": -122.4211454, "elevation": 1248.766, "source": "osm", "_tags": {"ele": "1248.766", "gnis:feature_id": "1130531", "name": "Fibre Rock", "natural": "peak"}}, {"name": "Dog Rock", "latitude": 44.9116362, "longitude": -122.4148164, "elevation": 1207.922, "source": "osm", "_tags": {"ele": "1207.922", "gnis:feature_id": "1130540", "name": "Dog Rock", "natural": "peak"}}, {"name": "Picture Point", "latitude": 44.8990567, "longitude": -122.3804718, "elevation": 1281.074, "source": "osm", "_tags": {"ele": "1281.074", "gnis:feature_id": "1130576", "name": "Picture Point", "natural": "peak"}}, {"name": "Meyers Butte", "latitude": 44.9581779, "longitude": -122.5067511, "elevation": 798.0, "source": "osm", "_tags": {"ele": "798", "gnis:feature_id": "1131486", "name": "Meyers Butte", "natural": "peak"}}, {"name": "House Mountain", "latitude": 44.8415109, "longitude": -122.4834168, "elevation": 1197.0, "source": "osm", "_tags": {"ele": "1197", "gnis:feature_id": "1134785", "name": "House Mountain", "natural": "peak"}}, {"name": "Gobblers Knob", "latitude": 44.5354014, "longitude": -122.4789722, "elevation": 806.0, "source": "osm", "_tags": {"ele": "806", "gnis:feature_id": "1134868", "name": "Gobblers Knob", "natural": "peak"}}, {"name": "Harry Mountain", "latitude": 44.613734, "longitude": -122.4409155, "elevation": 1295.0, "source": "osm", "_tags": {"ele": "1295", "gnis:feature_id": "1134869", "name": "Harry Mountain", "natural": "peak"}}, {"name": "Blacktail", "latitude": 44.8320665, "longitude": -122.6761979, "elevation": 491.0, "source": "osm", "_tags": {"ele": "491", "gnis:feature_id": "1134938", "name": "Blacktail", "natural": "peak"}}, {"name": "Sheepshead Rock", "latitude": 45.245058, "longitude": -122.0044616, "elevation": 1359.0, "source": "osm", "_tags": {"ele": "1359", "gnis:feature_id": "1135215", "name": "Sheepshead Rock", "natural": "peak"}}, {"name": "South Fork Mountain", "latitude": 45.0915102, "longitude": -122.240359, "elevation": 1473.0, "source": "osm", "_tags": {"ele": "1473", "gnis:feature_id": "1135488", "name": "South Fork Mountain", "natural": "peak"}}, {"name": "Buck Mountain", "latitude": 44.3487373, "longitude": -122.5448037, "elevation": 919.0, "source": "osm", "_tags": {"ele": "919", "gnis:feature_id": "1136098", "name": "Buck Mountain", "natural": "peak"}}, {"name": "Buck Point", "latitude": 44.859011, "longitude": -122.5064729, "elevation": 1048.0, "source": "osm", "_tags": {"ele": "1048", "gnis:feature_id": "1136099", "name": "Buck Point", "natural": "peak"}}, {"name": "Bunchgrass Mountain", "latitude": 44.3192981, "longitude": -122.098981, "elevation": 1600.0, "source": "osm", "_tags": {"ele": "1600", "gnis:feature_id": "1136105", "name": "Bunchgrass Mountain", "natural": "peak"}}, {"name": "Cinder Cone", "latitude": 44.8398403, "longitude": -121.7453483, "elevation": 1654.0, "source": "osm", "_tags": {"ele": "1654", "gnis:feature_id": "1136150", "name": "Cinder Cone", "natural": "peak"}}, {"name": "Doe Mountain", "latitude": 44.3662371, "longitude": -122.5020257, "elevation": 806.0, "source": "osm", "_tags": {"ele": "806", "gnis:feature_id": "1136224", "name": "Doe Mountain", "natural": "peak"}}, {"name": "Green Mountain", "latitude": 44.559012, "longitude": -122.6467525, "elevation": 784.0, "source": "osm", "_tags": {"ele": "784", "gnis:feature_id": "1136337", "name": "Green Mountain", "natural": "peak"}}, {"name": "Greenhorn Hill", "latitude": 44.43568, "longitude": -122.6145285, "elevation": 405.0, "source": "osm", "_tags": {"ele": "405", "gnis:feature_id": "1136343", "name": "Greenhorn Hill", "natural": "peak"}}, {"name": "High Hill", "latitude": 45.0179001, "longitude": -122.5648081, "elevation": 568.0, "source": "osm", "_tags": {"ele": "568", "gnis:feature_id": "1136376", "name": "High Hill", "natural": "peak"}}, {"name": "Keel Mountain", "latitude": 44.5342899, "longitude": -122.6223077, "elevation": 840.0, "source": "osm", "_tags": {"ele": "840", "gnis:feature_id": "1136434", "name": "Keel Mountain", "natural": "peak", "wikidata": "Q6382726"}}, {"name": "Little Green Mountain", "latitude": 44.8253998, "longitude": -122.5348066, "elevation": 932.0, "source": "osm", "_tags": {"ele": "932", "gnis:feature_id": "1136489", "name": "Little Green Mountain", "natural": "peak"}}, {"name": "Moss Butte", "latitude": 44.3812367, "longitude": -122.5525822, "elevation": 770.0, "source": "osm", "_tags": {"ele": "770", "gnis:feature_id": "1136552", "name": "Moss Butte", "natural": "peak"}}, {"name": "North Butte", "latitude": 44.4262355, "longitude": -122.683418, "elevation": 453.0, "source": "osm", "_tags": {"ele": "453", "gnis:feature_id": "1136578", "name": "North Butte", "natural": "peak"}}, {"name": "Panther Rock", "latitude": 44.9039028, "longitude": -122.3847435, "elevation": 1296.619, "source": "osm", "_tags": {"ele": "1296.619", "gnis:feature_id": "1136613", "name": "Panther Rock", "natural": "peak"}}, {"name": "Potato Hill", "latitude": 44.4201196, "longitude": -121.898394, "elevation": 1579.0, "source": "osm", "_tags": {"ele": "1579", "gnis:feature_id": "1136647", "name": "Potato Hill", "natural": "peak"}}, {"name": "Round Mountain", "latitude": 44.5615119, "longitude": -122.6673083, "elevation": 648.0, "source": "osm", "_tags": {"ele": "648", "gnis:feature_id": "1136710", "name": "Round Mountain", "natural": "peak"}}, {"name": "Shot Pouch Butte", "latitude": 44.4073474, "longitude": -122.5373047, "elevation": 573.0, "source": "osm", "_tags": {"ele": "573", "gnis:feature_id": "1136752", "name": "Shot Pouch Butte", "natural": "peak"}}, {"name": "Silverton Hills", "latitude": 44.9459552, "longitude": -122.680643, "elevation": 461.0, "source": "osm", "_tags": {"ele": "461", "gnis:feature_id": "1136757", "name": "Silverton Hills", "natural": "peak"}}, {"name": "Soapgrass Mountain", "latitude": 44.3495138, "longitude": -122.266855, "elevation": 1584.96, "source": "osm", "_tags": {"ele": "1584.96", "gnis:feature_id": "1136763", "name": "Soapgrass Mountain", "natural": "peak"}}, {"name": "Spangler Hill", "latitude": 45.2537334, "longitude": -122.5773115, "elevation": 200.0, "source": "osm", "_tags": {"ele": "200", "gnis:feature_id": "1136769", "name": "Spangler Hill", "natural": "peak"}}, {"name": "Timber Butte", "latitude": 44.7328991, "longitude": -121.9825732, "elevation": 1569.0, "source": "osm", "_tags": {"ele": "1569", "gnis:feature_id": "1136832", "name": "Timber Butte", "natural": "peak"}}, {"name": "Twin Buttes", "latitude": 44.3370141, "longitude": -122.2427616, "elevation": 1637.995, "source": "osm", "_tags": {"ele": "1637.995", "gnis:feature_id": "1136849", "name": "Twin Buttes", "natural": "peak"}}, {"name": "Woodpecker Hill", "latitude": 44.6837771, "longitude": -121.907658, "elevation": 1525.0, "source": "osm", "_tags": {"ele": "1525", "gnis:feature_id": "1136922", "name": "Woodpecker Hill", "natural": "peak"}}, {"name": "Abbot Butte", "latitude": 44.5576173, "longitude": -121.7089486, "elevation": 1321.0, "source": "osm", "_tags": {"ele": "1321", "gnis:feature_id": "1136992", "name": "Abbot Butte", "natural": "peak"}}, {"name": "Austin Point", "latitude": 45.015093, "longitude": -122.0562277, "elevation": 742.0, "source": "osm", "_tags": {"ele": "742", "gnis:feature_id": "1137349", "name": "Austin Point", "natural": "peak"}}, {"name": "Bachelor Mountain", "latitude": 44.6287499, "longitude": -122.0130592, "elevation": 1814.5, "source": "osm", "_tags": {"ele": "1814.5", "gnis:feature_id": "1137381", "name": "Bachelor Mountain", "natural": "peak"}}, {"name": "Bald Butte", "latitude": 44.8115093, "longitude": -121.900351, "elevation": 1479.0, "source": "osm", "_tags": {"ele": "1479", "gnis:feature_id": "1137437", "name": "Bald Butte", "natural": "peak"}}, {"name": "Bald Peter", "latitude": 44.6559508, "longitude": -121.6933959, "elevation": 1980.0, "source": "osm", "_tags": {"ele": "1980", "gnis:feature_id": "1137460", "name": "Bald Peter", "natural": "peak"}}, {"name": "Basin Point", "latitude": 45.1812296, "longitude": -121.7670219, "elevation": 1248.0, "source": "osm", "_tags": {"ele": "1248", "gnis:feature_id": "1137565", "name": "Basin Point", "natural": "peak"}}, {"name": "Battle Ax Mountain", "latitude": 44.8266788, "longitude": -122.1396, "elevation": 1692.0, "source": "osm", "_tags": {"ele": "1692", "gnis:feature_id": "1137578", "name": "Battle Ax Mountain", "natural": "peak"}}, {"name": "Bear Butte", "latitude": 44.6314121, "longitude": -121.7639101, "elevation": 1815.0, "source": "osm", "_tags": {"ele": "1815", "gnis:feature_id": "1137633", "name": "Bear Butte", "natural": "peak"}}, {"name": "Bear Point", "latitude": 44.7500987, "longitude": -121.8496304, "elevation": 1842.0, "source": "osm", "_tags": {"ele": "1842", "gnis:feature_id": "1137738", "name": "Bear Point", "natural": "peak"}}, {"name": "Bedford Point", "latitude": 45.2201202, "longitude": -122.1781372, "elevation": 714.0, "source": "osm", "_tags": {"ele": "714", "gnis:feature_id": "1137864", "name": "Bedford Point", "natural": "peak"}}, {"name": "Big Slide Mountain", "latitude": 44.8920437, "longitude": -122.0712802, "elevation": 1684.0, "source": "osm", "_tags": {"ele": "1684", "gnis:feature_id": "1138068", "name": "Big Slide Mountain", "natural": "peak"}}, {"name": "Bluegrass Butte", "latitude": 44.3201148, "longitude": -121.7366453, "elevation": 1487.424, "source": "osm", "_tags": {"ele": "1487.424", "gnis:feature_id": "1138339", "name": "Bluegrass Butte", "natural": "peak"}}, {"name": "Bracket Mountain", "latitude": 45.002622, "longitude": -122.2034137, "elevation": 1506.0, "source": "osm", "_tags": {"ele": "1506", "gnis:feature_id": "1138552", "name": "Bracket Mountain", "natural": "peak"}}, {"name": "Breitenbush Mountain", "latitude": 44.780581, "longitude": -121.9105436, "elevation": 1477.0, "source": "osm", "_tags": {"ele": "1477", "gnis:feature_id": "1138593", "name": "Breitenbush Mountain", "natural": "peak"}}, {"name": "Buck Mountain", "latitude": 44.604407, "longitude": -122.0433764, "elevation": 1600.0, "source": "osm", "_tags": {"ele": "1600", "gnis:feature_id": "1138803", "name": "Buck Mountain", "natural": "peak"}}, {"name": "Buck Mountain", "latitude": 44.7972252, "longitude": -122.3534213, "elevation": 1283.0, "source": "osm", "_tags": {"ele": "1283", "gnis:feature_id": "1138804", "name": "Buck Mountain", "natural": "peak"}}, {"name": "Buckskin Butte", "latitude": 45.0665068, "longitude": -121.718964, "elevation": 1249.0, "source": "osm", "_tags": {"ele": "1249", "gnis:feature_id": "1138873", "name": "Buckskin Butte", "natural": "peak"}}, {"name": "Burnt Granite", "latitude": 44.9928996, "longitude": -121.95869, "elevation": 1516.0, "source": "osm", "_tags": {"ele": "1516", "gnis:feature_id": "1138993", "name": "Burnt Granite", "natural": "peak"}}, {"name": "Burnt Mountain", "latitude": 44.8998441, "longitude": -122.2539683, "elevation": 1441.0, "source": "osm", "_tags": {"ele": "1441", "gnis:feature_id": "1138999", "name": "Burnt Mountain", "natural": "peak"}}, {"name": "Byars Peak", "latitude": 44.7922455, "longitude": -122.1527136, "elevation": 1432.0, "source": "osm", "_tags": {"ele": "1432", "gnis:feature_id": "1139088", "name": "Byars Peak", "natural": "peak"}}, {"name": "Cache Mountain", "latitude": 44.3806729, "longitude": -121.7806101, "elevation": 1700.0, "source": "osm", "_tags": {"ele": "1700", "gnis:feature_id": "1139130", "name": "Cache Mountain", "natural": "peak"}}, {"name": "Campbell Butte", "latitude": 44.7617851, "longitude": -121.7753467, "elevation": 1831.0, "source": "osm", "_tags": {"ele": "1831", "gnis:feature_id": "1139279", "name": "Campbell Butte", "natural": "peak"}}, {"name": "Cathedral Rocks", "latitude": 44.6227827, "longitude": -121.8089512, "elevation": 1964.1, "source": "osm", "_tags": {"ele": "1964.1", "gnis:feature_id": "1139468", "name": "Cathedral Rocks", "natural": "peak"}}, {"name": "Chimney Peak", "latitude": 44.5342905, "longitude": -122.2481327, "elevation": 1458.0, "source": "osm", "_tags": {"ele": "1458", "gnis:feature_id": "1139654", "name": "Chimney Peak", "natural": "peak"}}, {"name": "Clear Lake Butte", "latitude": 45.1567847, "longitude": -121.7192428, "elevation": 1356.0, "source": "osm", "_tags": {"ele": "1356", "gnis:feature_id": "1139806", "name": "Clear Lake Butte", "natural": "peak"}}, {"name": "Coffin Mountain", "latitude": 44.6217376, "longitude": -122.044598, "elevation": 1698.0, "source": "osm", "_tags": {"ele": "1698", "gnis:feature_id": "1139901", "name": "Coffin Mountain", "natural": "peak"}}, {"name": "Collawash Mountain", "latitude": 44.8237321, "longitude": -121.9442412, "elevation": 1457.0, "source": "osm", "_tags": {"ele": "1457", "gnis:feature_id": "1139986", "name": "Collawash Mountain", "natural": "peak"}}, {"name": "Cone Peak", "latitude": 44.4105476, "longitude": -122.1315047, "elevation": 1720.9, "source": "osm", "_tags": {"ele": "1720.9", "gnis:feature_id": "1140033", "name": "Cone Peak", "natural": "peak"}}, {"name": "Crescent Mountain", "latitude": 44.4469846, "longitude": -122.0927071, "elevation": 1759.0, "source": "osm", "_tags": {"ele": "1759", "gnis:feature_id": "1140438", "name": "Crescent Mountain", "natural": "peak"}}, {"name": "Cub Point", "latitude": 44.6329884, "longitude": -122.0649307, "elevation": 1451.0, "source": "osm", "_tags": {"ele": "1451", "gnis:feature_id": "1140526", "name": "Cub Point", "natural": "peak"}}, {"name": "Devils Peak", "latitude": 44.7594245, "longitude": -121.9396365, "elevation": 1380.0, "source": "osm", "_tags": {"ele": "1380", "gnis:feature_id": "1140967", "name": "Devils Peak", "natural": "peak"}}, {"name": "Devil's Peak", "latitude": 45.2642224, "longitude": -121.8757011, "elevation": 1537.7, "source": "osm", "_tags": {"ele": "1537.7", "gnis:feature_id": "1140968", "name": "Devil's Peak", "natural": "peak"}}, {"name": "Divide Butte", "latitude": 45.0240106, "longitude": -122.2495251, "elevation": 1456.0, "source": "osm", "_tags": {"ele": "1456", "gnis:feature_id": "1141062", "name": "Divide Butte", "natural": "peak"}}, {"name": "Double Peaks", "latitude": 44.800397, "longitude": -121.8206266, "elevation": 1824.0, "source": "osm", "_tags": {"ele": "1824", "gnis:feature_id": "1141203", "name": "Double Peaks", "natural": "peak"}}, {"name": "Dugout Butte", "latitude": 44.3099057, "longitude": -121.7754958, "elevation": 1598.676, "source": "osm", "_tags": {"ele": "1598.676", "gnis:feature_id": "1141384", "name": "Dugout Butte", "natural": "peak"}}, {"name": "Eagle Rock", "latitude": 44.7776218, "longitude": -122.0439642, "elevation": 896.0, "source": "osm", "_tags": {"ele": "896", "gnis:feature_id": "1141495", "name": "Eagle Rock", "natural": "peak"}}, {"name": "East Mountain", "latitude": 45.0048444, "longitude": -122.1384135, "elevation": 1605.0, "source": "osm", "_tags": {"ele": "1605", "gnis:feature_id": "1141630", "name": "East Mountain", "natural": "peak"}}, {"name": "Echo Mountain", "latitude": 44.4097456, "longitude": -122.1060811, "elevation": 1777.0, "source": "osm", "_tags": {"ele": "1777", "gnis:feature_id": "1141666", "name": "Echo Mountain", "natural": "peak"}}, {"name": "Elkhorn Mountain", "latitude": 44.8229029, "longitude": -122.32246, "elevation": 1239.0, "source": "osm", "_tags": {"ele": "1239", "gnis:feature_id": "1141819", "name": "Elkhorn Mountain", "natural": "peak"}}, {"name": "Eureka Peak", "latitude": 45.2723406, "longitude": -121.7550779, "elevation": 1487.4, "source": "osm", "_tags": {"ele": "1487.4", "gnis:feature_id": "1141918", "name": "Eureka Peak", "natural": "peak"}}, {"name": "Fish Creek Mountain", "latitude": 45.0789245, "longitude": -122.1254679, "elevation": 1522.0, "source": "osm", "_tags": {"ele": "1522", "gnis:feature_id": "1142153", "name": "Fish Creek Mountain", "natural": "peak"}}, {"name": "Fisher Point", "latitude": 44.5402007, "longitude": -122.0319422, "elevation": 1336.0, "source": "osm", "_tags": {"ele": "1336", "gnis:feature_id": "1142179", "name": "Fisher Point", "natural": "peak"}}, {"name": "Forked Butte", "latitude": 44.6056557, "longitude": -121.7807028, "elevation": 1959.0, "source": "osm", "_tags": {"ele": "1959", "gnis:feature_id": "1142304", "name": "Forked Butte", "natural": "peak"}}, {"name": "Fort Butte", "latitude": 44.8998398, "longitude": -121.6939593, "elevation": 1636.0, "source": "osm", "_tags": {"ele": "1636", "gnis:feature_id": "1142314", "name": "Fort Butte", "natural": "peak"}}, {"name": "Frazier Mountain", "latitude": 45.1434614, "longitude": -121.9756543, "elevation": 1549.3, "source": "osm", "_tags": {"ele": "1549.3", "gnis:feature_id": "1142426", "name": "Frazier Mountain", "natural": "peak"}}, {"name": "Galena Mountain", "latitude": 44.5412349, "longitude": -122.2923006, "elevation": 1513.0, "source": "osm", "_tags": {"ele": "1513", "gnis:feature_id": "1142557", "name": "Galena Mountain", "natural": "peak"}}, {"name": "Goat Mountain", "latitude": 45.1315103, "longitude": -122.2967491, "elevation": 1282.0, "source": "osm", "_tags": {"ele": "1282", "gnis:feature_id": "1142785", "name": "Goat Mountain", "natural": "peak"}}, {"name": "Goat Peak", "latitude": 44.6431255, "longitude": -121.7985882, "elevation": 2182.1, "source": "osm", "_tags": {"ele": "2182.1", "gnis:feature_id": "1142787", "name": "Goat Peak", "natural": "peak"}}, {"name": "Gold Butte", "latitude": 44.8053369, "longitude": -122.0836403, "elevation": 1387.0, "source": "osm", "_tags": {"ele": "1387", "gnis:feature_id": "1142806", "name": "Gold Butte", "natural": "peak"}}, {"name": "Gold Peak", "latitude": 44.6048455, "longitude": -122.2831337, "elevation": 1204.0, "source": "osm", "_tags": {"ele": "1204", "gnis:feature_id": "1142826", "name": "Gold Peak", "natural": "peak"}}, {"name": "Gordan Peak", "latitude": 44.550017, "longitude": -122.1352422, "elevation": 1408.0, "source": "osm", "_tags": {"ele": "1408", "gnis:feature_id": "1142863", "name": "Gordan Peak", "natural": "peak"}}, {"name": "Green Mountain", "latitude": 44.6070677, "longitude": -122.2661889, "elevation": 1264.0, "source": "osm", "_tags": {"ele": "1264", "gnis:feature_id": "1143048", "name": "Green Mountain", "natural": "peak"}}, {"name": "Grouse Point", "latitude": 45.1548882, "longitude": -122.0248429, "elevation": 1367.0, "source": "osm", "_tags": {"ele": "1367", "gnis:feature_id": "1143134", "name": "Grouse Point", "natural": "peak"}}, {"name": "Hambone Butte", "latitude": 45.2086942, "longitude": -121.911404, "elevation": 1420.368, "source": "osm", "_tags": {"ele": "1420.368", "gnis:feature_id": "1143237", "name": "Hambone Butte", "natural": "peak"}}, {"name": "Harter Mountain", "latitude": 44.4498463, "longitude": -122.1984071, "elevation": 1454.0, "source": "osm", "_tags": {"ele": "1454", "gnis:feature_id": "1143338", "name": "Harter Mountain", "natural": "peak"}}, {"name": "Hayrick Butte", "latitude": 44.3995233, "longitude": -121.8700315, "elevation": 1683.0, "source": "osm", "_tags": {"ele": "1683", "gnis:feature_id": "1143408", "name": "Hayrick Butte", "natural": "peak", "wikidata": "Q5687145", "wikipedia": "en:Hayrick Butte"}}, {"name": "Henline Mountain", "latitude": 44.8643281, "longitude": -122.3206069, "elevation": 1385.0, "source": "osm", "_tags": {"ele": "1385", "gnis:feature_id": "1143493", "name": "Henline Mountain", "natural": "peak"}}, {"name": "High Deck", "latitude": 44.4317916, "longitude": -122.4606369, "elevation": 1046.0, "source": "osm", "_tags": {"ele": "1046", "gnis:feature_id": "1143565", "name": "High Deck", "natural": "peak"}}, {"name": "High Rock", "latitude": 45.1596182, "longitude": -121.8913168, "elevation": 1499.616, "source": "osm", "_tags": {"ele": "1499.616", "gnis:feature_id": "1143580", "name": "High Rock", "natural": "peak"}}, {"name": "Iron Mountain", "latitude": 44.4007344, "longitude": -122.1492243, "elevation": 1662.7, "source": "osm", "_tags": {"ele": "1662.7", "gnis:feature_id": "1144119", "name": "Iron Mountain", "natural": "peak"}}, {"name": "Knob Peak", "latitude": 44.8980713, "longitude": -122.0542027, "elevation": 1681.0, "source": "osm", "_tags": {"ele": "1681", "gnis:feature_id": "1144689", "name": "Knob Peak", "natural": "peak"}}, {"name": "Lemiti Butte", "latitude": 44.9008069, "longitude": -121.7877867, "elevation": 1381.0, "source": "osm", "_tags": {"ele": "1381", "gnis:feature_id": "1144933", "name": "Lemiti Butte", "natural": "peak"}}, {"name": "Linney Butte", "latitude": 45.1939236, "longitude": -121.8959059, "elevation": 1534.973, "source": "osm", "_tags": {"ele": "1534.973", "gnis:feature_id": "1145052", "name": "Linney Butte", "natural": "peak"}}, {"name": "Lionshead", "latitude": 44.7181733, "longitude": -121.7020095, "elevation": 1810.0, "source": "osm", "_tags": {"ele": "1810", "gnis:feature_id": "1145059", "name": "Lionshead", "natural": "peak"}}, {"name": "Little Butte", "latitude": 44.3136892, "longitude": -121.7004612, "elevation": 1267.968, "source": "osm", "_tags": {"ele": "1267.968", "gnis:feature_id": "1145115", "name": "Little Butte", "natural": "peak"}}, {"name": "Little Cache Mountain", "latitude": 44.3715066, "longitude": -121.795888, "elevation": 1617.0, "source": "osm", "_tags": {"ele": "1617", "gnis:feature_id": "1145119", "name": "Little Cache Mountain", "natural": "peak"}}, {"name": "Lizard Point", "latitude": 44.6240085, "longitude": -121.8703449, "elevation": 1673.0, "source": "osm", "_tags": {"ele": "1673", "gnis:feature_id": "1145301", "name": "Lizard Point", "natural": "peak"}}, {"name": "Mount Lowe", "latitude": 44.9563349, "longitude": -121.973929, "elevation": 1625.0, "source": "osm", "_tags": {"ele": "1625", "gnis:feature_id": "1145597", "name": "Mount Lowe", "natural": "peak"}}, {"name": "Lucky Butte", "latitude": 44.6256782, "longitude": -122.1839646, "elevation": 1521.0, "source": "osm", "_tags": {"ele": "1521", "gnis:feature_id": "1145656", "name": "Lucky Butte", "natural": "peak"}}, {"name": "Mansfield Mountain", "latitude": 44.8198438, "longitude": -121.9809085, "elevation": 1408.0, "source": "osm", "_tags": {"ele": "1408", "gnis:feature_id": "1145786", "name": "Mansfield Mountain", "natural": "peak"}}, {"name": "Miners Butte", "latitude": 45.0423438, "longitude": -122.2242474, "elevation": 1401.0, "source": "osm", "_tags": {"ele": "1401", "gnis:feature_id": "1146319", "name": "Miners Butte", "natural": "peak"}}, {"name": "Minniece Point", "latitude": 44.6021183, "longitude": -122.2360498, "elevation": 1350.0, "source": "osm", "_tags": {"ele": "1350", "gnis:feature_id": "1146339", "name": "Minniece Point", "natural": "peak"}}, {"name": "Monument Peak", "latitude": 44.6948446, "longitude": -122.3214681, "elevation": 1399.0, "source": "osm", "_tags": {"ele": "1399", "gnis:feature_id": "1146402", "name": "Monument Peak", "natural": "peak"}}, {"name": "Moose Mountain", "latitude": 44.4483488, "longitude": -122.3017429, "elevation": 1405.0, "source": "osm", "_tags": {"ele": "1405", "gnis:feature_id": "1146439", "name": "Moose Mountain", "natural": "peak"}}, {"name": "Mount Mitchell", "latitude": 45.1084944, "longitude": -121.9800252, "elevation": 1448.0, "source": "osm", "_tags": {"ele": "1448", "gnis:feature_id": "1146526", "name": "Mount Mitchell", "natural": "peak", "wikidata": "Q6922213"}}, {"name": "Nohorn Butte", "latitude": 44.9295555, "longitude": -122.2565617, "elevation": 1369.0, "source": "osm", "_tags": {"ele": "1369", "gnis:feature_id": "1146865", "name": "Nohorn Butte", "natural": "peak"}}, {"name": "North Cinder Peak", "latitude": 44.603341, "longitude": -121.8006455, "elevation": 2050.0, "source": "osm", "_tags": {"ele": "2050", "gnis:feature_id": "1146889", "name": "North Cinder Peak", "natural": "peak"}}, {"name": "North Peak", "latitude": 44.4178086, "longitude": -122.1020641, "elevation": 1763.0, "source": "osm", "_tags": {"ele": "1763", "gnis:feature_id": "1147045", "name": "North Peak", "natural": "peak"}}, {"name": "North Pinhead Butte", "latitude": 44.9498207, "longitude": -121.7525347, "elevation": 1641.0, "source": "osm", "_tags": {"ele": "1641", "gnis:feature_id": "1147047", "name": "North Pinhead Butte", "natural": "peak"}}, {"name": "Oak Grove Butte", "latitude": 45.0487329, "longitude": -121.9900796, "elevation": 1404.0, "source": "osm", "_tags": {"ele": "1404", "gnis:feature_id": "1147114", "name": "Oak Grove Butte", "natural": "peak"}}, {"name": "Pansy Mountain", "latitude": 44.8753998, "longitude": -122.1164668, "elevation": 1576.0, "source": "osm", "_tags": {"ele": "1576", "gnis:feature_id": "1147384", "name": "Pansy Mountain", "natural": "peak"}}, {"name": "Park Butte", "latitude": 44.7209152, "longitude": -121.8066242, "elevation": 2088.0, "source": "osm", "_tags": {"ele": "2088", "gnis:feature_id": "1147430", "name": "Park Butte", "natural": "peak"}}, {"name": "Pasola Mountain", "latitude": 44.9242888, "longitude": -122.0842453, "elevation": 1489.0, "source": "osm", "_tags": {"ele": "1489", "gnis:feature_id": "1147477", "name": "Pasola Mountain", "natural": "peak"}}, {"name": "Peavine Mountain", "latitude": 45.0140085, "longitude": -121.8364661, "elevation": 1458.0, "source": "osm", "_tags": {"ele": "1458", "gnis:feature_id": "1147543", "name": "Peavine Mountain", "natural": "peak"}}, {"name": "Pinnacle Peak", "latitude": 44.5985667, "longitude": -122.1253497, "elevation": 1463.04, "source": "osm", "_tags": {"ele": "1463.04", "gnis:feature_id": "1147745", "name": "Pinnacle Peak", "natural": "peak"}}, {"name": "Potato Butte", "latitude": 44.8242861, "longitude": -121.8386833, "elevation": 1613.0, "source": "osm", "_tags": {"ele": "1613", "gnis:feature_id": "1147935", "name": "Potato Butte", "natural": "peak"}}, {"name": "Red Butte", "latitude": 44.5080104, "longitude": -121.8730521, "elevation": 1783.0, "source": "osm", "_tags": {"ele": "1783", "gnis:feature_id": "1148278", "name": "Red Butte", "natural": "peak"}}, {"name": "Rock Butte", "latitude": 45.0670636, "longitude": -121.8253551, "elevation": 1361.0, "source": "osm", "_tags": {"ele": "1361", "gnis:feature_id": "1148561", "name": "Rock Butte", "natural": "peak"}}, {"name": "Rock Cone", "latitude": 44.7687294, "longitude": -121.7584021, "elevation": 1777.0, "source": "osm", "_tags": {"ele": "1777", "gnis:feature_id": "1148563", "name": "Rock Cone", "natural": "peak"}}, {"name": "Rockpile Mountain", "latitude": 44.5521276, "longitude": -121.8068866, "elevation": 1991.0, "source": "osm", "_tags": {"ele": "1991", "gnis:feature_id": "1148646", "name": "Rockpile Mountain", "natural": "peak"}}, {"name": "Rocky Top", "latitude": 44.7884162, "longitude": -122.2923997, "elevation": 1528.0, "source": "osm", "_tags": {"ele": "1528", "gnis:feature_id": "1148677", "name": "Rocky Top", "natural": "peak"}}, {"name": "Round Mountain", "latitude": 45.055677, "longitude": -122.2295253, "elevation": 1404.0, "source": "osm", "_tags": {"ele": "1404", "gnis:feature_id": "1148787", "name": "Round Mountain", "natural": "peak"}}, {"name": "Ruddy Hill", "latitude": 44.7770633, "longitude": -121.8050701, "elevation": 1802.0, "source": "osm", "_tags": {"ele": "1802", "gnis:feature_id": "1148835", "name": "Ruddy Hill", "natural": "peak"}}, {"name": "Salmon Butte", "latitude": 45.2279261, "longitude": -121.9346658, "elevation": 1431.0, "source": "osm", "_tags": {"ele": "1431", "gnis:feature_id": "1148965", "name": "Salmon Butte", "natural": "peak"}}, {"name": "Schreiner Peak", "latitude": 44.9008339, "longitude": -122.043969, "elevation": 1740.0, "source": "osm", "_tags": {"ele": "1740", "gnis:feature_id": "1149146", "name": "Schreiner Peak", "natural": "peak"}}, {"name": "Scorpion Mountain", "latitude": 44.8234551, "longitude": -121.9953534, "elevation": 1431.0, "source": "osm", "_tags": {"ele": "1431", "gnis:feature_id": "1149160", "name": "Scorpion Mountain", "natural": "peak"}}, {"name": "", "latitude": 44.709056, "longitude": -121.8274251, "elevation": 1899.0, "source": "osm", "_tags": {"ele": "1899", "natural": "peak"}}, {"name": "Silver King Mountain", "latitude": 44.8644047, "longitude": -122.1343175, "elevation": 1596.0, "source": "osm", "_tags": {"ele": "1596", "gnis:feature_id": "1149500", "name": "Silver King Mountain", "natural": "peak"}}, {"name": "Sisi Butte", "latitude": 44.8990551, "longitude": -121.8447838, "elevation": 1689.0, "source": "osm", "_tags": {"ele": "1689", "gnis:feature_id": "1149542", "name": "Sisi Butte", "natural": "peak"}}, {"name": "Soosap Peak", "latitude": 45.0715103, "longitude": -122.2600812, "elevation": 1419.0, "source": "osm", "_tags": {"ele": "1419", "gnis:feature_id": "1149878", "name": "Soosap Peak", "natural": "peak"}}, {"name": "South Peak", "latitude": 44.4065083, "longitude": -122.114886, "elevation": 1738.6, "source": "osm", "_tags": {"ele": "1738.6", "gnis:feature_id": "1150063", "name": "South Peak", "natural": "peak"}}, {"name": "South Pinhead Butte", "latitude": 44.938482, "longitude": -121.7602479, "elevation": 1628.0, "source": "osm", "_tags": {"ele": "1628", "gnis:feature_id": "1150065", "name": "South Pinhead Butte", "natural": "peak"}}, {"name": "South Pyramid", "latitude": 44.4962908, "longitude": -122.0776193, "elevation": 1734.3, "source": "osm", "_tags": {"ele": "1734.3", "gnis:feature_id": "1150074", "name": "South Pyramid", "natural": "peak"}}, {"name": "Tumala Mountain", "latitude": 45.2309783, "longitude": -122.0405442, "elevation": 1432.0, "source": "osm", "_tags": {"ele": "1432", "gnis:feature_id": "1150290", "name": "Tumala Mountain", "natural": "peak", "wikidata": "Q20712572"}}, {"name": "Stahlman Point", "latitude": 44.7106019, "longitude": -122.1341529, "elevation": 932.1, "source": "osm", "_tags": {"ele": "932.1", "gnis:feature_id": "1150320", "name": "Stahlman Point", "natural": "peak"}}, {"name": "Summit Butte", "latitude": 45.0384511, "longitude": -121.717297, "elevation": 1446.0, "source": "osm", "_tags": {"ele": "1446", "gnis:feature_id": "1150605", "name": "Summit Butte", "natural": "peak"}}, {"name": "Swamp Peak", "latitude": 44.5520673, "longitude": -122.1603522, "elevation": 1459.0, "source": "osm", "_tags": {"ele": "1459", "gnis:feature_id": "1150751", "name": "Swamp Peak", "natural": "peak"}}, {"name": "Table Rock", "latitude": 44.9702158, "longitude": -122.3100639, "elevation": 1487.0, "source": "osm", "_tags": {"ele": "1487", "gnis:feature_id": "1150827", "name": "Table Rock", "natural": "peak"}}, {"name": "Three Fingered Jack", "latitude": 44.4789984, "longitude": -121.8431921, "elevation": 2390.0, "source": "osm", "_tags": {"ele": "2390", "gnis:feature_id": "1151164", "name": "Three Fingered Jack", "natural": "peak", "wikidata": "Q3525937"}}, {"name": "", "latitude": 44.5058635, "longitude": -122.0753486, "elevation": 1721.0, "source": "osm", "_tags": {"ele": "1721", "natural": "peak"}}, {"name": "Trappers Butte", "latitude": 44.5559485, "longitude": -122.066023, "elevation": 1462.0, "source": "osm", "_tags": {"ele": "1462", "gnis:feature_id": "1151401", "name": "Trappers Butte", "natural": "peak"}}, {"name": "Twin Peaks", "latitude": 44.8148413, "longitude": -121.8145158, "elevation": 1687.0, "source": "osm", "_tags": {"ele": "1687", "gnis:feature_id": "1151574", "name": "Twin Peaks", "natural": "peak"}}, {"name": "Veda Butte", "latitude": 45.258174, "longitude": -121.7742448, "elevation": 1518.0, "source": "osm", "_tags": {"ele": "1518", "gnis:feature_id": "1151743", "name": "Veda Butte", "natural": "peak"}}, {"name": "Wanderers Peak", "latitude": 45.1087323, "longitude": -122.1970255, "elevation": 1306.0, "source": "osm", "_tags": {"ele": "1306", "gnis:feature_id": "1151874", "name": "Wanderers Peak", "natural": "peak"}}, {"name": "Wash Creek Butte", "latitude": 45.0092885, "longitude": -122.225636, "elevation": 1389.0, "source": "osm", "_tags": {"ele": "1389", "gnis:feature_id": "1151921", "name": "Wash Creek Butte", "natural": "peak"}}, {"name": "Water Tower Mountain", "latitude": 44.7432661, "longitude": -122.2507484, "elevation": 1324.0, "source": "osm", "_tags": {"ele": "1324", "gnis:feature_id": "1151940", "name": "Water Tower Mountain", "natural": "peak"}}, {"name": "West Pinhead Butte", "latitude": 44.9369982, "longitude": -121.7960389, "elevation": 1688.0, "source": "osm", "_tags": {"ele": "1688", "gnis:feature_id": "1152139", "name": "West Pinhead Butte", "natural": "peak"}}, {"name": "Wests Butte", "latitude": 45.0653954, "longitude": -121.6920185, "elevation": 1454.0, "source": "osm", "_tags": {"ele": "1454", "gnis:feature_id": "1152158", "name": "Wests Butte", "natural": "peak"}}, {"name": "Whale Head", "latitude": 45.1062323, "longitude": -122.1189695, "elevation": 1431.0, "source": "osm", "_tags": {"ele": "1431", "gnis:feature_id": "1152168", "name": "Whale Head", "natural": "peak"}}, {"name": "Whetstone Mountain", "latitude": 44.8649726, "longitude": -122.2079244, "elevation": 1514.6, "source": "osm", "_tags": {"ele": "1514.6", "gnis:feature_id": "1152179", "name": "Whetstone Mountain", "natural": "peak"}}, {"name": "White Bull Mountain", "latitude": 44.5881789, "longitude": -122.297023, "elevation": 1109.0, "source": "osm", "_tags": {"ele": "1109", "gnis:feature_id": "1152221", "name": "White Bull Mountain", "natural": "peak"}}, {"name": "Wolf Camp Butte", "latitude": 45.241396, "longitude": -121.8181221, "elevation": 1452.0, "source": "osm", "_tags": {"ele": "1452", "gnis:feature_id": "1152573", "name": "Wolf Camp Butte", "natural": "peak"}}, {"name": "Wolf Peak", "latitude": 45.1654852, "longitude": -121.8734909, "elevation": 1494.739, "source": "osm", "_tags": {"ele": "1494.739", "gnis:feature_id": "1152597", "name": "Wolf Peak", "natural": "peak"}}, {"name": "Red Heifer Mountain", "latitude": 44.6040122, "longitude": -122.2998008, "elevation": 1077.0, "source": "osm", "_tags": {"ele": "1077", "gnis:feature_id": "1153817", "name": "Red Heifer Mountain", "natural": "peak"}}, {"name": "Dinah-mo Peak", "latitude": 44.743776, "longitude": -121.8287333, "elevation": 1963.0, "source": "osm", "_tags": {"ele": "1963", "gnis:feature_id": "1155377", "name": "Dinah-mo Peak", "natural": "peak"}}, {"name": "Claypool Butte", "latitude": 44.3953964, "longitude": -121.8428353, "elevation": 1461.0, "source": "osm", "_tags": {"ele": "1461", "gnis:feature_id": "1155490", "name": "Claypool Butte", "natural": "peak"}}, {"name": "Brandenburg Butte", "latitude": 44.383174, "longitude": -121.8436681, "elevation": 1486.0, "source": "osm", "_tags": {"ele": "1486", "gnis:feature_id": "1155491", "name": "Brandenburg Butte", "natural": "peak"}}, {"name": "Baty Butte", "latitude": 44.9959553, "longitude": -122.2011914, "elevation": 1542.0, "source": "osm", "_tags": {"ele": "1542", "gnis:feature_id": "1157841", "name": "Baty Butte", "natural": "peak"}}, {"name": "Thunder Mountain", "latitude": 44.9918151, "longitude": -122.1671993, "elevation": 1561.0, "source": "osm", "_tags": {"ele": "1561", "gnis:feature_id": "1157873", "name": "Thunder Mountain", "natural": "peak"}}, {"name": "Marion Mountain", "latitude": 44.5478042, "longitude": -121.8806382, "elevation": 1631.0, "source": "osm", "_tags": {"ele": "1631", "gnis:feature_id": "1158344", "name": "Marion Mountain", "natural": "peak"}}, {"name": "Marion Peak", "latitude": 44.5257515, "longitude": -121.8814641, "elevation": 1865.1, "source": "osm", "_tags": {"ele": "1865.1", "gnis:feature_id": "1158345", "name": "Marion Peak", "natural": "peak"}}, {"name": "North Dickey Peak", "latitude": 44.909011, "longitude": -122.1039673, "elevation": 1570.0, "source": "osm", "_tags": {"ele": "1570", "gnis:feature_id": "1158393", "name": "North Dickey Peak", "natural": "peak"}}, {"name": "Quitters Point", "latitude": 44.7492864, "longitude": -121.8717376, "elevation": 1589.0, "source": "osm", "_tags": {"ele": "1589", "gnis:feature_id": "1159087", "name": "Quitters Point", "natural": "peak"}}, {"name": "Hogg Rock", "latitude": 44.4213587, "longitude": -121.8729167, "elevation": 1554.0, "source": "osm", "_tags": {"ele": "1554", "gnis:feature_id": "1161388", "name": "Hogg Rock", "natural": "peak", "wikidata": "Q5877266"}}, {"name": "Bull of the Woods", "latitude": 44.8846583, "longitude": -122.0958074, "elevation": 1683.0, "source": "osm", "_tags": {"ele": "1683", "gnis:feature_id": "1162862", "name": "Bull of the Woods", "natural": "peak"}}, {"name": "Gale Hill", "latitude": 44.7387325, "longitude": -121.9900736, "elevation": 1506.0, "source": "osm", "_tags": {"ele": "1506", "gnis:feature_id": "1162999", "name": "Gale Hill", "natural": "peak"}}, {"name": "Mount Horeb", "latitude": 44.793081, "longitude": -122.3403096, "elevation": 1365.0, "source": "osm", "_tags": {"ele": "1365", "gnis:feature_id": "1163055", "name": "Mount Horeb", "natural": "peak"}}, {"name": "Sardine Mountain", "latitude": 44.7566476, "longitude": -122.2373993, "elevation": 1508.0, "source": "osm", "_tags": {"ele": "1508", "gnis:feature_id": "1163257", "name": "Sardine Mountain", "natural": "peak"}}, {"name": "Short Mountain", "latitude": 44.807344, "longitude": -122.0100755, "elevation": 1269.0, "source": "osm", "_tags": {"ele": "1269", "gnis:feature_id": "1163269", "name": "Short Mountain", "natural": "peak"}}, {"name": "Tietz Hill", "latitude": 44.8067887, "longitude": -122.6509195, "elevation": 344.0, "source": "osm", "_tags": {"ele": "344", "gnis:feature_id": "1163302", "name": "Tietz Hill", "natural": "peak"}}, {"name": "South Dickey Peak", "latitude": 44.8992887, "longitude": -122.1025782, "elevation": 1631.0, "source": "osm", "_tags": {"ele": "1631", "gnis:feature_id": "1166772", "name": "South Dickey Peak", "natural": "peak"}}, {"name": "Old Baldy", "latitude": 45.2731088, "longitude": -122.0825812, "elevation": 1274.0, "source": "osm", "_tags": {"ele": "1274", "gnis:feature_id": "1167858", "name": "Old Baldy", "natural": "peak"}}, {"name": "Githens Mountain", "latitude": 45.2526196, "longitude": -122.0636918, "elevation": 1363.0, "source": "osm", "_tags": {"ele": "1363", "gnis:feature_id": "1167871", "name": "Githens Mountain", "natural": "peak"}}, {"name": "Red Box", "latitude": 44.9970632, "longitude": -121.7886873, "elevation": 1221.0, "source": "osm", "_tags": {"ele": "1221", "gnis:feature_id": "1638124", "name": "Red Box", "natural": "peak"}}, {"name": "Deadhorse Mountain", "latitude": 44.7917885, "longitude": -122.1167431, "elevation": 1480.0, "source": "osm", "_tags": {"ele": "1480", "gnis:feature_id": "1639192", "name": "Deadhorse Mountain", "natural": "peak"}}, {"name": "Mother Lode Mountain", "latitude": 44.8670664, "longitude": -122.1161889, "elevation": 1574.0, "source": "osm", "_tags": {"ele": "1574", "gnis:feature_id": "1851720", "name": "Mother Lode Mountain", "natural": "peak"}}, {"name": "Cougar Rock", "latitude": 44.4839453, "longitude": -122.3114824, "elevation": 1392.0, "source": "osm", "_tags": {"ele": "1392", "name": "Cougar Rock", "natural": "peak"}}, {"name": "Grizzly Peak", "latitude": 44.643744, "longitude": -121.8533218, "elevation": 1767.5, "source": "osm", "_tags": {"ele": "1767.5", "gnis:feature_id": "1143110", "name": "Grizzly Peak", "natural": "peak"}}, {"name": "Porcupine Rock", "latitude": 44.4910569, "longitude": -121.8468173, "elevation": 2012.9, "source": "osm", "_tags": {"ele": "2012.9", "name": "Porcupine Rock", "natural": "peak"}}, {"name": "Dome Rock", "latitude": 44.7528135, "longitude": -122.2085843, "elevation": 1430.0, "source": "osm", "_tags": {"ele": "1430", "gnis:feature_id": "1141166", "name": "Dome Rock", "natural": "peak"}}, {"name": "", "latitude": 44.5251226, "longitude": -121.904399, "elevation": 1724.0, "source": "osm", "_tags": {"ele": "1724", "natural": "peak"}}, {"name": "Tumble Rock", "latitude": 44.7426031, "longitude": -122.2271409, "elevation": 1430.0, "source": "osm", "_tags": {"ele": "1430", "name": "Tumble Rock", "natural": "peak"}}, {"name": "Elephant Rock", "latitude": 44.7444298, "longitude": -122.2233464, "elevation": 1378.0, "source": "osm", "_tags": {"ele": "1378", "name": "Elephant Rock", "natural": "peak"}}, {"name": "Needle Rock", "latitude": 44.7498943, "longitude": -122.2044815, "elevation": 1362.0, "source": "osm", "_tags": {"ele": "1362", "name": "Needle Rock", "natural": "peak"}}, {"name": "French Creek Ridge", "latitude": 44.7950949, "longitude": -122.1822275, "elevation": null, "source": "osm", "_tags": {"name": "French Creek Ridge", "natural": "peak", "source": "USGS"}}, {"name": "", "latitude": 44.3482046, "longitude": -121.8893435, "elevation": 1425.0, "source": "osm", "_tags": {"ele": "1425", "natural": "peak"}}, {"name": "", "latitude": 44.3569504, "longitude": -121.9152281, "elevation": 1455.0, "source": "osm", "_tags": {"ele": "1455", "natural": "peak"}}, {"name": "", "latitude": 44.3603659, "longitude": -121.8965818, "elevation": 1574.0, "source": "osm", "_tags": {"ele": "1574", "natural": "peak"}}, {"name": "", "latitude": 44.3612816, "longitude": -121.9122271, "elevation": 1532.0, "source": "osm", "_tags": {"ele": "1532", "natural": "peak"}}, {"name": "Patjens Butte", "latitude": 44.3649545, "longitude": -121.8900597, "elevation": 1584.046, "source": "osm", "_tags": {"ele": "1584.046", "name": "Patjens Butte", "natural": "peak"}}, {"name": "Marten Buttes", "latitude": 44.7862851, "longitude": -122.191358, "elevation": 1539.0, "source": "osm", "_tags": {"ele": "1539", "gnis:feature_id": "1163127", "name": "Marten Buttes", "natural": "peak"}}, {"name": "Marten Buttes", "latitude": 44.791064, "longitude": -122.1892279, "elevation": 1527.0, "source": "osm", "_tags": {"ele": "1527", "name": "Marten Buttes", "natural": "peak"}}, {"name": "Boulder Peak", "latitude": 44.7958215, "longitude": -122.1713725, "elevation": 1550.0, "source": "osm", "_tags": {"ele": "1550", "gnis:feature_id": "1138486", "name": "Boulder Peak", "natural": "peak"}}, {"name": "", "latitude": 44.8927948, "longitude": -122.2384328, "elevation": 1468.5, "source": "osm", "_tags": {"ele": "1468.5", "natural": "peak"}}, {"name": "", "latitude": 44.8999123, "longitude": -122.230606, "elevation": 1350.0, "source": "osm", "_tags": {"ele": "1350", "natural": "peak"}}, {"name": "Wolf Rock", "latitude": 44.3033172, "longitude": -122.1547536, "elevation": null, "source": "osm", "_tags": {"name": "Wolf Rock", "natural": "peak"}}, {"name": "Eight Lakes View", "latitude": 44.5282306, "longitude": -121.8690389, "elevation": null, "source": "osm", "_tags": {"name": "Eight Lakes View", "natural": "peak"}}, {"name": "", "latitude": 44.5283766, "longitude": -121.9164833, "elevation": 1773.0, "source": "osm", "_tags": {"ele": "1773", "natural": "peak"}}, {"name": "1759", "latitude": 44.5262849, "longitude": -121.9165491, "elevation": null, "source": "osm", "_tags": {"name": "1759", "natural": "peak"}}, {"name": "", "latitude": 44.5078744, "longitude": -121.8920243, "elevation": 1774.5, "source": "osm", "_tags": {"ele": "1774.5", "natural": "peak"}}, {"name": "Rooster Rock", "latitude": 44.9542133, "longitude": -122.326976, "elevation": 1409.0, "source": "osm", "_tags": {"ele": "1409", "name": "Rooster Rock", "natural": "peak"}}, {"name": "Not Nasty Rock", "latitude": 44.8839312, "longitude": -122.2784385, "elevation": 1407.6, "source": "osm", "_tags": {"alt_name": "Chemeketans Nasty Rock", "ele": "1407.6", "name": "Not Nasty Rock", "natural": "peak"}}, {"name": "Nasty Rock", "latitude": 44.8984747, "longitude": -122.2700689, "elevation": 1421.0, "source": "osm", "_tags": {"ele": "1421", "name": "Nasty Rock", "natural": "peak"}}, {"name": "Mount Beachie", "latitude": 44.81087, "longitude": -122.1546351, "elevation": null, "source": "osm", "_tags": {"name": "Mount Beachie", "natural": "peak"}}, {"name": "Dog Tooth Rock", "latitude": 44.7830342, "longitude": -122.2202688, "elevation": 1369.0, "source": "osm", "_tags": {"ele": "1369", "name": "Dog Tooth Rock", "natural": "peak"}}, {"name": "Ghost Ridge", "latitude": 45.262324, "longitude": -121.6966952, "elevation": 1501.0, "source": "osm", "_tags": {"alt_name": "Tri-County Ridge", "ele": "1501", "name": "Ghost Ridge", "natural": "peak"}}, {"name": "Piety Knob", "latitude": 44.7201387, "longitude": -122.1716443, "elevation": 619.0, "source": "osm", "_tags": {"ele": "619", "name": "Piety Knob", "natural": "peak"}}, {"name": "", "latitude": 44.7068922, "longitude": -121.8489997, "elevation": 1700.0, "source": "osm", "_tags": {"ele": "1700", "natural": "peak"}}, {"name": "Sentinel Hills", "latitude": 44.710009, "longitude": -121.8417693, "elevation": 1801.0, "source": "osm", "_tags": {"ele": "1801", "name": "Sentinel Hills", "natural": "peak"}}, {"name": "Hawk Mountain", "latitude": 44.8568423, "longitude": -121.9446802, "elevation": 1600.0, "source": "osm", "_tags": {"ele": "1600", "gnis:feature_id": "1143376", "name": "Hawk Mountain", "natural": "peak"}}, {"name": "", "latitude": 44.8797071, "longitude": -122.2883409, "elevation": 1365.0, "source": "osm", "_tags": {"ele": "1365", "natural": "peak"}}, {"name": "Whitman Rock", "latitude": 44.7363388, "longitude": -122.2318, "elevation": 1380.0, "source": "osm", "_tags": {"ele": "1380", "name": "Whitman Rock", "natural": "peak"}}, {"name": "", "latitude": 44.757781, "longitude": -122.2387952, "elevation": null, "source": "osm", "_tags": {"natural": "peak"}}, {"name": "Independence Rock", "latitude": 44.6125993, "longitude": -121.9392219, "elevation": null, "source": "osm", "_tags": {"name": "Independence Rock", "natural": "peak"}}, {"name": "", "latitude": 44.6252994, "longitude": -121.8080716, "elevation": 1944.0, "source": "osm", "_tags": {"ele": "1944", "natural": "peak"}}, {"name": "South Cinder Peak", "latitude": 44.5692503, "longitude": -121.8079018, "elevation": 2056.0, "source": "osm", "_tags": {"ele": "2056", "gnis:feature_id": "1149912", "name": "South Cinder Peak", "natural": "peak"}}, {"name": "", "latitude": 44.6358338, "longitude": -122.0445872, "elevation": 1681.6, "source": "osm", "_tags": {"ele": "1681.6", "natural": "peak"}}, {"name": "", "latitude": 44.6211279, "longitude": -122.0224911, "elevation": 1677.0, "source": "osm", "_tags": {"ele": "1677", "natural": "peak"}}, {"name": "Scar Mountain", "latitude": 44.5662813, "longitude": -122.0975317, "elevation": 1524.0, "source": "osm", "_tags": {"ele": "1524", "name": "Scar Mountain", "natural": "peak"}}, {"name": "Middle Pyramid", "latitude": 44.5051467, "longitude": -122.0759583, "elevation": 1721.0, "source": "osm", "_tags": {"ele": "1721", "gnis:feature_id": "1151171", "name": "Middle Pyramid", "natural": "peak"}}, {"name": "", "latitude": 44.5155118, "longitude": -122.062633, "elevation": 1557.2, "source": "osm", "_tags": {"ele": "1557.2", "natural": "peak"}}, {"name": "North Pyramid", "latitude": 44.5141041, "longitude": -122.0716882, "elevation": 1672.1, "source": "osm", "_tags": {"ele": "1672.1", "name": "North Pyramid", "natural": "peak"}}, {"name": "", "latitude": 44.7442186, "longitude": -121.8429494, "elevation": 1832.0, "source": "osm", "_tags": {"ele": "1832", "natural": "peak"}}, {"name": "", "latitude": 44.7366436, "longitude": -121.8300104, "elevation": 1899.0, "source": "osm", "_tags": {"ele": "1899", "natural": "peak"}}, {"name": "", "latitude": 44.7342505, "longitude": -121.8096686, "elevation": 2075.0, "source": "osm", "_tags": {"ele": "2075", "natural": "peak"}}, {"name": "", "latitude": 44.7210943, "longitude": -121.782074, "elevation": 2042.0, "source": "osm", "_tags": {"ele": "2042", "natural": "peak"}}, {"name": "", "latitude": 44.8867198, "longitude": -122.2318429, "elevation": 1385.0, "source": "osm", "_tags": {"ele": "1385", "natural": "peak"}}, {"name": "", "latitude": 44.8930401, "longitude": -122.276845, "elevation": 1408.8, "source": "osm", "_tags": {"ele": "1408.8", "natural": "peak"}}, {"name": "", "latitude": 44.811664, "longitude": -122.182045, "elevation": 1378.9, "source": "osm", "_tags": {"ele": "1378.9", "natural": "peak"}}, {"name": "", "latitude": 44.7487296, "longitude": -122.1992755, "elevation": 1355.0, "source": "osm", "_tags": {"ele": "1355", "natural": "peak"}}, {"name": "", "latitude": 44.7453769, "longitude": -122.2395087, "elevation": 1429.0, "source": "osm", "_tags": {"ele": "1429", "natural": "peak"}}, {"name": "", "latitude": 44.7790173, "longitude": -122.2390366, "elevation": 1427.7, "source": "osm", "_tags": {"ele": "1427.7", "natural": "peak"}}, {"name": "", "latitude": 44.953469, "longitude": -122.3205837, "elevation": 1421.3, "source": "osm", "_tags": {"ele": "1421.3", "natural": "peak"}}, {"name": "Chicken Rock", "latitude": 44.9555427, "longitude": -122.328727, "elevation": 1391.4, "source": "osm", "_tags": {"ele": "1391.4", "name": "Chicken Rock", "natural": "peak"}}, {"name": "", "latitude": 44.3854187, "longitude": -122.0914292, "elevation": 1640.7, "source": "osm", "_tags": {"ele": "1640.7", "natural": "peak"}}, {"name": "Browder Ridge", "latitude": 44.3746983, "longitude": -122.0893371, "elevation": 1755.0, "source": "osm", "_tags": {"ele": "1755", "name": "Browder Ridge", "natural": "peak"}}, {"name": "", "latitude": 44.3812629, "longitude": -122.1184659, "elevation": 1600.2, "source": "osm", "_tags": {"ele": "1600.2", "natural": "peak"}}, {"name": "", "latitude": 44.3870442, "longitude": -122.1291948, "elevation": 1626.1, "source": "osm", "_tags": {"ele": "1626.1", "natural": "peak"}}, {"name": "", "latitude": 44.3881636, "longitude": -122.1378422, "elevation": 1656.9, "source": "osm", "_tags": {"ele": "1656.9", "natural": "peak"}}, {"name": "", "latitude": 44.6343909, "longitude": -122.0108342, "elevation": 1684.3, "source": "osm", "_tags": {"ele": "1684.3", "natural": "peak"}}, {"name": "", "latitude": 44.5781877, "longitude": -121.7862368, "elevation": 1749.0, "source": "osm", "_tags": {"ele": "1749", "natural": "peak"}}, {"name": "", "latitude": 44.6113754, "longitude": -121.7379785, "elevation": 1730.0, "source": "osm", "_tags": {"ele": "1730", "natural": "peak"}}, {"name": "", "latitude": 44.6283057, "longitude": -121.7860758, "elevation": 1896.0, "source": "osm", "_tags": {"ele": "1896", "natural": "peak"}}, {"name": "", "latitude": 44.5913759, "longitude": -121.805711, "elevation": 1818.0, "source": "osm", "_tags": {"ele": "1818", "natural": "peak"}}, {"name": "", "latitude": 44.5889314, "longitude": -121.7885864, "elevation": 1805.0, "source": "osm", "_tags": {"ele": "1805", "natural": "peak"}}, {"name": "Hell Cat Rock", "latitude": 44.8841543, "longitude": -122.4054408, "elevation": 1319.0, "source": "osm", "_tags": {"ele": "1319", "name": "Hell Cat Rock", "natural": "peak"}}, {"name": "", "latitude": 44.9427036, "longitude": -122.1850276, "elevation": 1056.4, "source": "osm", "_tags": {"ele": "1056.4", "natural": "peak"}}, {"name": "", "latitude": 44.8706292, "longitude": -122.3114133, "elevation": 1336.2, "source": "osm", "_tags": {"ele": "1336.2", "natural": "peak"}}, {"name": "", "latitude": 44.4177872, "longitude": -122.3038763, "elevation": 1114.7, "source": "osm", "_tags": {"ele": "1114.7", "natural": "peak"}}, {"name": "Devil's Tooth", "latitude": 45.2592219, "longitude": -121.8646538, "elevation": null, "source": "osm", "_tags": {"name": "Devil's Tooth", "natural": "peak"}}, {"name": "Indian Ridge", "latitude": 45.1710175, "longitude": -121.9853962, "elevation": 1530.1, "source": "osm", "_tags": {"ele": "1530.1", "name": "Indian Ridge", "natural": "peak"}}, {"name": "", "latitude": 45.1776959, "longitude": -121.935904, "elevation": 1571.9, "source": "osm", "_tags": {"ele": "1571.9", "natural": "peak"}}, {"name": "Signal Buttes", "latitude": 45.1699662, "longitude": -121.932106, "elevation": 1579.2, "source": "osm", "_tags": {"ele": "1579.2", "name": "Signal Buttes", "natural": "peak"}}, {"name": "Salmon Mountain", "latitude": 45.2652322, "longitude": -121.9712234, "elevation": null, "source": "osm", "_tags": {"name": "Salmon Mountain", "natural": "peak"}}, {"name": "", "latitude": 44.5444354, "longitude": -121.8262684, "elevation": null, "source": "osm", "_tags": {"natural": "peak"}}, {"name": "", "latitude": 44.6059142, "longitude": -122.4550295, "elevation": 1206.7, "source": "osm", "_tags": {"ele": "1206.7", "natural": "peak"}}, {"name": "Carolyn's Butte", "latitude": 44.6149726, "longitude": -122.4555311, "elevation": 1122.6, "source": "osm", "_tags": {"ele": "1122.6", "name": "Carolyn's Butte", "natural": "peak"}}, {"name": "Carolyn's Crown", "latitude": 44.6215212, "longitude": -122.4647605, "elevation": null, "source": "osm", "_tags": {"name": "Carolyn's Crown", "natural": "peak"}}, {"name": "Ogle Mountain", "latitude": 44.8896353, "longitude": -122.3288688, "elevation": null, "source": "osm", "_tags": {"gnis:feature_id": "2813761", "name": "Ogle Mountain", "natural": "peak"}}, {"name": "The Table", "latitude": 44.6273085, "longitude": -121.8001593, "elevation": null, "source": "osm", "_tags": {"gnis:feature_id": "1151046", "name": "The Table", "natural": "peak"}}, {"name": "Gyp Point", "latitude": 44.8625559, "longitude": -121.9590676, "elevation": null, "source": "osm", "_tags": {"gnis:feature_id": "1143175", "name": "Gyp Point", "natural": "peak"}}, {"name": "Twin Buttes - West", "latitude": 44.330688, "longitude": -122.2530422, "elevation": 1619.098, "source": "osm", "_tags": {"ele": "1619.098", "name": "Twin Buttes - West", "natural": "peak"}}, {"name": "", "latitude": 44.8785871, "longitude": -122.3940329, "elevation": 1350.874, "source": "osm", "_tags": {"ele": "1350.874", "natural": "peak"}}, {"name": "Thomas Cairn", "latitude": 44.6359588, "longitude": -122.572893, "elevation": 1319.784, "source": "osm", "_tags": {"ele": "1319.784", "name": "Thomas Cairn", "natural": "peak"}}, {"name": "French Creek Ridge", "latitude": 44.8013041, "longitude": -122.1693103, "elevation": 1566.672, "source": "osm", "_tags": {"ele": "1566.672", "name": "French Creek Ridge", "natural": "peak"}}]