[{"name": "Black Horse Butte", "latitude": 45.6191553, "longitude": -101.8840298, "elevation": 801.0, "source": "osm", "_tags": {"ele": "801", "gnis:feature_id": "1253952", "name": "Black Horse Butte", "natural": "peak"}}, {"name": "Castle Butte", "latitude": 45.9391698, "longitude": -102.5257135, "elevation": 869.0, "source": "osm", "_tags": {"ele": "869", "gnis:feature_id": "1254267", "name": "Castle Butte", "natural": "peak"}}, {"name": "Kid Rich Butte", "latitude": 45.9077805, "longitude": -102.6162687, "elevation": 843.0, "source": "osm", "_tags": {"ele": "843", "gnis:feature_id": "1255931", "name": "Kid Rich Butte", "natural": "peak"}}, {"name": "Thunder Butte", "latitude": 45.3199779, "longitude": -101.880704, "elevation": 833.0, "source": "osm", "_tags": {"ele": "833", "gnis:feature_id": "1258544", "name": "Thunder Butte", "natural": "peak"}}, {"name": "Thunder Hawk Butte", "latitude": 45.9213521, "longitude": -101.9613978, "elevation": 819.0, "source": "osm", "_tags": {"ele": "819", "gnis:feature_id": "1258546", "name": "Thunder Hawk Butte", "natural": "peak"}}, {"name": "Twin Butte", "latitude": 45.521927, "longitude": -101.8659726, "elevation": 746.0, "source": "osm", "_tags": {"ele": "746", "gnis:feature_id": "1258660", "name": "Twin Butte", "natural": "peak"}}, {"name": "Wolf Butte", "latitude": 45.914725, "longitude": -102.5921022, "elevation": 835.0, "source": "osm", "_tags": {"ele": "835", "gnis:feature_id": "1260927", "name": "Wolf Butte", "natural": "peak"}}, {"name": "Rabbit Butte", "latitude": 45.3635972, "longitude": -102.5879373, "elevation": 889.0, "source": "osm", "_tags": {"ele": "889", "gnis:feature_id": "1266411", "name": "Rabbit Butte", "natural": "peak"}}, {"name": "Flat Top Butte", "latitude": 45.349428, "longitude": -102.3809936, "elevation": 842.0, "source": "osm", "_tags": {"ele": "842", "gnis:feature_id": "1266412", "name": "Flat Top Butte", "natural": "peak"}}, {"name": "Johnny Butte", "latitude": 45.3427613, "longitude": -102.3796047, "elevation": 836.0, "source": "osm", "_tags": {"ele": "836", "gnis:feature_id": "1266413", "name": "Johnny Butte", "natural": "peak"}}, {"name": "White Butte", "latitude": 45.8497217, "longitude": -102.399324, "elevation": 888.0, "source": "osm", "_tags": {"ele": "888", "gnis:feature_id": "1266438", "name": "White Butte", "natural": "peak"}}, {"name": "Lotties Butte", "latitude": 45.4524876, "longitude": -102.6462715, "elevation": 845.0, "source": "osm", "_tags": {"ele": "845", "gnis:feature_id": "1266444", "name": "Lotties Butte", "natural": "peak"}}, {"name": "Square Top Butte", "latitude": 45.5738791, "longitude": -102.5696035, "elevation": 870.0, "source": "osm", "_tags": {"ele": "870", "gnis:feature_id": "1266447", "name": "Square Top Butte", "natural": "peak"}}, {"name": "Scotch Cap Butte", "latitude": 45.5147105, "longitude": -102.6143267, "elevation": 866.0, "source": "osm", "_tags": {"ele": "866", "gnis:feature_id": "1266448", "name": "Scotch Cap Butte", "natural": "peak"}}, {"name": "Duncan Butte", "latitude": 45.3377586, "longitude": -102.160714, "elevation": 814.0, "source": "osm", "_tags": {"ele": "814", "gnis:feature_id": "1266462", "name": "Duncan Butte", "natural": "peak"}}, {"name": "Curiosity Butte", "latitude": 45.3294246, "longitude": -102.1315461, "elevation": 810.0, "source": "osm", "_tags": {"ele": "810", "gnis:feature_id": "1266463", "name": "Curiosity Butte", "natural": "peak"}}, {"name": "Wedgetent Butte", "latitude": 45.2966465, "longitude": -102.1365463, "elevation": 813.0, "source": "osm", "_tags": {"ele": "813", "gnis:feature_id": "1266464", "name": "Wedgetent Butte", "natural": "peak"}}, {"name": "Tailor Butte", "latitude": 45.4005393, "longitude": -102.3351617, "elevation": 821.0, "source": "osm", "_tags": {"ele": "821", "gnis:feature_id": "1266466", "name": "Tailor Butte", "natural": "peak"}}, {"name": "Wolf Hill", "latitude": 45.5022107, "longitude": -102.6790496, "elevation": 896.0, "source": "osm", "_tags": {"ele": "896", "gnis:feature_id": "1266483", "name": "Wolf Hill", "natural": "peak"}}, {"name": "Grandmas Butte", "latitude": 45.6219373, "longitude": -102.6537706, "elevation": 843.0, "source": "osm", "_tags": {"ele": "843", "gnis:feature_id": "1266485", "name": "Grandmas Butte", "natural": "peak"}}, {"name": "Barths Butte", "latitude": 46.0805586, "longitude": -102.3321019, "elevation": 769.0, "source": "osm", "_tags": {"ele": "769", "gnis:feature_id": "1027819", "name": "Barths Butte", "natural": "peak"}}, {"name": "Beer Bum Hill", "latitude": 46.1905612, "longitude": -101.8312532, "elevation": 799.0, "source": "osm", "_tags": {"ele": "799", "gnis:feature_id": "1027870", "name": "Beer Bum Hill", "natural": "peak"}}, {"name": "Big Butte", "latitude": 45.995005, "longitude": -102.5507136, "elevation": 837.0, "source": "osm", "_tags": {"ele": "837", "gnis:feature_id": "1027979", "name": "Big Butte", "natural": "peak"}}, {"name": "Blind Johnny Hill", "latitude": 46.1844506, "longitude": -101.7329162, "elevation": 738.0, "source": "osm", "_tags": {"ele": "738", "gnis:feature_id": "1028043", "name": "Blind Johnny Hill", "natural": "peak"}}, {"name": "Cedar Butte", "latitude": 46.1186138, "longitude": -102.1309863, "elevation": 805.0, "source": "osm", "_tags": {"ele": "805", "gnis:feature_id": "1028308", "name": "Cedar Butte", "natural": "peak"}}, {"name": "Colville Hill", "latitude": 46.0462864, "longitude": -101.7351581, "elevation": 729.0, "source": "osm", "_tags": {"ele": "729", "gnis:feature_id": "1028428", "name": "Colville Hill", "natural": "peak"}}, {"name": "Jacks Lookout", "latitude": 46.1541707, "longitude": -101.9615358, "elevation": 787.0, "source": "osm", "_tags": {"ele": "787", "gnis:feature_id": "1029643", "name": "Jacks Lookout", "natural": "peak"}}, {"name": "Long Butte", "latitude": 46.1511133, "longitude": -102.2604352, "elevation": 854.0, "source": "osm", "_tags": {"ele": "854", "gnis:feature_id": "1029980", "name": "Long Butte", "natural": "peak"}}, {"name": "Nason Hill", "latitude": 46.1186139, "longitude": -102.1026519, "elevation": 811.0, "source": "osm", "_tags": {"ele": "811", "gnis:feature_id": "1030356", "name": "Nason Hill", "natural": "peak"}}, {"name": "Pearl Butte", "latitude": 46.0933369, "longitude": -102.4207133, "elevation": 850.0, "source": "osm", "_tags": {"ele": "850", "gnis:feature_id": "1030654", "name": "Pearl Butte", "natural": "peak"}}, {"name": "Plum Butte", "latitude": 46.1866689, "longitude": -102.2204343, "elevation": 821.0, "source": "osm", "_tags": {"ele": "821", "gnis:feature_id": "1030765", "name": "Plum Butte", "natural": "peak"}}, {"name": "Pretty Rock Butte", "latitude": 46.1411167, "longitude": -101.8087513, "elevation": 838.0, "source": "osm", "_tags": {"ele": "838", "gnis:feature_id": "1030806", "name": "Pretty Rock Butte", "natural": "peak"}}, {"name": "Robbers Butte", "latitude": 46.0344469, "longitude": -102.1970993, "elevation": 779.0, "source": "osm", "_tags": {"ele": "779", "gnis:feature_id": "1030934", "name": "Robbers Butte", "natural": "peak"}}, {"name": "Round Top", "latitude": 46.018892, "longitude": -101.9454224, "elevation": 784.0, "source": "osm", "_tags": {"ele": "784", "gnis:feature_id": "1031022", "name": "Round Top", "natural": "peak"}}, {"name": "Round Top", "latitude": 46.1752831, "longitude": -101.850976, "elevation": 767.0, "source": "osm", "_tags": {"ele": "767", "gnis:feature_id": "1031023", "name": "Round Top", "natural": "peak"}}, {"name": "Russell Butte", "latitude": 46.1902838, "longitude": -101.6998602, "elevation": 743.0, "source": "osm", "_tags": {"ele": "743", "gnis:feature_id": "1031047", "name": "Russell Butte", "natural": "peak"}}, {"name": "Spring Butte", "latitude": 46.108058, "longitude": -102.195433, "elevation": 824.0, "source": "osm", "_tags": {"ele": "824", "gnis:feature_id": "1032225", "name": "Spring Butte", "natural": "peak"}}, {"name": "Taylor Butte", "latitude": 46.1563935, "longitude": -102.5712686, "elevation": 842.0, "source": "osm", "_tags": {"ele": "842", "gnis:feature_id": "1032445", "name": "Taylor Butte", "natural": "peak"}}, {"name": "Twin Buttes", "latitude": 46.0425033, "longitude": -102.3504352, "elevation": 791.0, "source": "osm", "_tags": {"ele": "791", "gnis:feature_id": "1032563", "name": "Twin Buttes", "natural": "peak"}}]