[{"name": "Baldy Butte", "latitude": 46.4844544, "longitude": -102.9907221, "elevation": 962.0, "source": "osm", "_tags": {"ele": "962", "gnis:feature_id": "1027798", "name": "Baldy Butte", "natural": "peak"}}, {"name": "Camels Butte", "latitude": 46.9980667, "longitude": -102.821849, "elevation": 825.0, "source": "osm", "_tags": {"ele": "825", "gnis:feature_id": "1028250", "name": "Camels Butte", "natural": "peak"}}, {"name": "Dutch Henry Butte", "latitude": 46.98029, "longitude": -102.9265695, "elevation": 838.0, "source": "osm", "_tags": {"ele": "838", "gnis:feature_id": "1028753", "name": "Dutch Henry Butte", "natural": "peak"}}, {"name": "East Rainy Butte", "latitude": 46.4572319, "longitude": -102.9876662, "elevation": 1009.0, "source": "osm", "_tags": {"ele": "1009", "gnis:feature_id": "1028783", "name": "East Rainy Butte", "natural": "peak"}}, {"name": "Hungry Man Butte", "latitude": 47.2419606, "longitude": -103.0551856, "elevation": 785.0, "source": "osm", "_tags": {"ele": "785", "gnis:feature_id": "1029576", "name": "Hungry Man Butte", "natural": "peak"}}, {"name": "Prairie Hill", "latitude": 46.4655657, "longitude": -103.1065597, "elevation": 908.0, "source": "osm", "_tags": {"ele": "908", "gnis:feature_id": "1030798", "name": "Prairie Hill", "natural": "peak"}}, {"name": "Rocky Hill", "latitude": 47.22196, "longitude": -103.1154624, "elevation": 817.0, "source": "osm", "_tags": {"ele": "817", "gnis:feature_id": "1030948", "name": "Rocky Hill", "natural": "peak"}}, {"name": "Seventeen Butte", "latitude": 46.9425103, "longitude": -102.8187921, "elevation": 791.0, "source": "osm", "_tags": {"ele": "791", "gnis:feature_id": "1032026", "name": "Seventeen Butte", "natural": "peak"}}, {"name": "Simon Butte", "latitude": 46.9672315, "longitude": -102.711016, "elevation": 821.0, "source": "osm", "_tags": {"ele": "821", "gnis:feature_id": "1032098", "name": "Simon Butte", "natural": "peak"}}, {"name": "Warnke Hill", "latitude": 46.3330644, "longitude": -103.1118371, "elevation": 891.0, "source": "osm", "_tags": {"ele": "891", "gnis:feature_id": "1032685", "name": "Warnke Hill", "natural": "peak"}}, {"name": "White Butte", "latitude": 46.8155663, "longitude": -102.9560107, "elevation": 831.0, "source": "osm", "_tags": {"ele": "831", "gnis:feature_id": "1032774", "name": "White Butte", "natural": "peak"}}, {"name": "Flagstaff Butte", "latitude": 46.6638997, "longitude": -103.0393403, "elevation": 848.0, "source": "osm", "_tags": {"ele": "848", "gnis:feature_id": "1034037", "name": "Flagstaff Butte", "natural": "peak"}}, {"name": "Bullion Butte", "latitude": 46.680568, "longitude": -103.6018581, "elevation": 1006.0, "source": "osm", "_tags": {"ele": "1006", "gnis:feature_id": "1034039", "name": "Bullion Butte", "natural": "peak"}}, {"name": "Windy Butte", "latitude": 46.6986232, "longitude": -103.3401813, "elevation": 872.0, "source": "osm", "_tags": {"ele": "872", "gnis:feature_id": "1034048", "name": "Windy Butte", "natural": "peak"}}, {"name": "Bare Butte", "latitude": 46.6694563, "longitude": -103.3560152, "elevation": 850.0, "source": "osm", "_tags": {"ele": "850", "gnis:feature_id": "1034049", "name": "Bare Butte", "natural": "peak"}}, {"name": "Rainy Butte", "latitude": 46.47501, "longitude": -103.0007221, "elevation": 888.0, "source": "osm", "_tags": {"ele": "888", "gnis:feature_id": "1034667", "name": "Rainy Butte", "natural": "peak"}}, {"name": "Anderson Butte", "latitude": 47.281682, "longitude": -103.509913, "elevation": 801.0, "source": "osm", "_tags": {"ele": "801", "gnis:feature_id": "1034683", "name": "Anderson Butte", "natural": "peak"}}, {"name": "Black Butte", "latitude": 46.398065, "longitude": -103.4482416, "elevation": 1056.0, "source": "osm", "_tags": {"ele": "1056", "gnis:feature_id": "1034725", "name": "Black Butte", "natural": "peak"}}, {"name": "Black Top Butte", "latitude": 47.2364041, "longitude": -103.5704694, "elevation": 744.0, "source": "osm", "_tags": {"ele": "744", "gnis:feature_id": "1034727", "name": "Black Top Butte", "natural": "peak"}}, {"name": "Boulder Point", "latitude": 46.4125096, "longitude": -103.4493527, "elevation": 974.0, "source": "osm", "_tags": {"ele": "974", "gnis:feature_id": "1034734", "name": "Boulder Point", "natural": "peak"}}, {"name": "Browns Hill", "latitude": 46.4083428, "longitude": -103.4668535, "elevation": 903.0, "source": "osm", "_tags": {"ele": "903", "gnis:feature_id": "1034738", "name": "Browns Hill", "natural": "peak"}}, {"name": "Buck Hill", "latitude": 46.9255693, "longitude": -103.388793, "elevation": 869.0, "source": "osm", "_tags": {"ele": "869", "gnis:feature_id": "1034739", "name": "Buck Hill", "natural": "peak"}}, {"name": "Bullion Butte", "latitude": 46.6875125, "longitude": -103.603247, "elevation": 1015.0, "source": "osm", "_tags": {"ele": "1015", "gnis:feature_id": "1034748", "name": "Bullion Butte", "natural": "peak"}}, {"name": "Chocolate Butte", "latitude": 46.6675119, "longitude": -103.3415701, "elevation": 837.0, "source": "osm", "_tags": {"ele": "837", "gnis:feature_id": "1034784", "name": "Chocolate Butte", "natural": "peak"}}, {"name": "Grassy Butte", "latitude": 47.1189036, "longitude": -103.6221363, "elevation": 793.0, "source": "osm", "_tags": {"ele": "793", "gnis:feature_id": "1034898", "name": "Grassy Butte", "natural": "peak"}}, {"name": "Juniper Spur", "latitude": 46.5914005, "longitude": -103.4446298, "elevation": 795.0, "source": "osm", "_tags": {"ele": "795", "gnis:feature_id": "1034952", "name": "Juniper Spur", "natural": "peak"}}, {"name": "Little Squaretop Butte", "latitude": 47.2666819, "longitude": -103.4385224, "elevation": 829.0, "source": "osm", "_tags": {"ele": "829", "gnis:feature_id": "1034982", "name": "Little Squaretop Butte", "natural": "peak"}}, {"name": "Rattlesnake Butte", "latitude": 46.3647312, "longitude": -103.2943456, "elevation": 1010.0, "source": "osm", "_tags": {"ele": "1010", "gnis:feature_id": "1035080", "name": "Rattlesnake Butte", "natural": "peak"}}, {"name": "Rattlesnake Butte", "latitude": 47.0372361, "longitude": -103.1718453, "elevation": 843.0, "source": "osm", "_tags": {"ele": "843", "gnis:feature_id": "1035081", "name": "Rattlesnake Butte", "natural": "peak"}}, {"name": "Rocky Hill", "latitude": 46.7700119, "longitude": -103.2101779, "elevation": 849.0, "source": "osm", "_tags": {"ele": "849", "gnis:feature_id": "1035094", "name": "Rocky Hill", "natural": "peak"}}, {"name": "Saddle Butte", "latitude": 46.9827914, "longitude": -103.2293434, "elevation": 852.0, "source": "osm", "_tags": {"ele": "852", "gnis:feature_id": "1035107", "name": "Saddle Butte", "natural": "peak"}}, {"name": "Slide Butte", "latitude": 46.3902871, "longitude": -103.3840719, "elevation": 1019.0, "source": "osm", "_tags": {"ele": "1019", "gnis:feature_id": "1035154", "name": "Slide Butte", "natural": "peak"}}, {"name": "Squaretop Butte", "latitude": 47.2636263, "longitude": -103.4435224, "elevation": 827.0, "source": "osm", "_tags": {"ele": "827", "gnis:feature_id": "1035180", "name": "Squaretop Butte", "natural": "peak"}}, {"name": "Tepee Butte", "latitude": 46.3936204, "longitude": -103.3993504, "elevation": 997.0, "source": "osm", "_tags": {"ele": "997", "gnis:feature_id": "1035200", "name": "Tepee Butte", "natural": "peak"}}, {"name": "Toms Butte", "latitude": 46.6841788, "longitude": -103.389072, "elevation": 873.0, "source": "osm", "_tags": {"ele": "873", "gnis:feature_id": "1035215", "name": "Toms Butte", "natural": "peak"}}, {"name": "Tracy Mountain", "latitude": 46.777513, "longitude": -103.4260176, "elevation": 889.0, "source": "osm", "_tags": {"ele": "889", "gnis:feature_id": "1035218", "name": "Tracy Mountain", "natural": "peak"}}, {"name": "West Rainy Butte", "latitude": 46.496677, "longitude": -103.037946, "elevation": 1014.0, "source": "osm", "_tags": {"ele": "1014", "gnis:feature_id": "1035236", "name": "West Rainy Butte", "natural": "peak"}}, {"name": "White Butte", "latitude": 46.3870287, "longitude": -103.3025791, "elevation": 1053.0, "source": "osm", "_tags": {"ele": "1053", "gnis:feature_id": "1035239", "highest_point": "4", "name": "White Butte", "natural": "peak", "wikidata": "Q590820", "wikipedia": "en:White Butte (North Dakota)"}}, {"name": "Chimney Butte", "latitude": 46.818069, "longitude": -103.5935237, "elevation": 824.0, "source": "osm", "_tags": {"ele": "824", "gnis:feature_id": "1035330", "name": "Chimney Butte", "natural": "peak"}}, {"name": "Chimney Butte", "latitude": 46.8394579, "longitude": -103.6201913, "elevation": 834.0, "source": "osm", "_tags": {"ele": "834", "gnis:feature_id": "1035496", "name": "Chimney Butte", "natural": "peak"}}, {"name": "Flat Top Butte", "latitude": 46.7141788, "longitude": -103.3274031, "elevation": 899.0, "source": "osm", "_tags": {"ele": "899", "gnis:feature_id": "1035584", "name": "Flat Top Butte", "natural": "peak"}}, {"name": "Round Top Butte", "latitude": 46.4083426, "longitude": -103.552135, "elevation": 943.0, "source": "osm", "_tags": {"ele": "943", "gnis:feature_id": "1035597", "name": "Round Top Butte", "natural": "peak"}}, {"name": "Chocolate Butte", "latitude": 46.6694563, "longitude": -103.3446259, "elevation": 813.0, "source": "osm", "_tags": {"ele": "813", "gnis:feature_id": "1035631", "name": "Chocolate Butte", "natural": "peak"}}, {"name": "Easy Hill", "latitude": 46.7850125, "longitude": -103.3196249, "elevation": 854.0, "source": "osm", "_tags": {"ele": "854", "gnis:feature_id": "1035760", "name": "Easy Hill", "natural": "peak"}}, {"name": "", "latitude": 46.4715358, "longitude": -103.3596057, "elevation": null, "source": "osm", "_tags": {"natural": "peak"}}]