[{"name": "Mont De Lanaudière", "latitude": 46.309644, "longitude": -73.416447, "elevation": null, "source": "osm", "_tags": {"name": "Mont De Lanaudière", "natural": "peak", "source": "CanVec 6.0 - NRCan"}}, {"name": "Montagne d'Albert-Lambert", "latitude": 46.3427407, "longitude": -73.2943221, "elevation": null, "source": "osm", "_tags": {"name": "Montagne d'Albert-Lambert", "natural": "peak", "source": "CanVec 6.0 - NRCan"}}, {"name": "Montagne à Marcil", "latitude": 46.3272784, "longitude": -73.2976697, "elevation": null, "source": "osm", "_tags": {"name": "Montagne à Marcil", "natural": "peak", "source": "CanVec 6.0 - NRCan"}}, {"name": "Montagne à Zamette", "latitude": 46.311899, "longitude": -73.2532057, "elevation": null, "source": "osm", "_tags": {"name": "Montagne à Zamette", "natural": "peak", "source": "CanVec 6.0 - NRCan"}}, {"name": "La Palette du Diable", "latitude": 46.3771771, "longitude": -73.4530431, "elevation": null, "source": "osm", "_tags": {"name": "La Palette du Diable", "natural": "peak", "source": "CanVec 6.0 - NRCan"}}, {"name": "Montagne du Calvaire", "latitude": 46.4937571, "longitude": -72.9555875, "elevation": null, "source": "osm", "_tags": {"name": "Montagne du Calvaire", "natural": "peak", "source": "NRCan-CanVec-7.0"}}, {"name": "Montagne de Sainte-Flore", "latitude": 46.5795052, "longitude": -72.7654659, "elevation": null, "source": "osm", "_tags": {"name": "Montagne de Sainte-Flore", "natural": "peak", "source": "NRCan-CanVec-7.0"}}, {"name": "Mont Georges", "latitude": 46.544085, "longitude": -72.7741656, "elevation": 110.0, "source": "osm", "_tags": {"ele": "110", "name": "Mont Georges", "natural": "peak", "source": "NRCan-CanVec-7.0"}}, {"name": "Le Calvaire", "latitude": 46.7080671, "longitude": -72.8061124, "elevation": null, "source": "osm", "_tags": {"name": "Le Calvaire", "natural": "peak", "source": "NRCan-CanVec-7.0"}}, {"name": "Montagne du Caribou", "latitude": 46.9243723, "longitude": -72.8802571, "elevation": null, "source": "osm", "_tags": {"name": "Montagne du Caribou", "natural": "peak", "wikidata": "Q114799218"}}, {"name": "Mont l'Oiseau", "latitude": 46.9930613, "longitude": -72.907509, "elevation": null, "source": "osm", "_tags": {"name": "Mont l'Oiseau", "natural": "peak", "wikidata": "Q114798999"}}, {"name": "Montagne du Lac à Black", "latitude": 47.2657525, "longitude": -73.0467219, "elevation": null, "source": "osm", "_tags": {"name": "Montagne du Lac à Black", "natural": "peak", "wikidata": "Q114799233"}}, {"name": "Pointe à la Mine", "latitude": 46.7202554, "longitude": -72.748849, "elevation": null, "source": "osm", "_tags": {"name": "Pointe à la Mine", "natural": "peak", "wikidata": "Q22418759"}}, {"name": "Montagne Ronde", "latitude": 46.4714105, "longitude": -72.8885499, "elevation": null, "source": "osm", "_tags": {"name": "Montagne Ronde", "natural": "peak", "wikidata": "Q22363676"}}, {"name": "Mont de la Tour à Feu", "latitude": 46.8999615, "longitude": -72.8154486, "elevation": null, "source": "osm", "_tags": {"name": "Mont de la Tour à Feu", "natural": "peak", "wikidata": "Q22541836"}}, {"name": "Rocher Anne-McCormick", "latitude": 47.0897748, "longitude": -72.9120913, "elevation": 275.0, "source": "osm", "_tags": {"ele": "275", "name": "Rocher Anne-McCormick", "natural": "peak", "wikidata": "Q114753982"}}, {"name": "Montagne de la Roue et du Pin", "latitude": 47.0341278, "longitude": -73.6176623, "elevation": null, "source": "osm", "_tags": {"name": "Montagne de la Roue et du Pin", "natural": "peak", "wikidata": "Q22360623"}}]