[{"name": "Arcadian Hill", "latitude": 47.1474269, "longitude": -88.5256772, "elevation": 372.0, "source": "osm", "_tags": {"ele": "372", "gnis:feature_id": "620198", "name": "Arcadian Hill", "natural": "peak", "wikidata": "Q33136259"}}, {"name": "Bald Hill", "latitude": 46.8390897, "longitude": -87.7640182, "elevation": 257.0, "source": "osm", "_tags": {"ele": "257", "gnis:feature_id": "620498", "name": "Bald Hill", "natural": "peak", "wikidata": "Q33136409"}}, {"name": "Bald Mountain", "latitude": 46.8827026, "longitude": -88.0390147, "elevation": 361.0, "source": "osm", "_tags": {"ele": "361", "gnis:feature_id": "620503", "name": "Bald Mountain", "natural": "peak"}}, {"name": "Mount Benison", "latitude": 46.8635354, "longitude": -87.9579047, "elevation": 482.0, "source": "osm", "_tags": {"ele": "482", "gnis:feature_id": "621098", "name": "Mount Benison", "natural": "peak", "wikidata": "Q33141388"}}, {"name": "Breakfast Roll", "latitude": 46.8502011, "longitude": -87.8262396, "elevation": 354.0, "source": "osm", "_tags": {"ele": "354", "gnis:feature_id": "621912", "name": "Breakfast Roll", "natural": "peak", "wikidata": "Q33137297"}}, {"name": "Burnt Mountain", "latitude": 46.8315917, "longitude": -87.9317948, "elevation": 385.0, "source": "osm", "_tags": {"ele": "385", "gnis:feature_id": "622316", "name": "Burnt Mountain", "natural": "peak", "wikidata": "Q33137545"}}, {"name": "Green Hills", "latitude": 46.3335526, "longitude": -87.6979133, "elevation": 467.0, "source": "osm", "_tags": {"ele": "467", "gnis:feature_id": "627299", "name": "Green Hills", "natural": "peak"}}, {"name": "Mount Homer", "latitude": 46.8552018, "longitude": -87.9054055, "elevation": 437.0, "source": "osm", "_tags": {"ele": "437", "gnis:feature_id": "628514", "name": "Mount Homer", "natural": "peak"}}, {"name": "Huron Mountain", "latitude": 46.8788123, "longitude": -87.9212379, "elevation": 446.0, "source": "osm", "_tags": {"ele": "446", "gnis:feature_id": "628868", "name": "Huron Mountain", "natural": "peak", "wikidata": "Q33139933"}}, {"name": "Mount Ida", "latitude": 46.8682572, "longitude": -87.9390159, "elevation": 456.0, "source": "osm", "_tags": {"ele": "456", "gnis:feature_id": "628921", "name": "Mount Ida", "natural": "peak", "wikidata": "Q33141512"}}, {"name": "Mount Ives", "latitude": 46.8571456, "longitude": -87.8604058, "elevation": 399.0, "source": "osm", "_tags": {"ele": "399", "gnis:feature_id": "629150", "name": "Mount Ives", "natural": "peak", "wikidata": "Q33141514"}}, {"name": "Ives Hill", "latitude": 46.8265908, "longitude": -87.8320734, "elevation": 460.0, "source": "osm", "_tags": {"ele": "460", "gnis:feature_id": "629147", "name": "Ives Hill", "natural": "peak", "wikidata": "Q33140023"}}, {"name": "Mummy Mountain", "latitude": 46.8660345, "longitude": -87.8817943, "elevation": 287.0, "source": "osm", "_tags": {"ele": "287", "gnis:feature_id": "633115", "name": "Mummy Mountain", "natural": "peak"}}, {"name": "Pikes Peak", "latitude": 46.8293744, "longitude": -88.3365163, "elevation": 346.0, "source": "osm", "_tags": {"ele": "346", "gnis:feature_id": "634878", "name": "Pikes Peak", "natural": "peak", "wikidata": "Q33143557"}}, {"name": "South Range", "latitude": 47.0479839, "longitude": -88.687905, "elevation": 433.0, "source": "osm", "_tags": {"ele": "433", "gnis:feature_id": "638401", "name": "South Range", "natural": "peak"}}, {"name": "Trout Mountain", "latitude": 46.8660346, "longitude": -87.8904053, "elevation": 361.0, "source": "osm", "_tags": {"ele": "361", "gnis:feature_id": "1615119", "name": "Trout Mountain", "natural": "peak", "wikidata": "Q33152210"}}, {"name": "Mount Curwood", "latitude": 46.7032653, "longitude": -88.2392971, "elevation": 600.0, "source": "osm", "_tags": {"ele": "600", "gnis:feature_id": "1616976", "name": "Mount Curwood", "natural": "peak", "wikidata": "Q3321791", "wikipedia": "en:Mount Curwood"}}, {"name": "Mount Arvon", "latitude": 46.7554853, "longitude": -88.1559625, "elevation": 601.0, "source": "osm", "_tags": {"ele": "601", "gnis:feature_id": "1623751", "highest_point": "4", "name": "Mount Arvon", "natural": "peak", "wikidata": "Q1164979", "wikipedia": "en:Mount Arvon"}}, {"name": "Mount Kallio", "latitude": 46.5488296, "longitude": -88.6331931, "elevation": 397.0, "source": "osm", "_tags": {"ele": "397", "gnis:feature_id": "1620399", "name": "Mount Kallio", "natural": "peak", "wikidata": "Q33141527"}}, {"name": "Little Mountain", "latitude": 46.7202778, "longitude": -88.4719444, "elevation": 336.0, "source": "osm", "_tags": {"ele": "336", "gnis:feature_id": "2099893", "name": "Little Mountain", "natural": "peak", "wikidata": "Q33140617"}}, {"name": "", "latitude": 46.3771932, "longitude": -87.7563689, "elevation": 441.0, "source": "osm", "_tags": {"ele": "441", "natural": "peak"}}, {"name": "", "latitude": 46.3776999, "longitude": -87.7292903, "elevation": 431.0, "source": "osm", "_tags": {"ele": "431", "natural": "peak"}}, {"name": "Rubber Mountain", "latitude": 47.171894, "longitude": -88.6532152, "elevation": null, "source": "osm", "_tags": {"name": "Rubber Mountain", "natural": "peak"}}]