[{"name": "Camels Hump Butte", "latitude": 46.9508472, "longitude": -103.7965868, "elevation": 954.0, "source": "osm", "_tags": {"ele": "954", "gnis:feature_id": "1028251", "name": "Camels Hump Butte", "natural": "peak"}}, {"name": "Five Point Butte", "latitude": 46.761957, "longitude": -103.9004803, "elevation": 909.0, "source": "osm", "_tags": {"ele": "909", "gnis:feature_id": "1028976", "name": "Five Point Butte", "natural": "peak"}}, {"name": "Lone Butte", "latitude": 46.7522348, "longitude": -103.8849241, "elevation": 879.0, "source": "osm", "_tags": {"ele": "879", "gnis:feature_id": "1029967", "name": "Lone Butte", "natural": "peak"}}, {"name": "Rocky Butte", "latitude": 46.8100128, "longitude": -103.9188141, "elevation": 989.0, "source": "osm", "_tags": {"ele": "989", "gnis:feature_id": "1030947", "name": "Rocky Butte", "natural": "peak"}}, {"name": "Sentinel Butte", "latitude": 46.8711245, "longitude": -103.8354775, "elevation": 1045.0, "source": "osm", "_tags": {"ele": "1045", "gnis:feature_id": "1032021", "name": "Sentinel Butte", "natural": "peak"}}, {"name": "Cooks Peak", "latitude": 47.1550148, "longitude": -103.7354737, "elevation": 816.0, "source": "osm", "_tags": {"ele": "816", "gnis:feature_id": "1034798", "name": "Cooks Peak", "natural": "peak"}}, {"name": "East Twin Butte", "latitude": 47.0214032, "longitude": -103.7471403, "elevation": 884.0, "source": "osm", "_tags": {"ele": "884", "gnis:feature_id": "1034850", "name": "East Twin Butte", "natural": "peak"}}, {"name": "Square Butte", "latitude": 46.866958, "longitude": -103.6971388, "elevation": 1020.0, "source": "osm", "_tags": {"ele": "1020", "gnis:feature_id": "1035178", "name": "Square Butte", "natural": "peak"}}, {"name": "West Twin Butte", "latitude": 47.0219587, "longitude": -103.7740858, "elevation": 900.0, "source": "osm", "_tags": {"ele": "900", "gnis:feature_id": "1035237", "name": "West Twin Butte", "natural": "peak"}}, {"name": "Pretty Butte", "latitude": 46.3819518, "longitude": -103.9643736, "elevation": 949.0, "source": "osm", "_tags": {"ele": "949", "gnis:feature_id": "1035609", "name": "Pretty Butte", "natural": "peak"}}, {"name": "Blue Mountain", "latitude": 47.2594595, "longitude": -104.1682684, "elevation": 878.0, "source": "osm", "_tags": {"ele": "878", "gnis:feature_id": "769041", "name": "Blue Mountain", "natural": "peak"}}, {"name": "Blue Mountain", "latitude": 46.958067, "longitude": -104.5927319, "elevation": 904.0, "source": "osm", "_tags": {"ele": "904", "gnis:feature_id": "780159", "name": "Blue Mountain", "natural": "peak"}}, {"name": "Cluster Buttes", "latitude": 47.1608473, "longitude": -104.3554988, "elevation": 779.0, "source": "osm", "_tags": {"ele": "779", "gnis:feature_id": "799177", "name": "Cluster Buttes", "natural": "peak"}}, {"name": "Four Buttes", "latitude": 47.1022364, "longitude": -104.1999362, "elevation": 864.0, "source": "osm", "_tags": {"ele": "864", "gnis:feature_id": "799179", "name": "Four Buttes", "natural": "peak"}}, {"name": "Baird Butte", "latitude": 46.8983463, "longitude": -104.1874354, "elevation": 899.0, "source": "osm", "_tags": {"ele": "899", "gnis:feature_id": "799180", "name": "Baird Butte", "natural": "peak"}}, {"name": "Red Top Butte", "latitude": 46.8525127, "longitude": -104.1607677, "elevation": 933.0, "source": "osm", "_tags": {"ele": "933", "gnis:feature_id": "799185", "name": "Red Top Butte", "natural": "peak"}}, {"name": "Jackrabbit Butte", "latitude": 46.8597349, "longitude": -104.1560454, "elevation": 898.0, "source": "osm", "_tags": {"ele": "898", "gnis:feature_id": "799186", "name": "Jackrabbit Butte", "natural": "peak"}}, {"name": "Horse Point", "latitude": 46.8372347, "longitude": -104.2093807, "elevation": 862.0, "source": "osm", "_tags": {"ele": "862", "gnis:feature_id": "799187", "name": "Horse Point", "natural": "peak"}}, {"name": "Rattlesnake Butte", "latitude": 46.8733439, "longitude": -104.5966206, "elevation": 817.0, "source": "osm", "_tags": {"ele": "817", "gnis:feature_id": "799203", "name": "Rattlesnake Butte", "natural": "peak"}}, {"name": "Mount McKinley", "latitude": 46.820566, "longitude": -104.5327285, "elevation": 817.0, "source": "osm", "_tags": {"ele": "817", "gnis:feature_id": "799207", "name": "Mount McKinley", "natural": "peak"}}, {"name": "Pine Hill", "latitude": 46.7766765, "longitude": -104.5882865, "elevation": 868.0, "source": "osm", "_tags": {"ele": "868", "gnis:feature_id": "799208", "name": "Pine Hill", "natural": "peak"}}, {"name": "Graveyard Hill", "latitude": 46.7716767, "longitude": -104.5252279, "elevation": 822.0, "source": "osm", "_tags": {"ele": "822", "gnis:feature_id": "799209", "name": "Graveyard Hill", "natural": "peak"}}, {"name": "Rocking Chair Butte", "latitude": 46.6791761, "longitude": -104.437446, "elevation": 875.0, "source": "osm", "_tags": {"ele": "875", "gnis:feature_id": "799218", "name": "Rocking Chair Butte", "natural": "peak"}}, {"name": "Antelope Butte", "latitude": 46.4402846, "longitude": -104.2927184, "elevation": 984.0, "source": "osm", "_tags": {"ele": "984", "gnis:feature_id": "799231", "name": "Antelope Butte", "natural": "peak"}}, {"name": "Shell Butte", "latitude": 46.6180655, "longitude": -104.2404933, "elevation": 1036.0, "source": "osm", "_tags": {"ele": "1036", "gnis:feature_id": "799233", "name": "Shell Butte", "natural": "peak"}}, {"name": "Grassy Butte", "latitude": 46.4733414, "longitude": -104.1435461, "elevation": 1029.0, "source": "osm", "_tags": {"ele": "1029", "gnis:feature_id": "799237", "name": "Grassy Butte", "natural": "peak"}}, {"name": "Cedar Butte", "latitude": 46.4552855, "longitude": -104.149102, "elevation": 1005.0, "source": "osm", "_tags": {"ele": "1005", "gnis:feature_id": "799238", "name": "Cedar Butte", "natural": "peak"}}, {"name": "Haystack Butte", "latitude": 46.4544525, "longitude": -104.066599, "elevation": 950.0, "source": "osm", "_tags": {"ele": "950", "gnis:feature_id": "799239", "name": "Haystack Butte", "natural": "peak"}}, {"name": "Morris Butte", "latitude": 46.4144514, "longitude": -104.1649361, "elevation": 993.0, "source": "osm", "_tags": {"ele": "993", "gnis:feature_id": "799240", "name": "Morris Butte", "natural": "peak"}}, {"name": "Cap Rock", "latitude": 46.6322318, "longitude": -104.3227189, "elevation": 974.0, "source": "osm", "_tags": {"ele": "974", "gnis:feature_id": "802071", "name": "Cap Rock", "natural": "peak"}}, {"name": "Bryants Buttes", "latitude": 47.139457, "longitude": -104.635234, "elevation": 742.0, "source": "osm", "_tags": {"ele": "742", "gnis:feature_id": "1715607", "name": "Bryants Buttes", "natural": "peak"}}, {"name": "Podolski Butte", "latitude": 46.7822344, "longitude": -104.1568786, "elevation": 935.0, "source": "osm", "_tags": {"ele": "935", "gnis:feature_id": "1813141", "name": "Podolski Butte", "natural": "peak"}}, {"name": "Tank Hill", "latitude": 46.357806, "longitude": -104.2827328, "elevation": null, "source": "osm", "_tags": {"name": "Tank Hill", "natural": "peak"}}]