[{"name": "Peterson Mountain", "latitude": 47.1263536, "longitude": -110.5827152, "elevation": 2307.0, "source": "osm", "_tags": {"ele": "2307", "gnis:feature_id": "767980", "name": "Peterson Mountain", "natural": "peak"}}, {"name": "Antelope Butte", "latitude": 47.1699676, "longitude": -110.2732633, "elevation": 1439.0, "source": "osm", "_tags": {"ele": "1439", "gnis:feature_id": "768273", "name": "Antelope Butte", "natural": "peak"}}, {"name": "Fort Gay Hill", "latitude": 46.3046625, "longitude": -110.6404787, "elevation": 1904.0, "source": "osm", "_tags": {"ele": "1904", "gnis:feature_id": "771511", "name": "Fort Gay Hill", "natural": "peak"}}, {"name": "Gordon Butte", "latitude": 46.4182808, "longitude": -110.3549131, "elevation": 1744.0, "source": "osm", "_tags": {"ele": "1744", "gnis:feature_id": "771870", "name": "Gordon Butte", "natural": "peak"}}, {"name": "Indian Buttes", "latitude": 47.1413592, "longitude": -109.8688047, "elevation": 1288.0, "source": "osm", "_tags": {"ele": "1288", "gnis:feature_id": "772680", "name": "Indian Buttes", "natural": "peak"}}, {"name": "Quail Hill", "latitude": 46.3093843, "longitude": -110.6643684, "elevation": 1903.0, "source": "osm", "_tags": {"ele": "1903", "gnis:feature_id": "775503", "name": "Quail Hill", "natural": "peak"}}, {"name": "Red Hill", "latitude": 46.8796806, "longitude": -110.2090887, "elevation": 1821.0, "source": "osm", "_tags": {"ele": "1821", "gnis:feature_id": "775642", "name": "Red Hill", "natural": "peak"}}, {"name": "Reservation Mountain", "latitude": 46.3274402, "longitude": -110.6724242, "elevation": 1944.0, "source": "osm", "_tags": {"ele": "1944", "gnis:feature_id": "775711", "name": "Reservation Mountain", "natural": "peak"}}, {"name": "Peterson Mountain", "latitude": 47.1241314, "longitude": -110.5821597, "elevation": 2349.0, "source": "osm", "_tags": {"ele": "2349", "gnis:feature_id": "778825", "name": "Peterson Mountain", "natural": "peak"}}, {"name": "Anderson Peak", "latitude": 47.0657975, "longitude": -110.6041043, "elevation": 2348.0, "source": "osm", "_tags": {"ele": "2348", "gnis:feature_id": "779038", "name": "Anderson Peak", "natural": "peak"}}, {"name": "Bandbox Mountain", "latitude": 46.9652419, "longitude": -110.4829897, "elevation": 2468.0, "source": "osm", "_tags": {"ele": "2468", "gnis:feature_id": "779319", "name": "Bandbox Mountain", "natural": "peak"}}, {"name": "Barker Mountain", "latitude": 47.089408, "longitude": -110.6729944, "elevation": 2532.0, "source": "osm", "_tags": {"ele": "2532", "gnis:feature_id": "779362", "name": "Barker Mountain", "natural": "peak"}}, {"name": "Bartleson Peak", "latitude": 46.6727292, "longitude": -110.1540802, "elevation": 2288.0, "source": "osm", "_tags": {"ele": "2288", "gnis:feature_id": "779387", "name": "Bartleson Peak", "natural": "peak"}}, {"name": "Big Baldy Mountain", "latitude": 46.9685745, "longitude": -110.6063253, "elevation": 2799.0, "source": "osm", "_tags": {"ele": "2799", "gnis:feature_id": "779755", "name": "Big Baldy Mountain", "natural": "peak", "wikidata": "Q4904991"}}, {"name": "Big Deer Point", "latitude": 46.8780172, "longitude": -110.6163224, "elevation": 2483.0, "source": "osm", "_tags": {"ele": "2483", "gnis:feature_id": "779798", "name": "Big Deer Point", "natural": "peak"}}, {"name": "Blacktail Hills", "latitude": 47.0521878, "longitude": -110.4149338, "elevation": 1747.0, "source": "osm", "_tags": {"ele": "1747", "gnis:feature_id": "780069", "name": "Blacktail Hills", "natural": "peak"}}, {"name": "Bluff Mountain", "latitude": 46.6816168, "longitude": -110.2543591, "elevation": 2511.0, "source": "osm", "_tags": {"ele": "2511", "gnis:feature_id": "780173", "name": "Bluff Mountain", "natural": "peak"}}, {"name": "Burley Peak", "latitude": 46.7452298, "longitude": -110.310196, "elevation": 1896.0, "source": "osm", "_tags": {"ele": "1896", "gnis:feature_id": "780619", "name": "Burley Peak", "natural": "peak"}}, {"name": "Butcherknife Mountain", "latitude": 47.0182978, "longitude": -110.5652147, "elevation": 2417.0, "source": "osm", "_tags": {"ele": "2417", "gnis:feature_id": "780681", "name": "Butcherknife Mountain", "natural": "peak"}}, {"name": "Cabin Mountain", "latitude": 46.9069066, "longitude": -110.5871561, "elevation": 2496.0, "source": "osm", "_tags": {"ele": "2496", "gnis:feature_id": "780743", "name": "Cabin Mountain", "natural": "peak"}}, {"name": "Coffin Butte", "latitude": 46.3449494, "longitude": -110.2235206, "elevation": 1903.0, "source": "osm", "_tags": {"ele": "1903", "gnis:feature_id": "781474", "name": "Coffin Butte", "natural": "peak"}}, {"name": "Comb Butte", "latitude": 46.3760555, "longitude": -110.5204738, "elevation": 1808.0, "source": "osm", "_tags": {"ele": "1808", "gnis:feature_id": "781533", "name": "Comb Butte", "natural": "peak"}}, {"name": "Coyote Peak", "latitude": 46.8755171, "longitude": -110.5890994, "elevation": 2428.0, "source": "osm", "_tags": {"ele": "2428", "gnis:feature_id": "781830", "name": "Coyote Peak", "natural": "peak"}}, {"name": "Daisy Peak", "latitude": 46.6735624, "longitude": -110.328806, "elevation": 2365.0, "source": "osm", "_tags": {"ele": "2365", "gnis:feature_id": "782057", "name": "Daisy Peak", "natural": "peak"}}, {"name": "Elephant Rock", "latitude": 46.6691185, "longitude": -110.1265799, "elevation": 2028.0, "source": "osm", "_tags": {"ele": "2028", "gnis:feature_id": "783043", "name": "Elephant Rock", "natural": "peak"}}, {"name": "Gibson Peak", "latitude": 46.996354, "longitude": -110.4677129, "elevation": 2455.0, "source": "osm", "_tags": {"ele": "2455", "gnis:feature_id": "783924", "name": "Gibson Peak", "natural": "peak"}}, {"name": "Granite Mountain", "latitude": 47.0871876, "longitude": -110.4971582, "elevation": 2327.0, "source": "osm", "_tags": {"ele": "2327", "gnis:feature_id": "784175", "name": "Granite Mountain", "natural": "peak"}}, {"name": "Grendah Mountain", "latitude": 46.850239, "longitude": -110.6185438, "elevation": 2492.0, "source": "osm", "_tags": {"ele": "2492", "gnis:feature_id": "784328", "name": "Grendah Mountain", "natural": "peak"}}, {"name": "Mount High", "latitude": 46.7102285, "longitude": -110.2746383, "elevation": 2510.0, "source": "osm", "_tags": {"ele": "2510", "gnis:feature_id": "784866", "name": "Mount High", "natural": "peak"}}, {"name": "Hoover Mountain", "latitude": 46.7116226, "longitude": -110.511869, "elevation": 2281.0, "source": "osm", "_tags": {"ele": "2281", "gnis:feature_id": "784996", "name": "Hoover Mountain", "natural": "peak"}}, {"name": "Mount Howe", "latitude": 46.5143926, "longitude": -110.4446383, "elevation": 1892.0, "source": "osm", "_tags": {"ele": "1892", "gnis:feature_id": "785112", "name": "Mount Howe", "natural": "peak"}}, {"name": "Indian Hill", "latitude": 46.796065, "longitude": -110.286031, "elevation": 1883.0, "source": "osm", "_tags": {"ele": "1883", "gnis:feature_id": "785271", "name": "Indian Hill", "natural": "peak"}}, {"name": "Irene Peak", "latitude": 47.1041305, "longitude": -110.6652165, "elevation": 2198.0, "source": "osm", "_tags": {"ele": "2198", "gnis:feature_id": "785306", "name": "Irene Peak", "natural": "peak"}}, {"name": "Kelly Mountain", "latitude": 46.8919061, "longitude": -110.492709, "elevation": 2483.0, "source": "osm", "_tags": {"ele": "2483", "gnis:feature_id": "785665", "name": "Kelly Mountain", "natural": "peak"}}, {"name": "Kings Hill", "latitude": 46.8360725, "longitude": -110.687434, "elevation": 2441.0, "source": "osm", "_tags": {"ele": "2441", "gnis:feature_id": "785753", "name": "Kings Hill", "natural": "peak"}}, {"name": "Limestone Butte", "latitude": 47.178575, "longitude": -110.6868843, "elevation": 1781.0, "source": "osm", "_tags": {"ele": "1781", "gnis:feature_id": "786141", "name": "Limestone Butte", "natural": "peak"}}, {"name": "Marys Knoll", "latitude": 46.9946871, "longitude": -110.2743742, "elevation": 1903.0, "source": "osm", "_tags": {"ele": "1903", "gnis:feature_id": "786909", "name": "Marys Knoll", "natural": "peak"}}, {"name": "Mixes Baldy", "latitude": 47.0855199, "longitude": -110.6104933, "elevation": 2420.0, "source": "osm", "_tags": {"ele": "2420", "gnis:feature_id": "787522", "name": "Mixes Baldy", "natural": "peak"}}, {"name": "Muddy Mountain", "latitude": 46.6685627, "longitude": -110.3518621, "elevation": 2286.0, "source": "osm", "_tags": {"ele": "2286", "gnis:feature_id": "787832", "name": "Muddy Mountain", "natural": "peak"}}, {"name": "Pine Knob", "latitude": 46.8632907, "longitude": -110.210199, "elevation": 1919.0, "source": "osm", "_tags": {"ele": "1919", "gnis:feature_id": "788898", "name": "Pine Knob", "natural": "peak"}}, {"name": "Reed Hill", "latitude": 46.9357948, "longitude": -110.2632597, "elevation": 1992.0, "source": "osm", "_tags": {"ele": "1992", "gnis:feature_id": "789503", "name": "Reed Hill", "natural": "peak"}}, {"name": "Sand Point", "latitude": 46.8046816, "longitude": -110.5415956, "elevation": 2505.0, "source": "osm", "_tags": {"ele": "2505", "gnis:feature_id": "790004", "name": "Sand Point", "natural": "peak"}}, {"name": "Sheep Mountain", "latitude": 46.9449632, "longitude": -110.4579881, "elevation": 2438.0, "source": "osm", "_tags": {"ele": "2438", "gnis:feature_id": "790360", "name": "Sheep Mountain", "natural": "peak"}}, {"name": "Slide Rock Point", "latitude": 46.8938508, "longitude": -110.6146562, "elevation": 2479.0, "source": "osm", "_tags": {"ele": "2479", "gnis:feature_id": "790662", "name": "Slide Rock Point", "natural": "peak"}}, {"name": "Taylor Mountain", "latitude": 47.066354, "longitude": -110.5252142, "elevation": 2345.0, "source": "osm", "_tags": {"ele": "2345", "gnis:feature_id": "791924", "name": "Taylor Mountain", "natural": "peak"}}, {"name": "Taylor Peak", "latitude": 47.0705208, "longitude": -110.5196586, "elevation": 2374.0, "source": "osm", "_tags": {"ele": "2374", "gnis:feature_id": "791925", "name": "Taylor Peak", "natural": "peak"}}, {"name": "Tepee Butte", "latitude": 46.9202403, "longitude": -110.5810454, "elevation": 2508.0, "source": "osm", "_tags": {"ele": "2508", "gnis:feature_id": "791972", "name": "Tepee Butte", "natural": "peak"}}, {"name": "Tepee Butte", "latitude": 46.9407954, "longitude": -110.3163172, "elevation": 2026.0, "source": "osm", "_tags": {"ele": "2026", "gnis:feature_id": "791973", "name": "Tepee Butte", "natural": "peak"}}, {"name": "Tollgate Mountain", "latitude": 46.9310732, "longitude": -110.3760406, "elevation": 2372.0, "source": "osm", "_tags": {"ele": "2372", "gnis:feature_id": "792243", "name": "Tollgate Mountain", "natural": "peak"}}, {"name": "Twin Sisters", "latitude": 46.7552313, "longitude": -110.0438036, "elevation": 2254.0, "source": "osm", "_tags": {"ele": "2254", "gnis:feature_id": "792541", "name": "Twin Sisters", "natural": "peak"}}, {"name": "Wolf Butte", "latitude": 47.1135768, "longitude": -110.4685463, "elevation": 2039.0, "source": "osm", "_tags": {"ele": "2039", "gnis:feature_id": "793445", "name": "Wolf Butte", "natural": "peak"}}, {"name": "Woodhurst Mountain", "latitude": 46.9788531, "longitude": -110.3343751, "elevation": 2250.0, "source": "osm", "_tags": {"ele": "2250", "gnis:feature_id": "793503", "name": "Woodhurst Mountain", "natural": "peak"}}, {"name": "Yogo Peak", "latitude": 46.9269072, "longitude": -110.5454894, "elevation": 2686.0, "source": "osm", "_tags": {"ele": "2686", "gnis:feature_id": "793616", "name": "Yogo Peak", "natural": "peak"}}, {"name": "Tucken Mountain", "latitude": 46.9844091, "longitude": -110.483824, "elevation": 2308.0, "source": "osm", "_tags": {"ele": "2308", "gnis:feature_id": "793991", "name": "Tucken Mountain", "natural": "peak"}}, {"name": "Stevens Butte", "latitude": 46.7210659, "longitude": -109.88741, "elevation": 1994.0, "source": "osm", "_tags": {"ele": "1994", "gnis:feature_id": "794028", "name": "Stevens Butte", "natural": "peak"}}, {"name": "Oka Butte", "latitude": 46.7085662, "longitude": -109.8590756, "elevation": 1851.0, "source": "osm", "_tags": {"ele": "1851", "gnis:feature_id": "794042", "name": "Oka Butte", "natural": "peak"}}, {"name": "Clendenin Mountain", "latitude": 47.0980199, "longitude": -110.6118823, "elevation": 2379.0, "source": "osm", "_tags": {"ele": "2379", "gnis:feature_id": "800852", "name": "Clendenin Mountain", "natural": "peak"}}, {"name": "Wild Horse Butte", "latitude": 46.3446804, "longitude": -109.7424032, "elevation": 1473.0, "source": "osm", "_tags": {"ele": "1473", "gnis:feature_id": "805753", "name": "Wild Horse Butte", "natural": "peak"}}, {"name": "Skull Butte", "latitude": 47.0788553, "longitude": -110.2654853, "elevation": 1635.0, "source": "osm", "_tags": {"ele": "1635", "gnis:feature_id": "806976", "name": "Skull Butte", "natural": "peak"}}, {"name": "Steamboat Butte", "latitude": 47.1166336, "longitude": -110.2738189, "elevation": 1418.0, "source": "osm", "_tags": {"ele": "1418", "gnis:feature_id": "806981", "name": "Steamboat Butte", "natural": "peak"}}, {"name": "Suicide Hill", "latitude": 46.4352304, "longitude": -110.0762975, "elevation": 1375.0, "source": "osm", "_tags": {"ele": "1375", "gnis:feature_id": "1725808", "name": "Suicide Hill", "natural": "peak", "wikidata": "Q22060770", "wikipedia": "en:Suicide Hill (Montana)"}}, {"name": "Whetstone Ridge", "latitude": 46.4930526, "longitude": -110.4932048, "elevation": 2081.0, "source": "osm", "_tags": {"ele": "2081", "ele:ft": "6826", "name": "Whetstone Ridge", "natural": "peak"}}]