[{"name": "Black Butte", "latitude": 47.1293987, "longitude": -111.2202328, "elevation": 1934.0, "source": "osm", "_tags": {"ele": "1934", "gnis:feature_id": "768918", "name": "Black Butte", "natural": "peak"}}, {"name": "Black Butte Mountain", "latitude": 46.3554924, "longitude": -110.8921563, "elevation": 1961.0, "source": "osm", "_tags": {"ele": "1961", "gnis:feature_id": "768930", "name": "Black Butte Mountain", "natural": "peak"}}, {"name": "Blankenbaker Hill", "latitude": 47.2644047, "longitude": -111.0732895, "elevation": 1322.0, "source": "osm", "_tags": {"ele": "1322", "gnis:feature_id": "769023", "name": "Blankenbaker Hill", "natural": "peak"}}, {"name": "Castle Rock", "latitude": 47.1152259, "longitude": -111.5769173, "elevation": 1716.0, "source": "osm", "_tags": {"ele": "1716", "gnis:feature_id": "769660", "name": "Castle Rock", "natural": "peak"}}, {"name": "Forest Hill", "latitude": 47.2821822, "longitude": -111.0971799, "elevation": 1287.0, "source": "osm", "_tags": {"ele": "1287", "gnis:feature_id": "771491", "name": "Forest Hill", "natural": "peak"}}, {"name": "Horse Butte", "latitude": 46.3154926, "longitude": -110.8177085, "elevation": 1861.0, "source": "osm", "_tags": {"ele": "1861", "gnis:feature_id": "772527", "name": "Horse Butte", "natural": "peak"}}, {"name": "Mahoney Hill", "latitude": 47.279683, "longitude": -111.0707905, "elevation": 1308.0, "source": "osm", "_tags": {"ele": "1308", "gnis:feature_id": "773818", "name": "Mahoney Hill", "natural": "peak"}}, {"name": "Turtle Butte", "latitude": 47.0802254, "longitude": -111.5446927, "elevation": 1332.0, "source": "osm", "_tags": {"ele": "1332", "gnis:feature_id": "777814", "name": "Turtle Butte", "natural": "peak"}}, {"name": "Avalanche Butte", "latitude": 46.7560524, "longitude": -111.4863554, "elevation": 2344.0, "source": "osm", "_tags": {"ele": "2344", "gnis:feature_id": "779201", "name": "Avalanche Butte", "natural": "peak", "wikidata": "Q49009334"}}, {"name": "Bald Hills", "latitude": 46.9696765, "longitude": -111.1299504, "elevation": 1855.0, "source": "osm", "_tags": {"ele": "1855", "gnis:feature_id": "779282", "name": "Bald Hills", "natural": "peak"}}, {"name": "Mount Baldy", "latitude": 46.4402132, "longitude": -111.2474556, "elevation": 2878.0, "source": "osm", "_tags": {"ele": "2878", "gnis:feature_id": "779305", "name": "Mount Baldy", "natural": "peak"}}, {"name": "Beartrap Peak", "latitude": 46.4952214, "longitude": -110.7610364, "elevation": 2503.0, "source": "osm", "_tags": {"ele": "2503", "gnis:feature_id": "779582", "name": "Beartrap Peak", "natural": "peak"}}, {"name": "Belt Park Butte", "latitude": 46.9730166, "longitude": -110.8224408, "elevation": 2124.0, "source": "osm", "_tags": {"ele": "2124", "gnis:feature_id": "779679", "name": "Belt Park Butte", "natural": "peak"}}, {"name": "Berkins Butte", "latitude": 46.8077269, "longitude": -111.1805068, "elevation": 1423.0, "source": "osm", "_tags": {"ele": "1423", "gnis:feature_id": "779719", "name": "Berkins Butte", "natural": "peak"}}, {"name": "Big Horn Mountain", "latitude": 47.0546829, "longitude": -110.8977226, "elevation": 2338.0, "source": "osm", "_tags": {"ele": "2338", "gnis:feature_id": "779828", "name": "Big Horn Mountain", "natural": "peak"}}, {"name": "Bilk Mountain", "latitude": 46.6641059, "longitude": -111.4663546, "elevation": 2236.0, "source": "osm", "_tags": {"ele": "2236", "gnis:feature_id": "779906", "name": "Bilk Mountain", "natural": "peak", "wikidata": "Q49012859"}}, {"name": "Black Butte", "latitude": 46.2940987, "longitude": -111.2038419, "elevation": 2013.0, "source": "osm", "_tags": {"ele": "2013", "gnis:feature_id": "779975", "name": "Black Butte", "natural": "peak", "wikidata": "Q49013178"}}, {"name": "Black Butte", "latitude": 46.7780111, "longitude": -110.941052, "elevation": 2065.0, "source": "osm", "_tags": {"ele": "2065", "gnis:feature_id": "779976", "name": "Black Butte", "natural": "peak"}}, {"name": "Boulder Baldy", "latitude": 46.556049, "longitude": -111.3269036, "elevation": 2724.0, "source": "osm", "_tags": {"ele": "2724", "gnis:feature_id": "780251", "name": "Boulder Baldy", "natural": "peak"}}, {"name": "Boulder Mountain", "latitude": 46.544104, "longitude": -111.3507938, "elevation": 2680.0, "source": "osm", "_tags": {"ele": "2680", "gnis:feature_id": "780276", "name": "Boulder Mountain", "natural": "peak"}}, {"name": "Castle Mountain", "latitude": 46.4613322, "longitude": -110.7115906, "elevation": 2429.0, "source": "osm", "_tags": {"ele": "2429", "gnis:feature_id": "781028", "name": "Castle Mountain", "natural": "peak"}}, {"name": "Clay Butte", "latitude": 46.5265601, "longitude": -110.8668523, "elevation": 1625.0, "source": "osm", "_tags": {"ele": "1625", "gnis:feature_id": "781337", "name": "Clay Butte", "natural": "peak"}}, {"name": "Coxcombe Butte", "latitude": 46.7255093, "longitude": -110.9354951, "elevation": 2056.0, "source": "osm", "_tags": {"ele": "2056", "gnis:feature_id": "781807", "name": "Coxcombe Butte", "natural": "peak"}}, {"name": "Crown Butte", "latitude": 47.1371827, "longitude": -110.991895, "elevation": 2035.0, "source": "osm", "_tags": {"ele": "2035", "gnis:feature_id": "781938", "name": "Crown Butte", "natural": "peak"}}, {"name": "Deer Butte", "latitude": 47.1043992, "longitude": -111.1899541, "elevation": 1922.0, "source": "osm", "_tags": {"ele": "1922", "gnis:feature_id": "782224", "name": "Deer Butte", "natural": "peak"}}, {"name": "Desolation Peak", "latitude": 47.0024545, "longitude": -111.1480067, "elevation": 2152.0, "source": "osm", "_tags": {"ele": "2152", "gnis:feature_id": "782313", "name": "Desolation Peak", "natural": "peak"}}, {"name": "Devils Footstool", "latitude": 46.861896, "longitude": -111.1374498, "elevation": 1620.0, "source": "osm", "_tags": {"ele": "1620", "gnis:feature_id": "782332", "name": "Devils Footstool", "natural": "peak"}}, {"name": "Mount Edith", "latitude": 46.4316023, "longitude": -111.1852291, "elevation": 2877.0, "source": "osm", "_tags": {"ele": "2877", "gnis:feature_id": "782989", "name": "Mount Edith", "natural": "peak"}}, {"name": "Elk Peak", "latitude": 46.4527202, "longitude": -110.7532588, "elevation": 2607.0, "source": "osm", "_tags": {"ele": "2607", "gnis:feature_id": "783114", "name": "Elk Peak", "natural": "peak"}}, {"name": "Giant Hill", "latitude": 46.3065966, "longitude": -111.6874771, "elevation": 1889.0, "source": "osm", "_tags": {"ele": "1889", "gnis:feature_id": "783913", "name": "Giant Hill", "natural": "peak", "wikidata": "Q49031359"}}, {"name": "Grassy Mountain", "latitude": 46.3063217, "longitude": -111.1205034, "elevation": 2344.0, "source": "osm", "_tags": {"ele": "2344", "gnis:feature_id": "784216", "name": "Grassy Mountain", "natural": "peak", "wikidata": "Q49033110"}}, {"name": "Green Mountain", "latitude": 46.7532926, "longitude": -110.8199363, "elevation": 2139.0, "source": "osm", "_tags": {"ele": "2139", "gnis:feature_id": "784290", "name": "Green Mountain", "natural": "peak"}}, {"name": "Green Mountain", "latitude": 46.998848, "longitude": -110.9666124, "elevation": 2296.0, "source": "osm", "_tags": {"ele": "2296", "gnis:feature_id": "784291", "name": "Green Mountain", "natural": "peak"}}, {"name": "Iron Butte", "latitude": 46.7582881, "longitude": -110.9516075, "elevation": 1954.0, "source": "osm", "_tags": {"ele": "1954", "gnis:feature_id": "785316", "name": "Iron Butte", "natural": "peak"}}, {"name": "Iron Mountain", "latitude": 46.9752374, "longitude": -110.9088324, "elevation": 2367.0, "source": "osm", "_tags": {"ele": "2367", "gnis:feature_id": "785337", "name": "Iron Mountain", "natural": "peak"}}, {"name": "Keegan Peak", "latitude": 46.9996833, "longitude": -110.8307749, "elevation": 2133.0, "source": "osm", "_tags": {"ele": "2133", "gnis:feature_id": "785644", "name": "Keegan Peak", "natural": "peak"}}, {"name": "Long Mountain", "latitude": 46.9435735, "longitude": -110.6921591, "elevation": 2625.0, "source": "osm", "_tags": {"ele": "2625", "gnis:feature_id": "786534", "name": "Long Mountain", "natural": "peak"}}, {"name": "Millegan Hill", "latitude": 47.0471721, "longitude": -111.3702384, "elevation": 1511.0, "source": "osm", "_tags": {"ele": "1511", "gnis:feature_id": "787397", "name": "Millegan Hill", "natural": "peak"}}, {"name": "Mizpah Peak", "latitude": 46.8199617, "longitude": -110.7296569, "elevation": 2361.0, "source": "osm", "_tags": {"ele": "2361", "gnis:feature_id": "787524", "name": "Mizpah Peak", "natural": "peak"}}, {"name": "Monarch Mountain", "latitude": 47.0610727, "longitude": -110.8321649, "elevation": 1844.0, "source": "osm", "_tags": {"ele": "1844", "gnis:feature_id": "787552", "name": "Monarch Mountain", "natural": "peak"}}, {"name": "Monument Peak", "latitude": 46.9974559, "longitude": -111.0974497, "elevation": 2251.0, "source": "osm", "_tags": {"ele": "2251", "gnis:feature_id": "787600", "name": "Monument Peak", "natural": "peak"}}, {"name": "Moose Mountain", "latitude": 46.8288482, "longitude": -110.8418829, "elevation": 2329.0, "source": "osm", "_tags": {"ele": "2329", "gnis:feature_id": "787663", "name": "Moose Mountain", "natural": "peak"}}, {"name": "Needham Mountain", "latitude": 46.6993844, "longitude": -111.4732993, "elevation": 2055.0, "source": "osm", "_tags": {"ele": "2055", "gnis:feature_id": "787922", "name": "Needham Mountain", "natural": "peak", "wikidata": "Q49056508"}}, {"name": "Neihart Baldy", "latitude": 46.9419067, "longitude": -110.708826, "elevation": 2525.0, "source": "osm", "_tags": {"ele": "2525", "gnis:feature_id": "787934", "name": "Neihart Baldy", "natural": "peak"}}, {"name": "Old Baldy", "latitude": 46.9985638, "longitude": -111.2107863, "elevation": 2072.0, "source": "osm", "_tags": {"ele": "2072", "gnis:feature_id": "788402", "name": "Old Baldy", "natural": "peak"}}, {"name": "Otter Mountain", "latitude": 47.1238523, "longitude": -110.7113287, "elevation": 2037.0, "source": "osm", "_tags": {"ele": "2037", "gnis:feature_id": "788796", "name": "Otter Mountain", "natural": "peak"}}, {"name": "Mount Pilgrim", "latitude": 47.0013479, "longitude": -110.9791129, "elevation": 2201.0, "source": "osm", "_tags": {"ele": "2201", "gnis:feature_id": "788863", "name": "Mount Pilgrim", "natural": "peak"}}, {"name": "Porphyry Peak", "latitude": 46.8380173, "longitude": -110.7182681, "elevation": 2498.0, "source": "osm", "_tags": {"ele": "2498", "gnis:feature_id": "789114", "name": "Porphyry Peak", "natural": "peak"}}, {"name": "Rattlesnake Butte", "latitude": 47.188018, "longitude": -110.8638353, "elevation": 1760.0, "source": "osm", "_tags": {"ele": "1760", "gnis:feature_id": "789400", "name": "Rattlesnake Butte", "natural": "peak"}}, {"name": "Reynolds Mountain", "latitude": 46.9227334, "longitude": -111.0441136, "elevation": 2185.0, "source": "osm", "_tags": {"ele": "2185", "gnis:feature_id": "789548", "name": "Reynolds Mountain", "natural": "peak"}}, {"name": "Servoss Mountain", "latitude": 47.0499627, "longitude": -110.7343838, "elevation": 2198.0, "source": "osm", "_tags": {"ele": "2198", "gnis:feature_id": "790239", "name": "Servoss Mountain", "natural": "peak"}}, {"name": "Sheep Mountain", "latitude": 46.773286, "longitude": -111.0257773, "elevation": 1943.0, "source": "osm", "_tags": {"ele": "1943", "gnis:feature_id": "790359", "name": "Sheep Mountain", "natural": "peak"}}, {"name": "Sky Peak", "latitude": 46.9452319, "longitude": -111.1152274, "elevation": 1807.0, "source": "osm", "_tags": {"ele": "1807", "gnis:feature_id": "790618", "name": "Sky Peak", "natural": "peak"}}, {"name": "Smoky Mountain", "latitude": 46.7241266, "longitude": -110.751044, "elevation": 2340.0, "source": "osm", "_tags": {"ele": "2340", "gnis:feature_id": "790747", "name": "Smoky Mountain", "natural": "peak"}}, {"name": "Songster Butte", "latitude": 46.8405051, "longitude": -111.1938409, "elevation": 1658.0, "source": "osm", "_tags": {"ele": "1658", "gnis:feature_id": "790851", "name": "Songster Butte", "natural": "peak"}}, {"name": "Strawberry Butte", "latitude": 46.7788458, "longitude": -110.8993839, "elevation": 1780.0, "source": "osm", "_tags": {"ele": "1780", "gnis:feature_id": "791589", "name": "Strawberry Butte", "natural": "peak"}}, {"name": "Sun Mountain", "latitude": 47.0563511, "longitude": -110.7766072, "elevation": 1991.0, "source": "osm", "_tags": {"ele": "1991", "gnis:feature_id": "791677", "name": "Sun Mountain", "natural": "peak"}}, {"name": "Taylor Hills", "latitude": 46.9666237, "longitude": -111.0338363, "elevation": 1882.0, "source": "osm", "_tags": {"ele": "1882", "gnis:feature_id": "791920", "name": "Taylor Hills", "natural": "peak"}}, {"name": "Thunder Mountain", "latitude": 47.0274603, "longitude": -110.9077223, "elevation": 2476.0, "source": "osm", "_tags": {"ele": "2476", "gnis:feature_id": "792146", "name": "Thunder Mountain", "natural": "peak"}}, {"name": "Tiger Butte", "latitude": 47.1593903, "longitude": -111.0116047, "elevation": 2131.0, "source": "osm", "_tags": {"ele": "2131", "gnis:feature_id": "792168", "name": "Tiger Butte", "natural": "peak"}}, {"name": "Mount Vesuvius", "latitude": 46.977177, "longitude": -111.1168945, "elevation": 2069.0, "source": "osm", "_tags": {"ele": "2069", "gnis:feature_id": "792699", "name": "Mount Vesuvius", "natural": "peak"}}, {"name": "Volcano Butte", "latitude": 46.6541213, "longitude": -110.6971508, "elevation": 1886.0, "source": "osm", "_tags": {"ele": "1886", "gnis:feature_id": "792730", "name": "Volcano Butte", "natural": "peak"}}, {"name": "Wapiti Peak", "latitude": 46.4666095, "longitude": -110.7554809, "elevation": 2599.0, "source": "osm", "_tags": {"ele": "2599", "gnis:feature_id": "792804", "name": "Wapiti Peak", "natural": "peak"}}, {"name": "Williams Mountain", "latitude": 46.9116239, "longitude": -110.9743889, "elevation": 2314.0, "source": "osm", "_tags": {"ele": "2314", "gnis:feature_id": "793327", "name": "Williams Mountain", "natural": "peak"}}, {"name": "Willow Peak", "latitude": 46.4660536, "longitude": -110.7696484, "elevation": 2550.0, "source": "osm", "_tags": {"ele": "2550", "gnis:feature_id": "793374", "name": "Willow Peak", "natural": "peak"}}, {"name": "Woodchuck Mountain", "latitude": 46.4810542, "longitude": -110.7635368, "elevation": 2517.0, "source": "osm", "_tags": {"ele": "2517", "gnis:feature_id": "793497", "name": "Woodchuck Mountain", "natural": "peak"}}, {"name": "Woods Mountain", "latitude": 46.9310661, "longitude": -111.0738371, "elevation": 2296.0, "source": "osm", "_tags": {"ele": "2296", "gnis:feature_id": "793522", "name": "Woods Mountain", "natural": "peak"}}, {"name": "Hooligans Hill", "latitude": 46.4435456, "longitude": -111.3674615, "elevation": 1481.0, "source": "osm", "_tags": {"ele": "1481", "gnis:feature_id": "794651", "name": "Hooligans Hill", "natural": "peak", "wikidata": "Q49037016"}}, {"name": "Dutchie Butte", "latitude": 46.4391011, "longitude": -111.3632946, "elevation": 1590.0, "source": "osm", "_tags": {"ele": "1590", "gnis:feature_id": "794652", "name": "Dutchie Butte", "natural": "peak", "wikidata": "Q49026367"}}, {"name": "Pilot Knob", "latitude": 46.424101, "longitude": -111.3369044, "elevation": 1673.0, "source": "osm", "_tags": {"ele": "1673", "gnis:feature_id": "794748", "name": "Pilot Knob", "natural": "peak", "wikidata": "Q49061317"}}, {"name": "Cayuse Mountain", "latitude": 46.6743841, "longitude": -111.4516316, "elevation": 2153.0, "source": "osm", "_tags": {"ele": "2153", "gnis:feature_id": "794797", "name": "Cayuse Mountain", "natural": "peak", "wikidata": "Q49018825"}}, {"name": "Hedges Mountain", "latitude": 46.7349392, "longitude": -111.6477536, "elevation": 2165.0, "source": "osm", "_tags": {"ele": "2165", "gnis:feature_id": "800921", "name": "Hedges Mountain", "natural": "peak"}}, {"name": "Black Butte", "latitude": 46.464657, "longitude": -111.3771842, "elevation": 1751.0, "source": "osm", "_tags": {"ele": "1751", "gnis:feature_id": "806273", "name": "Black Butte", "natural": "peak", "wikidata": "Q49013180"}}, {"name": "Butler Hill", "latitude": 46.6471732, "longitude": -110.8663238, "elevation": 1755.0, "source": "osm", "_tags": {"ele": "1755", "gnis:feature_id": "806903", "name": "Butler Hill", "natural": "peak"}}, {"name": "Creamery Hill", "latitude": 47.2455136, "longitude": -111.1469003, "elevation": 1341.0, "source": "osm", "_tags": {"ele": "1341", "gnis:feature_id": "806944", "name": "Creamery Hill", "natural": "peak"}}, {"name": "Streeter Hill", "latitude": 47.0966166, "longitude": -111.4205192, "elevation": 1518.0, "source": "osm", "_tags": {"ele": "1518", "gnis:feature_id": "806982", "name": "Streeter Hill", "natural": "peak"}}, {"name": "Middleman Mountain", "latitude": 46.805438, "longitude": -111.6826623, "elevation": 2283.0, "source": "osm", "_tags": {"ele": "2283", "name": "Middleman Mountain", "natural": "peak"}}, {"name": "Hedges Mountain", "latitude": 46.7348477, "longitude": -111.6482308, "elevation": 2171.0, "source": "osm", "_tags": {"ele": "2171", "name": "Hedges Mountain", "natural": "peak"}}, {"name": "Schmaus Peak", "latitude": 46.5659635, "longitude": -111.6733279, "elevation": null, "source": "osm", "_tags": {"name": "Schmaus Peak", "natural": "peak"}}, {"name": "Mil-mil-teh Hill", "latitude": 46.8989629, "longitude": -111.528987, "elevation": null, "source": "osm", "_tags": {"gnis:feature_id": "791398", "name": "Mil-mil-teh Hill", "natural": "peak", "old_name": "Squaw Teat"}}]