[{"name": "Adams Mountain", "latitude": 48.0904434, "longitude": -118.0924798, "elevation": 1422.0, "source": "osm", "_tags": {"ele": "1422", "gnis:feature_id": "1502937", "name": "Adams Mountain", "natural": "peak"}}, {"name": "Bear Mountain", "latitude": 47.9696071, "longitude": -118.0683088, "elevation": 1050.0, "source": "osm", "_tags": {"ele": "1050", "gnis:feature_id": "1503239", "name": "Bear Mountain", "natural": "peak"}}, {"name": "Becks Hill", "latitude": 47.8926675, "longitude": -117.7413433, "elevation": 1015.0, "source": "osm", "_tags": {"ele": "1015", "gnis:feature_id": "1503270", "name": "Becks Hill", "natural": "peak"}}, {"name": "Blue Mountain", "latitude": 48.0146087, "longitude": -118.0191404, "elevation": 1275.0, "source": "osm", "_tags": {"ele": "1275", "gnis:feature_id": "1503455", "name": "Blue Mountain", "natural": "peak"}}, {"name": "Booth Hill", "latitude": 47.554608, "longitude": -117.727439, "elevation": 898.0, "source": "osm", "_tags": {"ele": "898", "gnis:feature_id": "1503480", "name": "Booth Hill", "natural": "peak"}}, {"name": "Boundary Butte", "latitude": 48.0001623, "longitude": -118.146647, "elevation": 1228.0, "source": "osm", "_tags": {"ele": "1228", "gnis:feature_id": "1503495", "name": "Boundary Butte", "natural": "peak"}}, {"name": "Coffeepot Butte", "latitude": 47.4651481, "longitude": -118.6547157, "elevation": 592.0, "source": "osm", "_tags": {"ele": "592", "gnis:feature_id": "1504047", "name": "Coffeepot Butte", "natural": "peak", "wikidata": "Q49021323"}}, {"name": "Cooney Mountain", "latitude": 48.1135027, "longitude": -117.8830245, "elevation": 1026.0, "source": "osm", "_tags": {"ele": "1026", "gnis:feature_id": "1504131", "name": "Cooney Mountain", "natural": "peak"}}, {"name": "Craney Hill", "latitude": 48.0698918, "longitude": -117.8013524, "elevation": 797.0, "source": "osm", "_tags": {"ele": "797", "gnis:feature_id": "1504256", "name": "Craney Hill", "natural": "peak"}}, {"name": "Creston Butte", "latitude": 47.7440429, "longitude": -118.5288846, "elevation": 857.0, "source": "osm", "_tags": {"ele": "857", "gnis:feature_id": "1504275", "name": "Creston Butte", "natural": "peak"}}, {"name": "Empey Mountain", "latitude": 48.0937797, "longitude": -117.9002472, "elevation": 1091.0, "source": "osm", "_tags": {"ele": "1091", "gnis:feature_id": "1504753", "name": "Empey Mountain", "natural": "peak"}}, {"name": "Fancher Butte", "latitude": 47.5773859, "longitude": -117.7313292, "elevation": 896.0, "source": "osm", "_tags": {"ele": "896", "gnis:feature_id": "1504797", "name": "Fancher Butte", "natural": "peak"}}, {"name": "Gold Mountain", "latitude": 48.1804412, "longitude": -118.4672269, "elevation": 1429.0, "source": "osm", "_tags": {"ele": "1429", "gnis:feature_id": "1505165", "name": "Gold Mountain", "natural": "peak"}}, {"name": "Hanning Butte", "latitude": 47.58766, "longitude": -117.8910645, "elevation": 927.0, "source": "osm", "_tags": {"ele": "927", "gnis:feature_id": "1505374", "name": "Hanning Butte", "natural": "peak"}}, {"name": "Jim Mountain", "latitude": 47.9215464, "longitude": -118.4949993, "elevation": 933.0, "source": "osm", "_tags": {"ele": "933", "gnis:feature_id": "1505815", "name": "Jim Mountain", "natural": "peak"}}, {"name": "Johnny George Mountain", "latitude": 47.9112689, "longitude": -118.4433291, "elevation": 1249.0, "source": "osm", "_tags": {"ele": "1249", "gnis:feature_id": "1505830", "name": "Johnny George Mountain", "natural": "peak"}}, {"name": "Lilienthal Mountain", "latitude": 47.9101597, "longitude": -118.2333165, "elevation": 1085.0, "source": "osm", "_tags": {"ele": "1085", "gnis:feature_id": "1506154", "name": "Lilienthal Mountain", "natural": "peak"}}, {"name": "Magnison Butte", "latitude": 47.5684931, "longitude": -117.8882856, "elevation": 914.0, "source": "osm", "_tags": {"ele": "914", "gnis:feature_id": "1506422", "name": "Magnison Butte", "natural": "peak"}}, {"name": "McDowell Hill", "latitude": 47.7043317, "longitude": -117.7416137, "elevation": 830.0, "source": "osm", "_tags": {"ele": "830", "gnis:feature_id": "1506558", "name": "McDowell Hill", "natural": "peak"}}, {"name": "Middle Mountain", "latitude": 48.1396086, "longitude": -118.3016603, "elevation": 974.0, "source": "osm", "_tags": {"ele": "974", "gnis:feature_id": "1506663", "name": "Middle Mountain", "natural": "peak"}}, {"name": "Miller Mountain", "latitude": 48.0059938, "longitude": -118.3216574, "elevation": 928.0, "source": "osm", "_tags": {"ele": "928", "gnis:feature_id": "1506709", "name": "Miller Mountain", "natural": "peak"}}, {"name": "McMillan Mountain", "latitude": 47.9226679, "longitude": -117.7360664, "elevation": 1050.0, "source": "osm", "_tags": {"ele": "1050", "gnis:feature_id": "1506946", "name": "McMillan Mountain", "natural": "peak"}}, {"name": "Round Mountain", "latitude": 47.9848876, "longitude": -117.9155228, "elevation": 862.0, "source": "osm", "_tags": {"ele": "862", "gnis:feature_id": "1507936", "name": "Round Mountain", "natural": "peak"}}, {"name": "Sclome Mountain", "latitude": 48.0937716, "longitude": -118.5316725, "elevation": 1051.0, "source": "osm", "_tags": {"ele": "1051", "gnis:feature_id": "1508165", "name": "Sclome Mountain", "natural": "peak"}}, {"name": "Seymour Hill", "latitude": 48.1573864, "longitude": -118.347219, "elevation": 1015.0, "source": "osm", "_tags": {"ele": "1015", "gnis:feature_id": "1508235", "name": "Seymour Hill", "natural": "peak"}}, {"name": "Sherwood Mountain", "latitude": 47.8737739, "longitude": -117.9460779, "elevation": 892.0, "source": "osm", "_tags": {"ele": "892", "gnis:feature_id": "1508300", "name": "Sherwood Mountain", "natural": "peak"}}, {"name": "Shoemaker Butte", "latitude": 47.7432189, "longitude": -117.831622, "elevation": 913.0, "source": "osm", "_tags": {"ele": "913", "gnis:feature_id": "1508320", "name": "Shoemaker Butte", "natural": "peak"}}, {"name": "Spokane Mountain", "latitude": 47.9562734, "longitude": -118.0794203, "elevation": 1175.0, "source": "osm", "_tags": {"ele": "1175", "gnis:feature_id": "1508605", "name": "Spokane Mountain", "natural": "peak"}}, {"name": "Stensgar Mountain", "latitude": 48.1812808, "longitude": -117.9899763, "elevation": 1771.0, "source": "osm", "_tags": {"ele": "1771", "gnis:feature_id": "1508721", "name": "Stensgar Mountain", "natural": "peak"}}, {"name": "Wellpinit Mountain", "latitude": 47.8862727, "longitude": -118.0210828, "elevation": 1042.0, "source": "osm", "_tags": {"ele": "1042", "gnis:feature_id": "1509366", "name": "Wellpinit Mountain", "natural": "peak"}}, {"name": "Watermelon Hill", "latitude": 47.33655, "longitude": -117.8682766, "elevation": 689.0, "source": "osm", "_tags": {"ele": "689", "gnis:feature_id": "1509802", "name": "Watermelon Hill", "natural": "peak"}}, {"name": "Castle Rock", "latitude": 47.9612707, "longitude": -118.3408241, "elevation": 623.0, "source": "osm", "_tags": {"ele": "623", "gnis:feature_id": "1509947", "name": "Castle Rock", "natural": "peak"}}, {"name": "Cayuse Mountain", "latitude": 47.8293268, "longitude": -118.0485833, "elevation": 832.0, "source": "osm", "_tags": {"ele": "832", "gnis:feature_id": "1512075", "name": "Cayuse Mountain", "natural": "peak"}}, {"name": "Deer Mountain", "latitude": 47.9965528, "longitude": -118.0094171, "elevation": 1038.0, "source": "osm", "_tags": {"ele": "1038", "gnis:feature_id": "1512142", "name": "Deer Mountain", "natural": "peak"}}, {"name": "Gettys Butte", "latitude": 47.7143956, "longitude": -117.9081489, "elevation": 855.0, "source": "osm", "_tags": {"ele": "855", "gnis:feature_id": "1512238", "name": "Gettys Butte", "natural": "peak"}}, {"name": "Mount Godfrey", "latitude": 47.8746116, "longitude": -117.7402315, "elevation": 1038.0, "source": "osm", "_tags": {"ele": "1038", "gnis:feature_id": "1512244", "name": "Mount Godfrey", "natural": "peak"}}, {"name": "Grays Butte", "latitude": 47.7112734, "longitude": -117.8591228, "elevation": 868.0, "source": "osm", "_tags": {"ele": "868", "gnis:feature_id": "1512252", "name": "Grays Butte", "natural": "peak"}}, {"name": "Happy Hill", "latitude": 47.8904445, "longitude": -117.7821788, "elevation": 727.0, "source": "osm", "_tags": {"ele": "727", "gnis:feature_id": "1512268", "name": "Happy Hill", "natural": "peak"}}, {"name": "Lyons Hill", "latitude": 48.0229456, "longitude": -117.832186, "elevation": 782.0, "source": "osm", "_tags": {"ele": "782", "gnis:feature_id": "1512416", "name": "Lyons Hill", "natural": "peak"}}, {"name": "Pitney Butte", "latitude": 47.8784931, "longitude": -118.1733127, "elevation": 807.0, "source": "osm", "_tags": {"ele": "807", "gnis:feature_id": "1512566", "name": "Pitney Butte", "natural": "peak"}}, {"name": "Rattlesnake Mountain", "latitude": 48.2451685, "longitude": -118.190268, "elevation": 694.0, "source": "osm", "_tags": {"ele": "694", "gnis:feature_id": "1512595", "name": "Rattlesnake Mountain", "natural": "peak"}}, {"name": "Teel Hill", "latitude": 47.729602, "longitude": -118.1508086, "elevation": 833.0, "source": "osm", "_tags": {"ele": "833", "gnis:feature_id": "1512716", "name": "Teel Hill", "natural": "peak"}}, {"name": "Whitestone Mountain", "latitude": 48.0057143, "longitude": -118.5097246, "elevation": 1167.0, "source": "osm", "_tags": {"ele": "1167", "gnis:feature_id": "1513042", "name": "Whitestone Mountain", "natural": "peak"}}, {"name": "Boudes Hill", "latitude": 48.1401712, "longitude": -117.8094104, "elevation": 857.0, "source": "osm", "_tags": {"ele": "857", "gnis:feature_id": "1516816", "name": "Boudes Hill", "natural": "peak"}}, {"name": "Indian Hill", "latitude": 48.2554533, "longitude": -117.7088531, "elevation": 540.0, "source": "osm", "_tags": {"ele": "540", "gnis:feature_id": "1521189", "name": "Indian Hill", "natural": "peak"}}, {"name": "Lane Mountain", "latitude": 48.1696156, "longitude": -117.8652475, "elevation": 1389.0, "source": "osm", "_tags": {"ele": "1389", "gnis:feature_id": "1521886", "name": "Lane Mountain", "natural": "peak"}}, {"name": "Limekiln Hill", "latitude": 48.0751708, "longitude": -117.7310712, "elevation": 832.0, "source": "osm", "_tags": {"ele": "832", "gnis:feature_id": "1522115", "name": "Limekiln Hill", "natural": "peak"}}, {"name": "Little Coyote Mountain", "latitude": 48.1718385, "longitude": -117.820523, "elevation": 888.0, "source": "osm", "_tags": {"ele": "888", "gnis:feature_id": "1522189", "name": "Little Coyote Mountain", "natural": "peak"}}, {"name": "May Hill", "latitude": 48.0548925, "longitude": -117.7307928, "elevation": 739.0, "source": "osm", "_tags": {"ele": "739", "gnis:feature_id": "1522819", "name": "May Hill", "natural": "peak"}}, {"name": "Monument Butte", "latitude": 48.2829471, "longitude": -118.2058253, "elevation": 627.0, "source": "osm", "_tags": {"ele": "627", "gnis:feature_id": "1523334", "name": "Monument Butte", "natural": "peak"}}, {"name": "Moon Mountain", "latitude": 48.2790564, "longitude": -118.3213877, "elevation": 1188.0, "source": "osm", "_tags": {"ele": "1188", "gnis:feature_id": "1523346", "name": "Moon Mountain", "natural": "peak"}}, {"name": "Pine Hill", "latitude": 48.2848631, "longitude": -117.7567203, "elevation": 566.0, "source": "osm", "_tags": {"ele": "566", "gnis:feature_id": "1524447", "name": "Pine Hill", "natural": "peak"}}, {"name": "Stranger Mountain", "latitude": 48.262946, "longitude": -118.2399937, "elevation": 921.0, "source": "osm", "_tags": {"ele": "921", "gnis:feature_id": "1526619", "name": "Stranger Mountain", "natural": "peak"}}, {"name": "Wellington Peak", "latitude": 48.2582262, "longitude": -118.0772057, "elevation": 1362.0, "source": "osm", "_tags": {"ele": "1362", "gnis:feature_id": "1527889", "name": "Wellington Peak", "natural": "peak"}}, {"name": "Wrights Mountain", "latitude": 48.2182293, "longitude": -117.7671884, "elevation": 943.0, "source": "osm", "_tags": {"ele": "943", "gnis:feature_id": "1528324", "name": "Wrights Mountain", "natural": "peak"}}, {"name": "Huckleberry Mountain", "latitude": 48.2110041, "longitude": -117.9771986, "elevation": 1771.0, "source": "osm", "_tags": {"ele": "1771", "gnis:feature_id": "1530759", "name": "Huckleberry Mountain", "natural": "peak"}}, {"name": "Inklers Point", "latitude": 48.1940625, "longitude": -117.7349638, "elevation": 669.0, "source": "osm", "_tags": {"ele": "669", "gnis:feature_id": "1534066", "name": "Inklers Point", "natural": "peak"}}, {"name": "Square Butte", "latitude": 47.356853, "longitude": -117.8551884, "elevation": null, "source": "osm", "_tags": {"name": "Square Butte", "natural": "peak"}}, {"name": "", "latitude": 47.7470119, "longitude": -118.5143409, "elevation": 816.0, "source": "osm", "_tags": {"ele": "816", "natural": "peak"}}, {"name": "", "latitude": 47.7483932, "longitude": -118.5048416, "elevation": 763.0, "source": "osm", "_tags": {"ele": "763", "natural": "peak"}}, {"name": "Dudley", "latitude": 47.6597219, "longitude": -118.3456831, "elevation": 719.0, "source": "osm", "_tags": {"ele": "719", "name": "Dudley", "natural": "peak"}}, {"name": "", "latitude": 48.008377, "longitude": -118.3538612, "elevation": 616.0, "source": "osm", "_tags": {"ele": "616", "natural": "peak"}}, {"name": "", "latitude": 48.0201003, "longitude": -118.332403, "elevation": 801.0, "source": "osm", "_tags": {"ele": "801", "natural": "peak"}}, {"name": "Troger", "latitude": 48.1004266, "longitude": -118.2197767, "elevation": null, "source": "osm", "_tags": {"name": "Troger", "natural": "peak"}}, {"name": "Mitre Rock", "latitude": 47.9591429, "longitude": -118.3429643, "elevation": null, "source": "osm", "_tags": {"gnis:feature_id": "1506747", "name": "Mitre Rock", "natural": "peak"}}, {"name": "", "latitude": 47.7089179, "longitude": -117.7176328, "elevation": null, "source": "osm", "_tags": {"natural": "peak"}}, {"name": "Bear Hide Peak", "latitude": 48.1840066, "longitude": -118.3486767, "elevation": 1251.204, "source": "osm", "_tags": {"ele": "1251.204", "name": "Bear Hide Peak", "natural": "peak"}}]