[{"name": "Barber Butte", "latitude": 48.2772144, "longitude": -109.4246303, "elevation": 1525.0, "source": "osm", "_tags": {"ele": "1525", "gnis:feature_id": "768501", "name": "Barber Butte", "natural": "peak", "wikidata": "Q49010679"}}, {"name": "Big John Butte", "latitude": 48.2024894, "longitude": -109.5501915, "elevation": 1804.0, "source": "osm", "_tags": {"ele": "1804", "gnis:feature_id": "768798", "name": "Big John Butte", "natural": "peak"}}, {"name": "Birch Creek Hill", "latitude": 47.7591493, "longitude": -109.534074, "elevation": 999.0, "source": "osm", "_tags": {"ele": "999", "gnis:feature_id": "768869", "name": "Birch Creek Hill", "natural": "peak", "wikidata": "Q49012946"}}, {"name": "Bird Tail Butte", "latitude": 48.1413779, "longitude": -109.2557317, "elevation": 1342.0, "source": "osm", "_tags": {"ele": "1342", "gnis:feature_id": "768887", "name": "Bird Tail Butte", "natural": "peak", "wikidata": "Q49012993"}}, {"name": "Black Butte", "latitude": 47.8424847, "longitude": -109.1771174, "elevation": 967.0, "source": "osm", "_tags": {"ele": "967", "gnis:feature_id": "768922", "name": "Black Butte", "natural": "peak", "wikidata": "Q49013173"}}, {"name": "Black Butte", "latitude": 48.2130466, "longitude": -109.1904516, "elevation": 1679.0, "source": "osm", "_tags": {"ele": "1679", "gnis:feature_id": "768924", "name": "Black Butte", "natural": "peak", "wikidata": "Q49013176"}}, {"name": "Blue Stone Peak", "latitude": 48.0599859, "longitude": -109.4810201, "elevation": 1455.0, "source": "osm", "_tags": {"ele": "1455", "gnis:feature_id": "769048", "name": "Blue Stone Peak", "natural": "peak", "wikidata": "Q49014528"}}, {"name": "Bowery Peak", "latitude": 48.181654, "longitude": -109.6840855, "elevation": 1860.0, "source": "osm", "_tags": {"ele": "1860", "gnis:feature_id": "769139", "name": "Bowery Peak", "natural": "peak"}}, {"name": "Chimney Butte", "latitude": 48.0252647, "longitude": -109.1535063, "elevation": 1024.0, "source": "osm", "_tags": {"ele": "1024", "gnis:feature_id": "769831", "name": "Chimney Butte", "natural": "peak", "wikidata": "Q49020221"}}, {"name": "Clagget Hill", "latitude": 47.7183152, "longitude": -109.6321323, "elevation": 807.0, "source": "osm", "_tags": {"ele": "807", "gnis:feature_id": "769886", "name": "Clagget Hill", "natural": "peak"}}, {"name": "Corrigan Mountain", "latitude": 48.1599892, "longitude": -109.3493477, "elevation": 1630.0, "source": "osm", "_tags": {"ele": "1630", "gnis:feature_id": "770123", "name": "Corrigan Mountain", "natural": "peak", "wikidata": "Q49022203"}}, {"name": "Crown Butte", "latitude": 48.2788814, "longitude": -109.2385088, "elevation": 1445.0, "source": "osm", "_tags": {"ele": "1445", "gnis:feature_id": "770352", "name": "Crown Butte", "natural": "peak", "wikidata": "Q49023170"}}, {"name": "Elkhorn Mountain", "latitude": 48.0585969, "longitude": -109.4990764, "elevation": 1457.0, "source": "osm", "_tags": {"ele": "1457", "gnis:feature_id": "771201", "name": "Elkhorn Mountain", "natural": "peak", "wikidata": "Q49027868"}}, {"name": "Goat Mountain", "latitude": 48.0147079, "longitude": -109.2640653, "elevation": 1231.0, "source": "osm", "_tags": {"ele": "1231", "gnis:feature_id": "771816", "name": "Goat Mountain", "natural": "peak", "wikidata": "Q49031806"}}, {"name": "Gumbo Butte", "latitude": 48.0119309, "longitude": -109.1662845, "elevation": 1077.0, "source": "osm", "_tags": {"ele": "1077", "gnis:feature_id": "772026", "name": "Gumbo Butte", "natural": "peak", "wikidata": "Q49034301"}}, {"name": "Hansen Butte", "latitude": 48.1847127, "longitude": -109.1521171, "elevation": 1532.0, "source": "osm", "_tags": {"ele": "1532", "gnis:feature_id": "772126", "name": "Hansen Butte", "natural": "peak", "wikidata": "Q49034879"}}, {"name": "Haystack Butte", "latitude": 48.0444286, "longitude": -109.6015799, "elevation": 1252.0, "source": "osm", "_tags": {"ele": "1252", "gnis:feature_id": "772279", "name": "Haystack Butte", "natural": "peak"}}, {"name": "Haystack Butte", "latitude": 48.13138, "longitude": -108.9173873, "elevation": 1004.0, "source": "osm", "_tags": {"ele": "1004", "gnis:feature_id": "772280", "name": "Haystack Butte", "natural": "peak", "wikidata": "Q49035518"}}, {"name": "Index Butte", "latitude": 48.0510967, "longitude": -109.4876869, "elevation": 1355.0, "source": "osm", "_tags": {"ele": "1355", "gnis:feature_id": "772676", "name": "Index Butte", "natural": "peak", "wikidata": "Q49038379"}}, {"name": "Iron Butte", "latitude": 48.2602701, "longitude": -109.0810034, "elevation": 1433.0, "source": "osm", "_tags": {"ele": "1433", "gnis:feature_id": "772723", "name": "Iron Butte", "natural": "peak", "wikidata": "Q49038938"}}, {"name": "Johnson Butte", "latitude": 48.1927684, "longitude": -109.1807291, "elevation": 1602.0, "source": "osm", "_tags": {"ele": "1602", "gnis:feature_id": "772858", "name": "Johnson Butte", "natural": "peak", "wikidata": "Q49040002"}}, {"name": "Johnson Hill", "latitude": 47.7672044, "longitude": -109.6437996, "elevation": 903.0, "source": "osm", "_tags": {"ele": "903", "gnis:feature_id": "772871", "name": "Johnson Hill", "natural": "peak"}}, {"name": "Lloyd Butte", "latitude": 48.2819368, "longitude": -109.3451812, "elevation": 1504.0, "source": "osm", "_tags": {"ele": "1504", "gnis:feature_id": "773517", "name": "Lloyd Butte", "natural": "peak", "wikidata": "Q49045755"}}, {"name": "Miles Butte", "latitude": 48.2649925, "longitude": -109.0546136, "elevation": 1507.0, "source": "osm", "_tags": {"ele": "1507", "gnis:feature_id": "774201", "name": "Miles Butte", "natural": "peak", "wikidata": "Q49050124"}}, {"name": "Moses Mountain", "latitude": 48.1888771, "longitude": -109.6246388, "elevation": 1745.0, "source": "osm", "_tags": {"ele": "1745", "gnis:feature_id": "774409", "name": "Moses Mountain", "natural": "peak"}}, {"name": "Murphy Butte", "latitude": 48.2022124, "longitude": -109.42713, "elevation": 1661.0, "source": "osm", "_tags": {"ele": "1661", "gnis:feature_id": "774505", "name": "Murphy Butte", "natural": "peak", "wikidata": "Q49055893"}}, {"name": "Myrtle Butte", "latitude": 48.2349919, "longitude": -109.063503, "elevation": 1588.0, "source": "osm", "_tags": {"ele": "1588", "gnis:feature_id": "774537", "name": "Myrtle Butte", "natural": "peak", "wikidata": "Q49056139"}}, {"name": "Oil Well Hill", "latitude": 47.6377595, "longitude": -109.4743502, "elevation": 1017.0, "source": "osm", "_tags": {"ele": "1017", "gnis:feature_id": "774917", "name": "Oil Well Hill", "natural": "peak"}}, {"name": "Otis Mountain", "latitude": 48.262768, "longitude": -109.6446408, "elevation": 1437.0, "source": "osm", "_tags": {"ele": "1437", "gnis:feature_id": "774994", "name": "Otis Mountain", "natural": "peak"}}, {"name": "Rattlesnake Butte", "latitude": 48.0247057, "longitude": -109.612691, "elevation": 1277.0, "source": "osm", "_tags": {"ele": "1277", "gnis:feature_id": "775574", "name": "Rattlesnake Butte", "natural": "peak"}}, {"name": "Rattlesnake Butte", "latitude": 48.1366565, "longitude": -109.0932264, "elevation": 1255.0, "source": "osm", "_tags": {"ele": "1255", "gnis:feature_id": "775576", "name": "Rattlesnake Butte", "natural": "peak", "wikidata": "Q49066682"}}, {"name": "Reed Hill", "latitude": 47.6794259, "longitude": -109.6340767, "elevation": 861.0, "source": "osm", "_tags": {"ele": "861", "gnis:feature_id": "775685", "name": "Reed Hill", "natural": "peak"}}, {"name": "Rieve Butte", "latitude": 48.1836016, "longitude": -109.1357277, "elevation": 1565.0, "source": "osm", "_tags": {"ele": "1565", "gnis:feature_id": "775765", "name": "Rieve Butte", "natural": "peak", "wikidata": "Q49068522"}}, {"name": "Sand Rock Hill", "latitude": 47.292755, "longitude": -109.6554666, "elevation": 1139.0, "source": "osm", "_tags": {"ele": "1139", "gnis:feature_id": "776200", "name": "Sand Rock Hill", "natural": "peak"}}, {"name": "Saskatchewan Butte", "latitude": 47.8622116, "longitude": -108.8337732, "elevation": 1038.0, "source": "osm", "_tags": {"ele": "1038", "gnis:feature_id": "776231", "name": "Saskatchewan Butte", "natural": "peak"}}, {"name": "Sawtooth Mountain", "latitude": 48.0674864, "longitude": -109.4012942, "elevation": 1578.0, "source": "osm", "_tags": {"ele": "1578", "gnis:feature_id": "776251", "name": "Sawtooth Mountain", "natural": "peak", "wikidata": "Q49071629"}}, {"name": "Scotty Butte", "latitude": 48.1855458, "longitude": -109.2190637, "elevation": 1484.0, "source": "osm", "_tags": {"ele": "1484", "gnis:feature_id": "776309", "name": "Scotty Butte", "natural": "peak", "wikidata": "Q49072019"}}, {"name": "Seventynine Hill", "latitude": 47.6335921, "longitude": -109.6287988, "elevation": 844.0, "source": "osm", "_tags": {"ele": "844", "gnis:feature_id": "776376", "name": "Seventynine Hill", "natural": "peak"}}, {"name": "Seventytwo Hills", "latitude": 47.3258112, "longitude": -109.6021322, "elevation": 1165.0, "source": "osm", "_tags": {"ele": "1165", "gnis:feature_id": "776382", "name": "Seventytwo Hills", "natural": "peak"}}, {"name": "Spirit Woman Butte", "latitude": 48.0180461, "longitude": -108.8498854, "elevation": 1023.0, "source": "osm", "_tags": {"ele": "1023", "gnis:feature_id": "777116", "name": "Spirit Woman Butte", "natural": "peak", "wikidata": "Q49076450"}}, {"name": "Suction Butte", "latitude": 48.1922131, "longitude": -109.1068378, "elevation": 1619.0, "source": "osm", "_tags": {"ele": "1619", "gnis:feature_id": "777284", "name": "Suction Butte", "natural": "peak", "wikidata": "Q49079016"}}, {"name": "The Rock", "latitude": 48.0899857, "longitude": -109.5918581, "elevation": 1477.0, "source": "osm", "_tags": {"ele": "1477", "gnis:feature_id": "777536", "name": "The Rock", "natural": "peak"}}, {"name": "Tiger Butte", "latitude": 48.0360945, "longitude": -109.6521371, "elevation": 1478.0, "source": "osm", "_tags": {"ele": "1478", "gnis:feature_id": "777639", "name": "Tiger Butte", "natural": "peak"}}, {"name": "Timber Butte", "latitude": 48.2549919, "longitude": -109.2387866, "elevation": 1629.0, "source": "osm", "_tags": {"ele": "1629", "gnis:feature_id": "777652", "name": "Timber Butte", "natural": "peak", "wikidata": "Q49083756"}}, {"name": "Tox Hill", "latitude": 47.7713709, "longitude": -109.6868564, "elevation": 841.0, "source": "osm", "_tags": {"ele": "841", "gnis:feature_id": "777724", "name": "Tox Hill", "natural": "peak"}}, {"name": "Twin Buttes", "latitude": 47.4230341, "longitude": -109.6888001, "elevation": 1097.0, "source": "osm", "_tags": {"ele": "1097", "gnis:feature_id": "777843", "name": "Twin Buttes", "natural": "peak"}}, {"name": "Wild Horse Butte", "latitude": 48.2583274, "longitude": -108.7412693, "elevation": 986.0, "source": "osm", "_tags": {"ele": "986", "gnis:feature_id": "778469", "name": "Wild Horse Butte", "natural": "peak", "wikidata": "Q49089856"}}, {"name": "Williamson Butte", "latitude": 48.0210966, "longitude": -109.3196234, "elevation": 1385.0, "source": "osm", "_tags": {"ele": "1385", "gnis:feature_id": "778522", "name": "Williamson Butte", "natural": "peak", "wikidata": "Q49090193"}}, {"name": "Taylor Butte", "latitude": 48.203324, "longitude": -109.2282307, "elevation": 1454.0, "source": "osm", "_tags": {"ele": "1454", "gnis:feature_id": "791904", "name": "Taylor Butte", "natural": "peak", "wikidata": "Q49081548"}}, {"name": "Baldy Mountain", "latitude": 48.1485978, "longitude": -109.6507502, "elevation": 2103.0, "source": "osm", "_tags": {"ele": "2103", "gnis:feature_id": "798958", "name": "Baldy Mountain", "natural": "peak"}}, {"name": "Shambo Mountain", "latitude": 48.2858242, "longitude": -109.6493635, "elevation": 1286.0, "source": "osm", "_tags": {"ele": "1286", "gnis:feature_id": "802192", "name": "Shambo Mountain", "natural": "peak"}}, {"name": "White Horse Butte", "latitude": 47.6980391, "longitude": -109.155727, "elevation": 992.0, "source": "osm", "_tags": {"ele": "992", "gnis:feature_id": "805596", "name": "White Horse Butte", "natural": "peak"}}, {"name": "Reppe Butte", "latitude": 47.7291518, "longitude": -109.009611, "elevation": 984.0, "source": "osm", "_tags": {"ele": "984", "gnis:feature_id": "805603", "name": "Reppe Butte", "natural": "peak"}}, {"name": "Saddle Rock", "latitude": 47.9813732, "longitude": -109.434906, "elevation": 1202.0, "source": "osm", "_tags": {"ele": "1202", "gnis:feature_id": "805606", "name": "Saddle Rock", "natural": "peak", "wikidata": "Q49070729"}}, {"name": "Lion Butte", "latitude": 47.8935953, "longitude": -109.321845, "elevation": 1047.0, "source": "osm", "_tags": {"ele": "1047", "gnis:feature_id": "805607", "name": "Lion Butte", "natural": "peak", "wikidata": "Q49044399"}}, {"name": "Lookout Butte", "latitude": 48.1583235, "longitude": -109.0982265, "elevation": 1480.0, "source": "osm", "_tags": {"ele": "1480", "gnis:feature_id": "805619", "name": "Lookout Butte", "natural": "peak", "wikidata": "Q49046507"}}, {"name": "Belcher Peak", "latitude": 48.1580457, "longitude": -109.1154493, "elevation": 1447.0, "source": "osm", "_tags": {"ele": "1447", "gnis:feature_id": "805620", "name": "Belcher Peak", "natural": "peak", "wikidata": "Q49011881"}}, {"name": "Thunder Butte", "latitude": 48.2211025, "longitude": -109.1240605, "elevation": 1643.0, "source": "osm", "_tags": {"ele": "1643", "gnis:feature_id": "805621", "name": "Thunder Butte", "natural": "peak", "wikidata": "Q49083564"}}, {"name": "Woodhawk Hill", "latitude": 47.71415, "longitude": -109.2087846, "elevation": 1074.0, "source": "osm", "_tags": {"ele": "1074", "gnis:feature_id": "805655", "name": "Woodhawk Hill", "natural": "peak"}}, {"name": "Coal Hill", "latitude": 47.3727606, "longitude": -108.7882068, "elevation": 1056.0, "source": "osm", "_tags": {"ele": "1056", "gnis:feature_id": "805715", "name": "Coal Hill", "natural": "peak"}}, {"name": "Indian Butte", "latitude": 47.5619318, "longitude": -108.7559877, "elevation": 928.0, "source": "osm", "_tags": {"ele": "928", "gnis:feature_id": "805722", "name": "Indian Butte", "natural": "peak"}}, {"name": "Sheepherder Peak", "latitude": 47.3819238, "longitude": -109.2932318, "elevation": 1203.0, "source": "osm", "_tags": {"ele": "1203", "gnis:feature_id": "805797", "name": "Sheepherder Peak", "natural": "peak"}}, {"name": "Bloomfield Butte", "latitude": 47.5549816, "longitude": -109.2618418, "elevation": 1047.0, "source": "osm", "_tags": {"ele": "1047", "gnis:feature_id": "805805", "name": "Bloomfield Butte", "natural": "peak"}}, {"name": "Bald Butte", "latitude": 47.6158159, "longitude": -109.1729493, "elevation": 1060.0, "source": "osm", "_tags": {"ele": "1060", "gnis:feature_id": "805811", "name": "Bald Butte", "natural": "peak"}}, {"name": "Peck Hills", "latitude": 47.5433158, "longitude": -109.0721109, "elevation": 951.0, "source": "osm", "_tags": {"ele": "951", "gnis:feature_id": "805814", "name": "Peck Hills", "natural": "peak"}}, {"name": "Chase Hill", "latitude": 47.8005382, "longitude": -109.5651865, "elevation": 988.0, "source": "osm", "_tags": {"ele": "988", "gnis:feature_id": "806919", "name": "Chase Hill", "natural": "peak"}}, {"name": "Fortress Butte", "latitude": 47.7194327, "longitude": -108.8237716, "elevation": 807.0, "source": "osm", "_tags": {"ele": "807", "gnis:feature_id": "1722106", "name": "Fortress Butte", "natural": "peak"}}, {"name": "Echo Butte", "latitude": 47.9769282, "longitude": -109.5140759, "elevation": 1218.0, "source": "osm", "_tags": {"ele": "1218", "gnis:feature_id": "1722449", "name": "Echo Butte", "natural": "peak", "wikidata": "Q49027158"}}, {"name": "Three Buttes", "latitude": 48.1762905, "longitude": -108.7498597, "elevation": null, "source": "osm", "_tags": {"gnis:feature_id": "777599", "name": "Three Buttes", "natural": "peak"}}]