[{"name": "Baldy Butte", "latitude": 47.5605601, "longitude": -107.1298037, "elevation": 887.0, "source": "osm", "_tags": {"ele": "887", "gnis:feature_id": "768474", "name": "Baldy Butte", "natural": "peak"}}, {"name": "Barnard Buttes", "latitude": 47.7658341, "longitude": -107.5848281, "elevation": 904.0, "source": "osm", "_tags": {"ele": "904", "gnis:feature_id": "768515", "name": "Barnard Buttes", "natural": "peak"}}, {"name": "Brownie Butte", "latitude": 47.53056, "longitude": -107.0172974, "elevation": 876.0, "source": "osm", "_tags": {"ele": "876", "gnis:feature_id": "769290", "name": "Brownie Butte", "natural": "peak"}}, {"name": "Buffalo Hill", "latitude": 47.5852828, "longitude": -106.7667275, "elevation": 894.0, "source": "osm", "_tags": {"ele": "894", "gnis:feature_id": "769350", "name": "Buffalo Hill", "natural": "peak"}}, {"name": "Cap Rock Butte", "latitude": 47.4730563, "longitude": -107.6576037, "elevation": 915.0, "source": "osm", "_tags": {"ele": "915", "gnis:feature_id": "769582", "name": "Cap Rock Butte", "natural": "peak"}}, {"name": "Castle Butte", "latitude": 47.8252813, "longitude": -107.3884312, "elevation": 882.0, "source": "osm", "_tags": {"ele": "882", "gnis:feature_id": "769651", "name": "Castle Butte", "natural": "peak"}}, {"name": "Chalk Butte", "latitude": 47.5136141, "longitude": -107.3039787, "elevation": 979.0, "source": "osm", "_tags": {"ele": "979", "gnis:feature_id": "769739", "name": "Chalk Butte", "natural": "peak"}}, {"name": "Coal Mine Hill", "latitude": 47.8408338, "longitude": -107.5320498, "elevation": 1019.0, "source": "osm", "_tags": {"ele": "1019", "gnis:feature_id": "769995", "name": "Coal Mine Hill", "natural": "peak"}}, {"name": "Collins Hill", "latitude": 47.8833331, "longitude": -107.5320505, "elevation": 914.0, "source": "osm", "_tags": {"ele": "914", "gnis:feature_id": "770033", "name": "Collins Hill", "natural": "peak"}}, {"name": "Graveyard Hill", "latitude": 47.7816763, "longitude": -106.8728452, "elevation": 830.0, "source": "osm", "_tags": {"ele": "830", "gnis:feature_id": "771947", "name": "Graveyard Hill", "natural": "peak"}}, {"name": "Larb Hills", "latitude": 47.8225011, "longitude": -107.5126045, "elevation": 981.0, "source": "osm", "_tags": {"ele": "981", "gnis:feature_id": "773225", "name": "Larb Hills", "natural": "peak"}}, {"name": "Little Buffalo Hill", "latitude": 47.6838965, "longitude": -106.8172867, "elevation": 792.0, "source": "osm", "_tags": {"ele": "792", "gnis:feature_id": "773417", "name": "Little Buffalo Hill", "natural": "peak"}}, {"name": "Maloney Hill", "latitude": 47.5525045, "longitude": -106.8922903, "elevation": 813.0, "source": "osm", "_tags": {"ele": "813", "gnis:feature_id": "773848", "name": "Maloney Hill", "natural": "peak"}}, {"name": "Murray Hill", "latitude": 47.8102866, "longitude": -107.0442439, "elevation": 885.0, "source": "osm", "_tags": {"ele": "885", "gnis:feature_id": "774516", "name": "Murray Hill", "natural": "peak"}}, {"name": "Pikes Peak", "latitude": 47.3147504, "longitude": -106.8974807, "elevation": 815.0, "source": "osm", "_tags": {"ele": "815", "gnis:feature_id": "775223", "name": "Pikes Peak", "natural": "peak"}}, {"name": "Reynolds Hill", "latitude": 47.683611, "longitude": -107.6653848, "elevation": 758.0, "source": "osm", "_tags": {"ele": "758", "gnis:feature_id": "775737", "name": "Reynolds Hill", "natural": "peak"}}, {"name": "Round Butte", "latitude": 47.6508395, "longitude": -107.127582, "elevation": 855.0, "source": "osm", "_tags": {"ele": "855", "gnis:feature_id": "775981", "name": "Round Butte", "natural": "peak"}}, {"name": "Schuyler Butte", "latitude": 47.6761118, "longitude": -107.616772, "elevation": 865.0, "source": "osm", "_tags": {"ele": "865", "gnis:feature_id": "776294", "name": "Schuyler Butte", "natural": "peak"}}, {"name": "Seventh Point Buttes", "latitude": 47.8316781, "longitude": -106.6942218, "elevation": 803.0, "source": "osm", "_tags": {"ele": "803", "gnis:feature_id": "776370", "name": "Seventh Point Buttes", "natural": "peak"}}, {"name": "Square Butte", "latitude": 47.3655557, "longitude": -107.6020451, "elevation": 931.0, "source": "osm", "_tags": {"ele": "931", "gnis:feature_id": "777103", "name": "Square Butte", "natural": "peak"}}, {"name": "Table Top", "latitude": 47.5883346, "longitude": -107.5920475, "elevation": 920.0, "source": "osm", "_tags": {"ele": "920", "gnis:feature_id": "777400", "name": "Table Top", "natural": "peak"}}, {"name": "Two Buttes", "latitude": 47.9730697, "longitude": -106.7778353, "elevation": 684.0, "source": "osm", "_tags": {"ele": "684", "gnis:feature_id": "777867", "name": "Two Buttes", "natural": "peak"}}, {"name": "Smoky Butte", "latitude": 47.3319458, "longitude": -107.082854, "elevation": 913.0, "source": "osm", "_tags": {"ele": "913", "gnis:feature_id": "800100", "name": "Smoky Butte", "natural": "peak"}}, {"name": "Haystack Butte", "latitude": 47.4086134, "longitude": -107.1053562, "elevation": 907.0, "source": "osm", "_tags": {"ele": "907", "gnis:feature_id": "800101", "name": "Haystack Butte", "natural": "peak"}}, {"name": "Castle Butte", "latitude": 47.4072246, "longitude": -107.03063, "elevation": 856.0, "source": "osm", "_tags": {"ele": "856", "gnis:feature_id": "800102", "name": "Castle Butte", "natural": "peak"}}, {"name": "Sage Hen Buttes", "latitude": 47.4566698, "longitude": -107.0292417, "elevation": 913.0, "source": "osm", "_tags": {"ele": "913", "gnis:feature_id": "800105", "name": "Sage Hen Buttes", "natural": "peak"}}, {"name": "Biscuit Butte", "latitude": 47.4863923, "longitude": -107.0706332, "elevation": 922.0, "source": "osm", "_tags": {"ele": "922", "gnis:feature_id": "800111", "name": "Biscuit Butte", "natural": "peak"}}, {"name": "Spencer Point", "latitude": 48.2647236, "longitude": -107.2689763, "elevation": 733.0, "source": "osm", "_tags": {"ele": "733", "gnis:feature_id": "800306", "name": "Spencer Point", "natural": "peak"}}, {"name": "Dead Mans Hill", "latitude": 48.2144458, "longitude": -107.2787003, "elevation": 729.0, "source": "osm", "_tags": {"ele": "729", "gnis:feature_id": "805465", "name": "Dead Mans Hill", "natural": "peak"}}, {"name": "Square Butte", "latitude": 47.7725005, "longitude": -107.5948285, "elevation": 894.0, "source": "osm", "_tags": {"ele": "894", "gnis:feature_id": "806980", "name": "Square Butte", "natural": "peak"}}]