[{"name": "Eagle Mountain", "latitude": 47.8974238, "longitude": -90.5603422, "elevation": 701.0, "source": "osm", "_tags": {"ele": "701", "highest_point": "4", "name": "Eagle Mountain", "natural": "peak", "wikidata": "Q252204", "wikipedia": "en:Eagle Mountain (Minnesota)"}}, {"name": "Lookout Mountain", "latitude": 47.7136209, "longitude": -90.540393, "elevation": 350.0, "source": "osm", "_tags": {"ele": "350", "name": "Lookout Mountain", "natural": "peak"}}, {"name": "Moose Moutain", "latitude": 47.7210452, "longitude": -90.5093643, "elevation": 515.0, "source": "osm", "_tags": {"ele": "515", "name": "Moose Moutain", "natural": "peak"}}, {"name": "Mount Marny", "latitude": 48.2534855, "longitude": -90.0579532, "elevation": 616.0, "source": "osm", "_tags": {"ele": "616", "name": "Mount Marny", "natural": "peak", "wikidata": "Q22546456"}}, {"name": "Mount Edna", "latitude": 48.251671, "longitude": -90.042096, "elevation": 530.0, "source": "osm", "_tags": {"ele": "530", "name": "Mount Edna", "natural": "peak"}}, {"name": "Honeymoon Bluff", "latitude": 48.0563835, "longitude": -90.4150581, "elevation": 556.0, "source": "osm", "_tags": {"ele": "556", "name": "Honeymoon Bluff", "natural": "peak"}}, {"name": "Mt Maude", "latitude": 47.9746553, "longitude": -89.7590005, "elevation": 535.0, "source": "osm", "_tags": {"ele": "535", "name": "Mt Maude", "natural": "peak"}}, {"name": "Mt Sophie", "latitude": 47.9524289, "longitude": -89.8354394, "elevation": 550.0, "source": "osm", "_tags": {"ele": "550", "name": "Mt Sophie", "natural": "peak"}}, {"name": "Farquhar Peak", "latitude": 47.8775072, "longitude": -89.9210458, "elevation": 381.0, "source": "osm", "_tags": {"ele": "381", "name": "Farquhar Peak", "natural": "peak"}}, {"name": "Misquah Hills, highest Peak", "latitude": 47.9748713, "longitude": -90.5213726, "elevation": 659.0, "source": "osm", "_tags": {"ele": "659", "name": "Misquah Hills, highest Peak", "natural": "peak"}}, {"name": "Misquah Hills", "latitude": 47.9857018, "longitude": -90.5539576, "elevation": null, "source": "osm", "_tags": {"name": "Misquah Hills", "natural": "peak"}}, {"name": "Murphy Mountain", "latitude": 47.7575069, "longitude": -90.4339057, "elevation": 490.0, "source": "osm", "_tags": {"ele": "490", "name": "Murphy Mountain", "natural": "peak"}}, {"name": "Pincushion Mountain", "latitude": 47.7741319, "longitude": -90.2830924, "elevation": 482.0, "source": "osm", "_tags": {"ele": "482", "name": "Pincushion Mountain", "natural": "peak"}}, {"name": "Peak 2266", "latitude": 47.9311337, "longitude": -90.3722142, "elevation": 690.0, "source": "osm", "_tags": {"description": "Surveyed in 1961 this is the second highest point in Minnesota. ", "ele": "690", "name": "Peak 2266", "natural": "peak"}}, {"name": "Lima Mountain", "latitude": 47.9875421, "longitude": -90.4036541, "elevation": 682.0, "source": "osm", "_tags": {"ele": "682", "name": "Lima Mountain", "natural": "peak", "wikidata": "Q6548823", "wikipedia": "en:Lima Mountain"}}, {"name": "Point 2210", "latitude": 47.9990322, "longitude": -90.2298444, "elevation": 673.0, "source": "osm", "_tags": {"ele": "673", "name": "Point 2210", "natural": "peak"}}, {"name": "Pine Mountain", "latitude": 47.8948349, "longitude": -90.3267557, "elevation": null, "source": "osm", "_tags": {"gnis:feature_id": "659996", "name": "Pine Mountain", "natural": "peak"}}, {"name": "Moose Mountain", "latitude": 48.1065444, "longitude": -90.1456386, "elevation": null, "source": "osm", "_tags": {"gnis:feature_id": "657472", "name": "Moose Mountain", "natural": "peak"}}, {"name": "Farquhar Knob", "latitude": 47.8795565, "longitude": -90.00697, "elevation": null, "source": "osm", "_tags": {"gnis:feature_id": "655031", "name": "Farquhar Knob", "natural": "peak"}}, {"name": "Brule Mountain", "latitude": 47.930322, "longitude": -90.4470372, "elevation": null, "source": "osm", "_tags": {"gnis:feature_id": "655529", "name": "Brule Mountain", "natural": "peak"}}, {"name": "Sawtooth Bluff", "latitude": 47.7674129, "longitude": -90.3558485, "elevation": null, "source": "osm", "_tags": {"name": "Sawtooth Bluff", "natural": "peak"}}]