[{"name": "Mont Apica", "latitude": 47.9779265, "longitude": -71.431497, "elevation": null, "source": "osm", "_tags": {"name": "Mont Apica", "natural": "peak", "source": "NRCan-CanVec-7.0"}}, {"name": "Mont L.-A.-Richard", "latitude": 47.8041809, "longitude": -71.2496047, "elevation": null, "source": "osm", "_tags": {"name": "Mont L.-A.-Richard", "natural": "peak", "source": "NRCan-CanVec-7.0"}}, {"name": "Mont Camille-Pouliot", "latitude": 47.5646197, "longitude": -71.238645, "elevation": null, "source": "osm", "_tags": {"name": "Mont Camille-Pouliot", "natural": "peak", "source": "NRCan-CanVec-7.0"}}, {"name": "Mont François-De Laval", "latitude": 47.3841253, "longitude": -71.2172735, "elevation": null, "source": "osm", "_tags": {"name": "Mont François-De Laval", "natural": "peak", "source": "NRCan-CanVec-7.0"}}, {"name": "Mont Ovide", "latitude": 47.3405749, "longitude": -71.2076498, "elevation": 1030.0, "source": "osm", "_tags": {"ele": "1030", "name": "Mont Ovide", "natural": "peak"}}, {"name": "Mont Wilfrid-Pelletier", "latitude": 47.8147748, "longitude": -71.2311434, "elevation": 945.0, "source": "osm", "_tags": {"ele": "945", "name": "Mont Wilfrid-Pelletier", "natural": "peak", "wikidata": "Q111631151"}}]