[{"name": "Collines Amulet", "latitude": 48.3000269, "longitude": -79.0499143, "elevation": null, "source": "osm", "_tags": {"name": "Collines Amulet", "natural": "peak", "source": "NRCan-CanVec-10.0"}}, {"name": "Collines Amulet", "latitude": 48.307749, "longitude": -79.0842505, "elevation": null, "source": "osm", "_tags": {"name": "Collines Amulet", "natural": "peak", "source": "NRCan-CanVec-10.0"}}, {"name": "Crête à la Rouille", "latitude": 48.3142365, "longitude": -79.0965723, "elevation": null, "source": "osm", "_tags": {"name": "Crête à la Rouille", "natural": "peak", "source": "NRCan-CanVec-10.0"}}, {"name": "Mont Duprat", "latitude": 48.3537248, "longitude": -79.0656876, "elevation": 460.0, "source": "osm", "_tags": {"ele": "460", "name": "Mont Duprat", "natural": "peak", "source": "NRCan-CanVec-10.0"}}, {"name": "Collines Camac", "latitude": 48.3978045, "longitude": -79.0004005, "elevation": null, "source": "osm", "_tags": {"name": "Collines Camac", "natural": "peak", "source": "NRCan-CanVec-10.0"}}, {"name": "Collines Camac", "latitude": 48.4179167, "longitude": -79.0273983, "elevation": null, "source": "osm", "_tags": {"name": "Collines Camac", "natural": "peak", "source": "NRCan-CanVec-10.0"}}, {"name": "Monts Fabie", "latitude": 48.4005155, "longitude": -79.4411693, "elevation": null, "source": "osm", "_tags": {"name": "Monts Fabie", "natural": "peak", "source": "NRCan-CanVec-10.0"}}, {"name": "Monts Fabie", "latitude": 48.4126361, "longitude": -79.4274148, "elevation": null, "source": "osm", "_tags": {"name": "Monts Fabie", "natural": "peak", "source": "NRCan-CanVec-10.0"}}, {"name": "Mont Œil du Nord", "latitude": 48.3591144, "longitude": -79.3054912, "elevation": null, "source": "osm", "_tags": {"name": "Mont Œil du Nord", "natural": "peak", "source": "NRCan-CanVec-10.0"}}, {"name": "Monts Bourniol", "latitude": 48.3675769, "longitude": -79.2880732, "elevation": 497.0, "source": "osm", "_tags": {"alt_name": "Monts Bourniot", "description": "Anciennement Monts Bourniot", "ele": "497", "name": "Monts Bourniol", "natural": "peak", "source": "NRCan-CanVec-10.0"}}, {"name": "Collines Abijévis", "latitude": 48.4810389, "longitude": -78.7606031, "elevation": null, "source": "osm", "_tags": {"name": "Collines Abijévis", "natural": "peak", "source": "NRCan-CanVec-10.0"}}, {"name": "Collines Camac", "latitude": 48.3945394, "longitude": -78.9927446, "elevation": null, "source": "osm", "_tags": {"name": "Collines Camac", "natural": "peak", "source": "NRCan-CanVec-10.0"}}, {"name": "Collines David-Gourd", "latitude": 48.4664771, "longitude": -78.8018499, "elevation": null, "source": "osm", "_tags": {"name": "Collines David-Gourd", "natural": "peak", "source": "NRCan-CanVec-10.0"}}, {"name": "Collines Jumelles", "latitude": 48.4982386, "longitude": -78.7790255, "elevation": null, "source": "osm", "_tags": {"name": "Collines Jumelles", "natural": "peak", "source": "NRCan-CanVec-10.0"}}, {"name": "Le Pic", "latitude": 48.354973, "longitude": -79.0456697, "elevation": 450.0, "source": "osm", "_tags": {"ele": "450", "name": "Le Pic", "natural": "peak"}}, {"name": "Montagne à Fred", "latitude": 48.7246205, "longitude": -79.1292924, "elevation": null, "source": "osm", "_tags": {"name": "Montagne à Fred", "natural": "peak"}}, {"name": "", "latitude": 48.2998371, "longitude": -78.9536542, "elevation": null, "source": "osm", "_tags": {"description": "Québec Photogrammetrie G8692", "natural": "peak"}}, {"name": "Mont Dominant", "latitude": 48.4857005, "longitude": -78.7728854, "elevation": 570.0, "source": "osm", "_tags": {"ele": "570", "name": "Mont Dominant", "natural": "peak"}}, {"name": "Mont Maïgan", "latitude": 48.4626342, "longitude": -78.7414655, "elevation": 460.0, "source": "osm", "_tags": {"ele": "460", "name": "Mont Maïgan", "natural": "peak"}}, {"name": "Colline de l'Aigle", "latitude": 48.4608556, "longitude": -78.7631162, "elevation": 480.0, "source": "osm", "_tags": {"ele": "480", "name": "Colline de l'Aigle", "natural": "peak"}}, {"name": "Lawson Hill", "latitude": 48.3539828, "longitude": -79.674253, "elevation": null, "source": "osm", "_tags": {"name": "Lawson Hill", "natural": "peak"}}]