[{"name": "Aeneas Mountain", "latitude": 48.5132124, "longitude": -119.182262, "elevation": 1563.0, "source": "osm", "_tags": {"ele": "1563", "gnis:feature_id": "1515742", "name": "Aeneas Mountain", "natural": "peak"}}, {"name": "American Butte", "latitude": 48.9929346, "longitude": -119.6345215, "elevation": 722.0, "source": "osm", "_tags": {"ele": "722", "gnis:feature_id": "1515848", "name": "American Butte", "natural": "peak", "wikidata": "Q49008700"}}, {"name": "Mount Annie", "latitude": 48.6612707, "longitude": -119.0533734, "elevation": 1841.0, "source": "osm", "_tags": {"ele": "1841", "gnis:feature_id": "1515913", "name": "Mount Annie", "natural": "peak", "wikidata": "Q49051875"}}, {"name": "Bailey Mountain", "latitude": 48.5051574, "longitude": -119.1183704, "elevation": 1760.0, "source": "osm", "_tags": {"ele": "1760", "gnis:feature_id": "1516041", "name": "Bailey Mountain", "natural": "peak", "wikidata": "Q49009571"}}, {"name": "Bald Knob", "latitude": 48.4457157, "longitude": -118.8022491, "elevation": 1114.0, "source": "osm", "_tags": {"ele": "1114", "gnis:feature_id": "1516074", "name": "Bald Knob", "natural": "peak"}}, {"name": "Bald Peak", "latitude": 48.7248861, "longitude": -118.7255849, "elevation": 1185.0, "source": "osm", "_tags": {"ele": "1185", "gnis:feature_id": "1516090", "name": "Bald Peak", "natural": "peak"}}, {"name": "Bamber Mountain", "latitude": 48.9073925, "longitude": -118.7825358, "elevation": 1357.0, "source": "osm", "_tags": {"ele": "1357", "gnis:feature_id": "1516112", "name": "Bamber Mountain", "natural": "peak"}}, {"name": "Bannon Mountain", "latitude": 48.6076569, "longitude": -119.2442129, "elevation": 1530.0, "source": "osm", "_tags": {"ele": "1530", "gnis:feature_id": "1516124", "name": "Bannon Mountain", "natural": "peak", "wikidata": "Q49010653"}}, {"name": "Barber Mountain", "latitude": 49.0010137, "longitude": -119.69046, "elevation": 902.0, "source": "osm", "_tags": {"ele": "902", "gnis:feature_id": "1516126", "name": "Barber Mountain", "natural": "peak"}}, {"name": "Barker Mountain", "latitude": 48.6810633, "longitude": -119.3041723, "elevation": 1196.0, "source": "osm", "_tags": {"ele": "1196", "gnis:feature_id": "1516139", "name": "Barker Mountain", "natural": "peak", "wikidata": "Q49010782"}}, {"name": "Barrett Butte", "latitude": 48.5132165, "longitude": -118.7503052, "elevation": 1001.0, "source": "osm", "_tags": {"ele": "1001", "gnis:feature_id": "1516161", "name": "Barrett Butte", "natural": "peak"}}, {"name": "Beehive Mountain", "latitude": 48.5465449, "longitude": -119.2775447, "elevation": 1518.0, "source": "osm", "_tags": {"ele": "1518", "gnis:feature_id": "1516373", "name": "Beehive Mountain", "natural": "peak", "wikidata": "Q49011841"}}, {"name": "Bimetalic Mountain", "latitude": 48.8443349, "longitude": -119.1492134, "elevation": 1504.0, "source": "osm", "_tags": {"ele": "1504", "gnis:feature_id": "1516564", "name": "Bimetalic Mountain", "natural": "peak", "wikidata": "Q49012923"}}, {"name": "Block Hill", "latitude": 48.9960165, "longitude": -119.1625454, "elevation": 1473.0, "source": "osm", "_tags": {"ele": "1473", "gnis:feature_id": "1516606", "name": "Block Hill", "natural": "peak", "wikidata": "Q49014248"}}, {"name": "Bodie Mountain", "latitude": 48.827389, "longitude": -118.8314245, "elevation": 1718.0, "source": "osm", "_tags": {"ele": "1718", "gnis:feature_id": "1516747", "name": "Bodie Mountain", "natural": "peak"}}, {"name": "Mount Bonaparte", "latitude": 48.7851628, "longitude": -119.1222684, "elevation": 2212.0, "source": "osm", "_tags": {"ele": "2212", "gnis:feature_id": "1516784", "name": "Mount Bonaparte", "natural": "peak"}}, {"name": "Brown Mountain", "latitude": 48.5543292, "longitude": -118.7147483, "elevation": 1232.0, "source": "osm", "_tags": {"ele": "1232", "gnis:feature_id": "1516983", "name": "Brown Mountain", "natural": "peak"}}, {"name": "Buckhorn Mountain", "latitude": 48.9460096, "longitude": -118.9855963, "elevation": 1703.0, "source": "osm", "_tags": {"ele": "1703", "gnis:feature_id": "1517055", "name": "Buckhorn Mountain", "natural": "peak", "wikidata": "Q49016317"}}, {"name": "Bullfrog Mountain", "latitude": 48.9126549, "longitude": -119.5717397, "elevation": 1312.0, "source": "osm", "_tags": {"ele": "1312", "gnis:feature_id": "1517082", "name": "Bullfrog Mountain", "natural": "peak", "wikidata": "Q49016661"}}, {"name": "Burge Mountain", "latitude": 48.7818272, "longitude": -119.2664418, "elevation": 1325.0, "source": "osm", "_tags": {"ele": "1325", "gnis:feature_id": "1517108", "name": "Burge Mountain", "natural": "peak", "wikidata": "Q49016843"}}, {"name": "Buster Mountain", "latitude": 48.858503, "longitude": -119.0730992, "elevation": 1413.0, "source": "osm", "_tags": {"ele": "1413", "gnis:feature_id": "1517142", "name": "Buster Mountain", "natural": "peak", "wikidata": "Q49017167"}}, {"name": "Camel Back", "latitude": 48.5804408, "longitude": -118.7091929, "elevation": 1163.0, "source": "osm", "_tags": {"ele": "1163", "gnis:feature_id": "1517238", "name": "Camel Back", "natural": "peak"}}, {"name": "Carter Mountain", "latitude": 48.6270956, "longitude": -119.5636718, "elevation": 909.0, "source": "osm", "_tags": {"ele": "909", "gnis:feature_id": "1517434", "name": "Carter Mountain", "natural": "peak", "wikidata": "Q49018293", "wikipedia": "ceb:Carter Mountain (bukid sa Tinipong Bansa, Washington)"}}, {"name": "Cave Mountain", "latitude": 48.5293178, "longitude": -119.6058909, "elevation": 864.0, "source": "osm", "_tags": {"ele": "864", "gnis:feature_id": "1517514", "name": "Cave Mountain", "natural": "peak", "wikidata": "Q49018805"}}, {"name": "Cayuse Mountain", "latitude": 48.6993251, "longitude": -119.1653244, "elevation": 1568.0, "source": "osm", "_tags": {"ele": "1568", "gnis:feature_id": "1517520", "name": "Cayuse Mountain", "natural": "peak", "wikidata": "Q49018828"}}, {"name": "Cayuse Mountain", "latitude": 48.7545952, "longitude": -119.5434004, "elevation": 470.0, "source": "osm", "_tags": {"ele": "470", "gnis:feature_id": "1517521", "name": "Cayuse Mountain", "natural": "peak", "wikidata": "Q49018831"}}, {"name": "Central Peak", "latitude": 48.3687706, "longitude": -118.8444704, "elevation": 1454.0, "source": "osm", "_tags": {"ele": "1454", "gnis:feature_id": "1517598", "name": "Central Peak", "natural": "peak"}}, {"name": "Clackmas Mountain", "latitude": 48.7215507, "longitude": -118.9047585, "elevation": 1662.0, "source": "osm", "_tags": {"ele": "1662", "gnis:feature_id": "1517795", "name": "Clackmas Mountain", "natural": "peak", "wikidata": "Q49020801"}}, {"name": "Coco Mountain", "latitude": 48.5698825, "longitude": -118.8853097, "elevation": 1410.0, "source": "osm", "_tags": {"ele": "1410", "gnis:feature_id": "1517909", "name": "Coco Mountain", "natural": "peak", "wikidata": "Q49021294"}}, {"name": "Coleman Butte", "latitude": 48.4340555, "longitude": -119.502958, "elevation": 442.0, "source": "osm", "_tags": {"ele": "442", "gnis:feature_id": "1517948", "name": "Coleman Butte", "natural": "peak", "wikidata": "Q49021436", "wikipedia": "ceb:Coleman Butte (bukid sa Tinipong Bansa, Washington)"}}, {"name": "Copper Mountain", "latitude": 48.622384, "longitude": -118.7897526, "elevation": 1327.0, "source": "osm", "_tags": {"ele": "1327", "gnis:feature_id": "1518093", "name": "Copper Mountain", "natural": "peak"}}, {"name": "Cornell Butte", "latitude": 48.5940494, "longitude": -118.8900326, "elevation": 1541.0, "source": "osm", "_tags": {"ele": "1541", "gnis:feature_id": "1518111", "name": "Cornell Butte", "natural": "peak", "wikidata": "Q49022120"}}, {"name": "Corner Butte", "latitude": 48.6293271, "longitude": -118.9372571, "elevation": 1433.0, "source": "osm", "_tags": {"ele": "1433", "gnis:feature_id": "1518113", "name": "Corner Butte", "natural": "peak", "wikidata": "Q49022125"}}, {"name": "Cumberland Mountain", "latitude": 48.810166, "longitude": -118.9586506, "elevation": 1413.0, "source": "osm", "_tags": {"ele": "1413", "gnis:feature_id": "1518410", "name": "Cumberland Mountain", "natural": "peak", "wikidata": "Q49023339"}}, {"name": "Duffys Mountain", "latitude": 48.7318207, "longitude": -119.3889475, "elevation": 719.0, "source": "osm", "_tags": {"ele": "719", "gnis:feature_id": "1518995", "name": "Duffys Mountain", "natural": "peak", "wikidata": "Q49026073"}}, {"name": "Dugout Mountain", "latitude": 48.497381, "longitude": -118.9614206, "elevation": 1623.0, "source": "osm", "_tags": {"ele": "1623", "gnis:feature_id": "1518997", "name": "Dugout Mountain", "natural": "peak", "wikidata": "Q49026100"}}, {"name": "Dunn Mountain", "latitude": 48.5645947, "longitude": -119.6467285, "elevation": 1064.0, "source": "osm", "_tags": {"ele": "1064", "gnis:feature_id": "1519015", "name": "Dunn Mountain", "natural": "peak", "wikidata": "Q49026259", "wikipedia": "ceb:Dunn Mountain (bukid sa Tinipong Bansa, Washington, Okanogan County)"}}, {"name": "Ellemeham Mountain", "latitude": 48.9426554, "longitude": -119.6242422, "elevation": 1324.0, "source": "osm", "_tags": {"ele": "1324", "gnis:feature_id": "1519303", "name": "Ellemeham Mountain", "natural": "peak", "wikidata": "Q49027909"}}, {"name": "Fir Mountain", "latitude": 48.6651609, "longitude": -118.9344802, "elevation": 1713.0, "source": "osm", "_tags": {"ele": "1713", "gnis:feature_id": "1519550", "name": "Fir Mountain", "natural": "peak", "wikidata": "Q49028918"}}, {"name": "Flatiron", "latitude": 48.6740398, "longitude": -119.5608966, "elevation": 809.0, "source": "osm", "_tags": {"ele": "809", "gnis:feature_id": "1519645", "name": "Flatiron", "natural": "peak", "wikidata": "Q49029564"}}, {"name": "Gibraltar Mountain", "latitude": 48.6346079, "longitude": -118.7083603, "elevation": 1145.0, "source": "osm", "_tags": {"ele": "1145", "gnis:feature_id": "1519942", "name": "Gibraltar Mountain", "natural": "peak"}}, {"name": "Grandview Mountain", "latitude": 48.894598, "longitude": -119.6703534, "elevation": 1032.0, "source": "osm", "_tags": {"ele": "1032", "gnis:feature_id": "1520202", "name": "Grandview Mountain", "natural": "peak", "wikidata": "Q49032672"}}, {"name": "Granite Mountain", "latitude": 48.4648798, "longitude": -119.0625342, "elevation": 1405.0, "source": "osm", "_tags": {"ele": "1405", "gnis:feature_id": "1520230", "name": "Granite Mountain", "natural": "peak", "wikidata": "Q49032796"}}, {"name": "Graphite Mountain", "latitude": 48.9735078, "longitude": -118.8322603, "elevation": 1308.0, "source": "osm", "_tags": {"ele": "1308", "gnis:feature_id": "1520246", "name": "Graphite Mountain", "natural": "peak"}}, {"name": "Haley Mountain", "latitude": 48.8729467, "longitude": -119.2850528, "elevation": 1547.0, "source": "osm", "_tags": {"ele": "1547", "gnis:feature_id": "1520453", "name": "Haley Mountain", "natural": "peak", "wikidata": "Q49034551"}}, {"name": "Hardscrabble Mountain", "latitude": 48.80461, "longitude": -118.8189237, "elevation": 1620.0, "source": "osm", "_tags": {"ele": "1620", "gnis:feature_id": "1520539", "name": "Hardscrabble Mountain", "natural": "peak"}}, {"name": "Harvard Mountain", "latitude": 48.7993319, "longitude": -118.8497579, "elevation": 1484.0, "source": "osm", "_tags": {"ele": "1484", "gnis:feature_id": "1520589", "name": "Harvard Mountain", "natural": "peak", "wikidata": "Q49035161"}}, {"name": "Hee Hee Mountain", "latitude": 48.9176754, "longitude": -119.1567129, "elevation": 1346.0, "source": "osm", "_tags": {"ele": "1346", "gnis:feature_id": "1520672", "name": "Hee Hee Mountain", "natural": "peak", "wikidata": "Q49035834"}}, {"name": "Horse Mountain", "latitude": 48.713487, "longitude": -119.4053362, "elevation": 454.0, "source": "osm", "_tags": {"ele": "454", "gnis:feature_id": "1520936", "name": "Horse Mountain", "natural": "peak", "wikidata": "Q49037383"}}, {"name": "Horseshoe Mountain", "latitude": 48.771275, "longitude": -118.8283679, "elevation": 1673.0, "source": "osm", "_tags": {"ele": "1673", "gnis:feature_id": "1520964", "name": "Horseshoe Mountain", "natural": "peak"}}, {"name": "Mount Hull", "latitude": 48.8960005, "longitude": -119.3383901, "elevation": 1387.0, "source": "osm", "_tags": {"ele": "1387", "gnis:feature_id": "1521054", "name": "Mount Hull", "natural": "peak", "wikidata": "Q49053125"}}, {"name": "Irene Mountain", "latitude": 48.7946093, "longitude": -118.9325385, "elevation": 1434.0, "source": "osm", "_tags": {"ele": "1434", "gnis:feature_id": "1521230", "name": "Irene Mountain", "natural": "peak", "wikidata": "Q49038903"}}, {"name": "Island Mountain", "latitude": 48.7004351, "longitude": -119.2542174, "elevation": 1223.0, "source": "osm", "_tags": {"ele": "1223", "gnis:feature_id": "1521269", "name": "Island Mountain", "natural": "peak", "wikidata": "Q49039243"}}, {"name": "Jackass Butte", "latitude": 48.3537199, "longitude": -119.5635607, "elevation": 526.0, "source": "osm", "_tags": {"ele": "526", "gnis:feature_id": "1521298", "name": "Jackass Butte", "natural": "peak", "wikidata": "Q49039365"}}, {"name": "Kelly Mountain", "latitude": 48.8162773, "longitude": -118.7964232, "elevation": 1516.0, "source": "osm", "_tags": {"ele": "1516", "gnis:feature_id": "1521603", "name": "Kelly Mountain", "natural": "peak"}}, {"name": "Klondike Mountain", "latitude": 48.6871085, "longitude": -118.704472, "elevation": 1221.0, "source": "osm", "_tags": {"ele": "1221", "gnis:feature_id": "1521736", "name": "Klondike Mountain", "natural": "peak"}}, {"name": "Knob Hill", "latitude": 48.8607254, "longitude": -119.1608803, "elevation": 1486.0, "source": "osm", "_tags": {"ele": "1486", "gnis:feature_id": "1521751", "name": "Knob Hill", "natural": "peak", "wikidata": "Q49042149"}}, {"name": "Kruger Mountain", "latitude": 48.9879359, "longitude": -119.4942392, "elevation": 836.0, "source": "osm", "_tags": {"ele": "836", "gnis:feature_id": "1521776", "name": "Kruger Mountain", "natural": "peak", "wikidata": "Q49042484"}}, {"name": "Leader Mountain", "latitude": 48.3656776, "longitude": -119.6583562, "elevation": 976.0, "source": "osm", "_tags": {"ele": "976", "gnis:feature_id": "1521974", "name": "Leader Mountain", "natural": "peak", "wikidata": "Q49043798", "wikipedia": "ceb:Leader Mountain (bukid sa Tinipong Bansa, Washington)"}}, {"name": "Little Bonaparte Mountain", "latitude": 48.7015487, "longitude": -119.0717091, "elevation": 1382.0, "source": "osm", "_tags": {"ele": "1382", "gnis:feature_id": "1522166", "name": "Little Bonaparte Mountain", "natural": "peak", "wikidata": "Q49044699"}}, {"name": "Little Moses Mountain", "latitude": 48.4146019, "longitude": -119.0400324, "elevation": 1818.0, "source": "osm", "_tags": {"ele": "1818", "gnis:feature_id": "1522265", "name": "Little Moses Mountain", "natural": "peak", "wikidata": "Q49045152"}}, {"name": "Little Whisky Mountain", "latitude": 48.7995994, "longitude": -119.440341, "elevation": 624.0, "source": "osm", "_tags": {"ele": "624", "gnis:feature_id": "1522321", "name": "Little Whisky Mountain", "natural": "peak", "wikidata": "Q49045685"}}, {"name": "Manhattan Mountain", "latitude": 48.8029433, "longitude": -118.8369798, "elevation": 1560.0, "source": "osm", "_tags": {"ele": "1560", "gnis:feature_id": "1522674", "name": "Manhattan Mountain", "natural": "peak", "wikidata": "Q49047747"}}, {"name": "Maple Mountain", "latitude": 48.7212735, "longitude": -118.8428119, "elevation": 1578.0, "source": "osm", "_tags": {"ele": "1578", "gnis:feature_id": "1522696", "name": "Maple Mountain", "natural": "peak", "wikidata": "Q6753949"}}, {"name": "McDonald Mountain", "latitude": 48.9093338, "longitude": -119.351169, "elevation": 1210.0, "source": "osm", "_tags": {"ele": "1210", "gnis:feature_id": "1522891", "name": "McDonald Mountain", "natural": "peak", "wikidata": "Q49048740"}}, {"name": "Meader Mountain", "latitude": 48.5904327, "longitude": -119.3567165, "elevation": 1302.0, "source": "osm", "_tags": {"ele": "1302", "gnis:feature_id": "1522945", "name": "Meader Mountain", "natural": "peak", "wikidata": "Q49049020"}}, {"name": "Molson Hill", "latitude": 48.9724034, "longitude": -119.1847685, "elevation": 1359.0, "source": "osm", "_tags": {"ele": "1359", "gnis:feature_id": "1523308", "name": "Molson Hill", "natural": "peak", "wikidata": "Q49050932"}}, {"name": "Moses Mountain", "latitude": 48.3715459, "longitude": -119.0611434, "elevation": 2061.0, "source": "osm", "_tags": {"ele": "2061", "gnis:feature_id": "1523388", "name": "Moses Mountain", "natural": "peak", "wikidata": "Q49051691"}}, {"name": "Omak Mountain", "latitude": 48.4493215, "longitude": -119.3089316, "elevation": 1747.0, "source": "osm", "_tags": {"ele": "1747", "gnis:feature_id": "1524052", "name": "Omak Mountain", "natural": "peak", "wikidata": "Q49058659"}}, {"name": "Palmer Mountain", "latitude": 48.8707091, "longitude": -119.5861833, "elevation": 1308.0, "source": "osm", "_tags": {"ele": "1308", "gnis:feature_id": "1524156", "name": "Palmer Mountain", "natural": "peak", "wikidata": "Q49059544"}}, {"name": "Mount Phoebe", "latitude": 48.7787724, "longitude": -119.2114392, "elevation": 1765.0, "source": "osm", "_tags": {"ele": "1765", "gnis:feature_id": "1524397", "name": "Mount Phoebe", "natural": "peak", "wikidata": "Q49054017"}}, {"name": "Pickens Mountain", "latitude": 48.7943238, "longitude": -119.3808928, "elevation": 846.0, "source": "osm", "_tags": {"ele": "846", "gnis:feature_id": "1524401", "name": "Pickens Mountain", "natural": "peak", "wikidata": "Q49061033"}}, {"name": "Pogue Mountain", "latitude": 48.4329287, "longitude": -119.6128337, "elevation": 863.0, "source": "osm", "_tags": {"ele": "863", "gnis:feature_id": "1524529", "name": "Pogue Mountain", "natural": "peak", "wikidata": "Q49062801", "wikipedia": "ceb:Pogue Mountain (bukid sa Tinipong Bansa, Washington)"}}, {"name": "Porphyry Peak", "latitude": 48.9585116, "longitude": -119.0600429, "elevation": 1187.0, "source": "osm", "_tags": {"ele": "1187", "gnis:feature_id": "1524580", "name": "Porphyry Peak", "natural": "peak", "wikidata": "Q49063489"}}, {"name": "Rattlesnake Mountain", "latitude": 48.8429298, "longitude": -119.6734077, "elevation": 812.0, "source": "osm", "_tags": {"ele": "812", "gnis:feature_id": "1524895", "name": "Rattlesnake Mountain", "natural": "peak", "wikidata": "Q49066862"}}, {"name": "Reed Mountain", "latitude": 48.3859831, "longitude": -119.6889491, "elevation": 1266.0, "source": "osm", "_tags": {"ele": "1266", "gnis:feature_id": "1524972", "name": "Reed Mountain", "natural": "peak", "wikidata": "Q49068128", "wikipedia": "ceb:Reed Mountain (bukid sa Tinipong Bansa, Washington)"}}, {"name": "Schalow Mountain", "latitude": 48.583483, "longitude": -119.6850648, "elevation": 1157.0, "source": "osm", "_tags": {"ele": "1157", "gnis:feature_id": "1525494", "name": "Schalow Mountain", "natural": "peak", "wikidata": "Q49071754"}}, {"name": "Sheep Mountain", "latitude": 48.5432162, "longitude": -118.8175296, "elevation": 1156.0, "source": "osm", "_tags": {"ele": "1156", "gnis:feature_id": "1525646", "name": "Sheep Mountain", "natural": "peak"}}, {"name": "Sneed Mountain", "latitude": 48.5729353, "longitude": -119.1603191, "elevation": 1517.0, "source": "osm", "_tags": {"ele": "1517", "gnis:feature_id": "1526004", "name": "Sneed Mountain", "natural": "peak", "wikidata": "Q49075040"}}, {"name": "Spur Mountain", "latitude": 48.8090543, "longitude": -119.0808775, "elevation": 1829.0, "source": "osm", "_tags": {"ele": "1829", "gnis:feature_id": "1526443", "name": "Spur Mountain", "natural": "peak", "wikidata": "Q49076965"}}, {"name": "Storm King Mountain", "latitude": 48.7179405, "longitude": -118.8014215, "elevation": 1639.0, "source": "osm", "_tags": {"ele": "1639", "gnis:feature_id": "1526596", "name": "Storm King Mountain", "natural": "peak"}}, {"name": "Strawberry Mountain", "latitude": 48.4509921, "longitude": -118.9372524, "elevation": 1781.0, "source": "osm", "_tags": {"ele": "1781", "gnis:feature_id": "1526629", "name": "Strawberry Mountain", "natural": "peak", "wikidata": "Q49078786"}}, {"name": "Strawberry Mountain", "latitude": 48.8409828, "longitude": -119.0357558, "elevation": 1445.1, "source": "osm", "_tags": {"ele": "1445.1", "gnis:feature_id": "1526630", "name": "Strawberry Mountain", "natural": "peak", "wikidata": "Q49078787"}}, {"name": "Strawberry Mountain", "latitude": 48.9712908, "longitude": -119.0861547, "elevation": 1333.0, "source": "osm", "_tags": {"ele": "1333", "gnis:feature_id": "1526631", "name": "Strawberry Mountain", "natural": "peak", "wikidata": "Q49078792"}}, {"name": "Swan Butte", "latitude": 48.5073823, "longitude": -118.8375293, "elevation": 1133.0, "source": "osm", "_tags": {"ele": "1133", "gnis:feature_id": "1526833", "name": "Swan Butte", "natural": "peak"}}, {"name": "Toroda Mountain", "latitude": 48.7632183, "longitude": -118.9383717, "elevation": 1415.0, "source": "osm", "_tags": {"ele": "1415", "gnis:feature_id": "1527316", "name": "Toroda Mountain", "natural": "peak", "wikidata": "Q49084373"}}, {"name": "Tunk Mountain", "latitude": 48.5457121, "longitude": -119.2361543, "elevation": 1845.0, "source": "osm", "_tags": {"ele": "1845", "gnis:feature_id": "1527461", "name": "Tunk Mountain", "natural": "peak", "wikidata": "Q49085199"}}, {"name": "Van Brunt Mountain", "latitude": 48.4232101, "longitude": -119.3164314, "elevation": 1574.0, "source": "osm", "_tags": {"ele": "1574", "gnis:feature_id": "1527664", "name": "Van Brunt Mountain", "natural": "peak", "wikidata": "Q49086846"}}, {"name": "Wauconda Summit", "latitude": 48.7259947, "longitude": -118.9536493, "elevation": 1417.0, "source": "osm", "_tags": {"ele": "1417", "gnis:feature_id": "1527857", "name": "Wauconda Summit", "natural": "peak", "wikidata": "Q49087858"}}, {"name": "Whitestone Mountain", "latitude": 48.772097, "longitude": -119.4747867, "elevation": 861.0, "source": "osm", "_tags": {"ele": "861", "gnis:feature_id": "1528102", "name": "Whitestone Mountain", "natural": "peak", "wikidata": "Q49089642"}}, {"name": "Wilcox Mountain", "latitude": 48.8585027, "longitude": -119.2544951, "elevation": 1326.0, "source": "osm", "_tags": {"ele": "1326", "gnis:feature_id": "1528122", "name": "Wilcox Mountain", "natural": "peak", "wikidata": "Q49089819"}}, {"name": "Gordon Butte", "latitude": 48.3859874, "longitude": -119.3244866, "elevation": 868.0, "source": "osm", "_tags": {"ele": "868", "gnis:feature_id": "1528629", "name": "Gordon Butte", "natural": "peak", "wikidata": "Q49032401"}}, {"name": "Timerick Mountain", "latitude": 48.3534832, "longitude": -119.6714478, "elevation": 856.0, "source": "osm", "_tags": {"ele": "856", "gnis:feature_id": "1528647", "name": "Timerick Mountain", "natural": "peak", "wikidata": "Q49083881", "wikipedia": "ceb:Timerick Mountain"}}, {"name": "Baker Mountain", "latitude": 48.5951541, "longitude": -119.400885, "elevation": 1022.0, "source": "osm", "_tags": {"ele": "1022", "gnis:feature_id": "1528673", "name": "Baker Mountain", "natural": "peak", "wikidata": "Q49009633"}}, {"name": "Stowe Mountain", "latitude": 48.6026536, "longitude": -119.4272753, "elevation": 1026.0, "source": "osm", "_tags": {"ele": "1026", "gnis:feature_id": "1528675", "name": "Stowe Mountain", "natural": "peak", "wikidata": "Q49078687"}}, {"name": "Jones Hill", "latitude": 48.8032071, "longitude": -119.5906258, "elevation": 634.0, "source": "osm", "_tags": {"ele": "634", "gnis:feature_id": "1528695", "name": "Jones Hill", "natural": "peak", "wikidata": "Q49040166"}}, {"name": "White Rock", "latitude": 48.8343197, "longitude": -119.5306246, "elevation": 945.0, "source": "osm", "_tags": {"ele": "945", "gnis:feature_id": "1528696", "name": "White Rock", "natural": "peak", "wikidata": "Q49089494"}}, {"name": "Chilson Mountain", "latitude": 48.5587622, "longitude": -119.6028368, "elevation": 931.0, "source": "osm", "_tags": {"ele": "931", "gnis:feature_id": "1528745", "name": "Chilson Mountain", "natural": "peak", "wikidata": "Q49020209"}}, {"name": "Powers Butte", "latitude": 48.5207118, "longitude": -119.2517094, "elevation": 1261.0, "source": "osm", "_tags": {"ele": "1261", "gnis:feature_id": "1528748", "name": "Powers Butte", "natural": "peak", "wikidata": "Q49063956"}}, {"name": "Aeneas Mountain", "latitude": 48.743193, "longitude": -119.622389, "elevation": 1568.0, "source": "osm", "_tags": {"alt_name": "Lemanasky Mountain", "ele": "1568", "gnis:feature_id": "1515743", "name": "Aeneas Mountain", "natural": "peak", "note": "This summit has at least three obsolete GNIS entries: 1515742, 1528850, and 1522008 (in addition to the current entry: 1515743)"}}, {"name": "Lime Belt", "latitude": 48.5484845, "longitude": -119.5956136, "elevation": 771.0, "source": "osm", "_tags": {"ele": "771", "gnis:feature_id": "1528887", "name": "Lime Belt", "natural": "peak", "wikidata": "Q49044221"}}, {"name": "Three Buttes", "latitude": 48.4384636, "longitude": -119.5604796, "elevation": 443.0, "source": "osm", "_tags": {"ele": "443", "gnis:feature_id": "1529122", "name": "Three Buttes", "natural": "peak", "wikidata": "Q49083352", "wikipedia": "ceb:Three Buttes (bukid sa Tinipong Bansa, Washington, Okanogan County, lat 48,44, long -119,56)"}}, {"name": "Mount Olive", "latitude": 48.4957083, "longitude": -119.5158838, "elevation": 473.0, "source": "osm", "_tags": {"ele": "473", "gnis:feature_id": "1529125", "name": "Mount Olive", "natural": "peak", "wikidata": "Q49053873"}}, {"name": "Glover Mountain", "latitude": 48.3882066, "longitude": -119.5800536, "elevation": 483.0, "source": "osm", "_tags": {"ele": "483", "gnis:feature_id": "1529137", "name": "Glover Mountain", "natural": "peak", "wikidata": "Q49031702", "wikipedia": "ceb:Glover Mountain (bukid sa Tinipong Bansa, Washington)"}}, {"name": "Harris Mountain", "latitude": 48.344039, "longitude": -119.6522798, "elevation": 727.0, "source": "osm", "_tags": {"ele": "727", "gnis:feature_id": "1529671", "name": "Harris Mountain", "natural": "peak", "wikidata": "Q49035087", "wikipedia": "ceb:Harris Mountain (bukid sa Tinipong Bansa, Washington)"}}, {"name": "Mulcahy Mountain", "latitude": 48.9132104, "longitude": -119.5706284, "elevation": 1315.0, "source": "osm", "_tags": {"ele": "1315", "gnis:feature_id": "1529746", "name": "Mulcahy Mountain", "natural": "peak", "wikidata": "Q49055629"}}, {"name": "Short Mountain", "latitude": 48.5545969, "longitude": -119.5097757, "elevation": 613.0, "source": "osm", "_tags": {"ele": "613", "gnis:feature_id": "1531511", "name": "Short Mountain", "natural": "peak", "wikidata": "Q49073503"}}, {"name": "Whisky Mountain", "latitude": 48.8279329, "longitude": -119.4647876, "elevation": 869.0, "source": "osm", "_tags": {"ele": "869", "gnis:feature_id": "1533516", "name": "Whisky Mountain", "natural": "peak", "wikidata": "Q49089077"}}, {"name": "Orofino Mountain", "latitude": 49.2476913, "longitude": -119.6776703, "elevation": 1595.0, "source": "osm", "_tags": {"ele": "1595", "name": "Orofino Mountain", "natural": "peak", "source": "NRCan-CanVec-7.0"}}, {"name": "Richter Mountain", "latitude": 49.059237, "longitude": -119.6753307, "elevation": 1368.0, "source": "osm", "_tags": {"ele": "1368", "name": "Richter Mountain", "natural": "peak", "source": "NRCan-CanVec-7.0"}}, {"name": "Mount Kobau", "latitude": 49.1113225, "longitude": -119.6672407, "elevation": 1873.0, "source": "osm", "_tags": {"ele": "1873", "name": "Mount Kobau", "natural": "peak", "source": "NRCan-CanVec-7.0"}}, {"name": "Coyote Point", "latitude": 48.5252591, "longitude": -119.5379193, "elevation": 637.0, "source": "osm", "_tags": {"ele": "637", "name": "Coyote Point", "natural": "peak"}}, {"name": "Copper Mountain", "latitude": 48.9513958, "longitude": -119.451217, "elevation": null, "source": "osm", "_tags": {"name": "Copper Mountain", "natural": "peak", "source": "USGS"}}, {"name": "Baldy Mountain", "latitude": 49.1657881, "longitude": -119.2542726, "elevation": 2310.0, "source": "osm", "_tags": {"ele": "2310", "name": "Baldy Mountain", "natural": "peak", "source": "NRCan-CanVec-10.0"}}, {"name": "Anarchist Summit", "latitude": 49.0169777, "longitude": -119.202442, "elevation": 1236.0, "source": "osm", "_tags": {"ele": "1236", "mountain_pass": "yes", "name": "Anarchist Summit", "natural": "peak"}}, {"name": "", "latitude": 48.4334932, "longitude": -119.5566666, "elevation": 442.0, "source": "osm", "_tags": {"ele": "442", "natural": "peak"}}, {"name": "", "latitude": 48.4350379, "longitude": -119.5547676, "elevation": 433.0, "source": "osm", "_tags": {"ele": "433", "natural": "peak"}}, {"name": "Oliver Mountain", "latitude": 49.1922226, "longitude": -119.584996, "elevation": 720.0, "source": "osm", "_tags": {"ele": "720", "name": "Oliver Mountain", "natural": "peak"}}, {"name": "", "latitude": 48.5891707, "longitude": -119.009686, "elevation": 1143.305, "source": "osm", "_tags": {"ele": "1143.305", "natural": "peak"}}, {"name": "", "latitude": 48.5850185, "longitude": -119.0140442, "elevation": 1126.541, "source": "osm", "_tags": {"ele": "1126.541", "natural": "peak"}}]