[{"name": "Dighans Hill", "latitude": 48.8114142, "longitude": -105.8627892, "elevation": 916.0, "source": "osm", "_tags": {"ele": "916", "gnis:feature_id": "770652", "name": "Dighans Hill", "natural": "peak"}}, {"name": "Glass Hill", "latitude": 48.8825252, "longitude": -106.2630822, "elevation": 960.0, "source": "osm", "_tags": {"ele": "960", "gnis:feature_id": "771795", "name": "Glass Hill", "natural": "peak"}}, {"name": "Gregerson Hill", "latitude": 48.8530809, "longitude": -105.8908465, "elevation": 908.0, "source": "osm", "_tags": {"ele": "908", "gnis:feature_id": "771986", "name": "Gregerson Hill", "natural": "peak"}}, {"name": "Haugens Hill", "latitude": 48.5869691, "longitude": -105.8900108, "elevation": 899.0, "source": "osm", "_tags": {"ele": "899", "gnis:feature_id": "772202", "name": "Haugens Hill", "natural": "peak"}}, {"name": "Johnnys Hill", "latitude": 48.7380817, "longitude": -106.086685, "elevation": 930.0, "source": "osm", "_tags": {"ele": "930", "gnis:feature_id": "772853", "name": "Johnnys Hill", "natural": "peak"}}, {"name": "Jones Hill", "latitude": 48.8525249, "longitude": -105.8269551, "elevation": 877.0, "source": "osm", "_tags": {"ele": "877", "gnis:feature_id": "772895", "name": "Jones Hill", "natural": "peak"}}, {"name": "Kaminski Hill", "latitude": 48.9483583, "longitude": -106.1939144, "elevation": 948.0, "source": "osm", "_tags": {"ele": "948", "gnis:feature_id": "772934", "name": "Kaminski Hill", "natural": "peak"}}, {"name": "Richland Hill", "latitude": 48.8228039, "longitude": -106.0016835, "elevation": 872.0, "source": "osm", "_tags": {"ele": "872", "gnis:feature_id": "775752", "name": "Richland Hill", "natural": "peak"}}, {"name": "Slaughter Hill", "latitude": 48.8661361, "longitude": -105.8547342, "elevation": 842.0, "source": "osm", "_tags": {"ele": "842", "gnis:feature_id": "776631", "name": "Slaughter Hill", "natural": "peak"}}, {"name": "Sundby Hill", "latitude": 48.7944697, "longitude": -105.8569555, "elevation": 885.0, "source": "osm", "_tags": {"ele": "885", "gnis:feature_id": "777323", "name": "Sundby Hill", "natural": "peak"}}, {"name": "White Highland Hills", "latitude": 48.7489151, "longitude": -106.1050189, "elevation": 943.0, "source": "osm", "_tags": {"ele": "943", "gnis:feature_id": "778379", "name": "White Highland Hills", "natural": "peak"}}, {"name": "Wild Horse Butte", "latitude": 48.8622473, "longitude": -105.8602898, "elevation": 881.0, "source": "osm", "_tags": {"ele": "881", "gnis:feature_id": "778470", "name": "Wild Horse Butte", "natural": "peak"}}, {"name": "Round Butte", "latitude": 48.8941917, "longitude": -106.3644748, "elevation": 962.0, "source": "osm", "_tags": {"ele": "962", "gnis:feature_id": "778770", "name": "Round Butte", "natural": "peak"}}, {"name": "Coal Mine Hill", "latitude": 48.8819691, "longitude": -106.5125354, "elevation": 1007.0, "source": "osm", "_tags": {"ele": "1007", "gnis:feature_id": "799875", "name": "Coal Mine Hill", "natural": "peak"}}, {"name": "Lookout", "latitude": 48.4911364, "longitude": -106.4019753, "elevation": 910.0, "source": "osm", "_tags": {"ele": "910", "gnis:feature_id": "799887", "name": "Lookout", "natural": "peak"}}, {"name": "Round Butte", "latitude": 48.8955797, "longitude": -106.5894834, "elevation": 896.0, "source": "osm", "_tags": {"ele": "896", "gnis:feature_id": "799908", "name": "Round Butte", "natural": "peak"}}, {"name": "Wood Mountain", "latitude": 49.2001394, "longitude": -106.4974752, "elevation": null, "source": "osm", "_tags": {"name": "Wood Mountain", "natural": "peak", "source": "NRCan-CanVec-10.0"}}, {"name": "Wood Mountain", "latitude": 49.2027812, "longitude": -106.3358754, "elevation": null, "source": "osm", "_tags": {"name": "Wood Mountain", "natural": "peak", "source": "NRCan-CanVec-10.0"}}]