[{"name": "Mount Lunn", "latitude": 52.9938034, "longitude": -120.4520581, "elevation": 2918.0, "source": "osm", "_tags": {"ele": "2918", "name": "Mount Lunn", "natural": "peak"}}, {"name": "Mount Halvorson", "latitude": 53.260321, "longitude": -120.5763659, "elevation": 2698.0, "source": "osm", "_tags": {"ele": "2698", "name": "Mount Halvorson", "natural": "peak", "source": "NRCan-CanVec-10.0"}}, {"name": "Holliday Peak", "latitude": 53.156147, "longitude": -119.7173309, "elevation": 2427.0, "source": "osm", "_tags": {"ele": "2427", "name": "Holliday Peak", "natural": "peak"}}, {"name": "", "latitude": 52.4036147, "longitude": -120.2329305, "elevation": 2448.0, "source": "osm", "_tags": {"ele": "2448", "natural": "peak"}}, {"name": "Mount Huntley", "latitude": 52.402432, "longitude": -120.2454779, "elevation": 2429.0, "source": "osm", "_tags": {"ele": "2429", "name": "Mount Huntley", "natural": "peak"}}, {"name": "", "latitude": 52.4023788, "longitude": -120.2509695, "elevation": 2355.0, "source": "osm", "_tags": {"ele": "2355", "natural": "peak"}}, {"name": "Tryfan Mountain", "latitude": 52.4141543, "longitude": -120.1784721, "elevation": 2310.0, "source": "osm", "_tags": {"ele": "2310", "name": "Tryfan Mountain", "natural": "peak"}}, {"name": "", "latitude": 52.4207687, "longitude": -120.1778574, "elevation": 2440.0, "source": "osm", "_tags": {"ele": "2440", "natural": "peak"}}, {"name": "Mount Sir Wilfrid Laurier", "latitude": 52.8016001, "longitude": -119.7295249, "elevation": 3516.0, "source": "osm", "_tags": {"ele": "3516", "name": "Mount Sir Wilfrid Laurier", "natural": "peak", "prominence": "2724", "source:prominence": "3516-792 (Valemount)", "wikidata": "Q3862022", "wikipedia": "en:Mount Sir Wilfrid Laurier"}}, {"name": "Mount MacKenzie King", "latitude": 52.7735244, "longitude": -119.7703944, "elevation": 3234.0, "source": "osm", "_tags": {"ele": "3234", "name": "Mount MacKenzie King", "natural": "peak"}}, {"name": "Batoche Peak", "latitude": 52.406032, "longitude": -120.1959443, "elevation": 2275.0, "source": "osm", "_tags": {"ele": "2275", "name": "Batoche Peak", "natural": "peak"}}, {"name": "Mount Hugh Neave", "latitude": 52.5097709, "longitude": -120.2290306, "elevation": 2829.0, "source": "osm", "_tags": {"ele": "2829", "name": "Mount Hugh Neave", "natural": "peak"}}, {"name": "", "latitude": 52.8493695, "longitude": -119.8701335, "elevation": 2791.0, "source": "osm", "_tags": {"ele": "2791", "natural": "peak"}}, {"name": "", "latitude": 52.4237061, "longitude": -120.1504635, "elevation": 2312.0, "source": "osm", "_tags": {"ele": "2312", "natural": "peak"}}, {"name": "Mount Quanstrom", "latitude": 52.934637, "longitude": -120.1680795, "elevation": 3034.0, "source": "osm", "_tags": {"ele": "3034", "name": "Mount Quanstrom", "natural": "peak"}}, {"name": "Chevron Peak", "latitude": 53.1617271, "longitude": -120.2494971, "elevation": 2964.0, "source": "osm", "_tags": {"ele": "2964", "name": "Chevron Peak", "natural": "peak"}}, {"name": "Larissa Peak", "latitude": 53.0449443, "longitude": -120.1015886, "elevation": 2947.0, "source": "osm", "_tags": {"ele": "2947", "name": "Larissa Peak", "natural": "peak"}}, {"name": "Mount Sir John Thompson", "latitude": 52.7407419, "longitude": -119.7202297, "elevation": 3349.0, "source": "osm", "_tags": {"ele": "3349", "name": "Mount Sir John Thompson", "natural": "peak"}}, {"name": "Mount Sir John Abbott", "latitude": 52.8108056, "longitude": -119.7941235, "elevation": 3398.0, "source": "osm", "_tags": {"ele": "3398", "name": "Mount Sir John Abbott", "natural": "peak", "wikidata": "Q6923697", "wikipedia": "en:Mount Sir John Abbott"}}, {"name": "Mount Goodall", "latitude": 52.7773432, "longitude": -120.090589, "elevation": 2930.0, "source": "osm", "_tags": {"ele": "2930", "name": "Mount Goodall", "natural": "peak", "wikidata": "Q20707366", "wikipedia": "en:Mount Goodall"}}, {"name": "Garnet Peak", "latitude": 52.4419666, "longitude": -120.1963538, "elevation": 2876.0, "source": "osm", "_tags": {"ele": "2876", "name": "Garnet Peak", "natural": "peak"}}, {"name": "", "latitude": 52.5674572, "longitude": -119.9759749, "elevation": 2677.0, "source": "osm", "_tags": {"ele": "2677", "natural": "peak"}}, {"name": "", "latitude": 53.0564989, "longitude": -119.8193665, "elevation": 2462.0, "source": "osm", "_tags": {"ele": "2462", "natural": "peak"}}, {"name": "Azure Mountain", "latitude": 52.3062876, "longitude": -120.0770903, "elevation": 2495.0, "source": "osm", "_tags": {"ele": "2495", "name": "Azure Mountain", "natural": "peak"}}, {"name": "", "latitude": 52.3276682, "longitude": -120.1410771, "elevation": 2275.0, "source": "osm", "_tags": {"ele": "2275", "natural": "peak"}}, {"name": "Zodiac Mountain", "latitude": 52.3260814, "longitude": -120.1082039, "elevation": 2470.0, "source": "osm", "_tags": {"ele": "2470", "name": "Zodiac Mountain", "natural": "peak"}}, {"name": "Mount Hogue", "latitude": 52.4094747, "longitude": -119.8272157, "elevation": 2377.0, "source": "osm", "_tags": {"ele": "2377", "name": "Mount Hogue", "natural": "peak"}}, {"name": "Eagles Nest Peak", "latitude": 52.4575915, "longitude": -120.5254376, "elevation": 2261.0, "source": "osm", "_tags": {"ele": "2261", "name": "Eagles Nest Peak", "natural": "peak"}}, {"name": "Isosceles Mountain", "latitude": 52.4730633, "longitude": -120.5427218, "elevation": 2397.0, "source": "osm", "_tags": {"ele": "2397", "name": "Isosceles Mountain", "natural": "peak"}}, {"name": "Dutchman Mountain", "latitude": 52.4741286, "longitude": -120.6075883, "elevation": 2368.0, "source": "osm", "_tags": {"ele": "2368", "name": "Dutchman Mountain", "natural": "peak"}}, {"name": "Ilahee Mountain", "latitude": 52.4787617, "longitude": -120.6562543, "elevation": 2153.0, "source": "osm", "_tags": {"ele": "2153", "name": "Ilahee Mountain", "natural": "peak"}}, {"name": "Watchman Mountain", "latitude": 52.4518315, "longitude": -120.6766606, "elevation": 2321.0, "source": "osm", "_tags": {"ele": "2321", "name": "Watchman Mountain", "natural": "peak"}}, {"name": "Caput Mountain", "latitude": 52.4214303, "longitude": -120.61041, "elevation": 2494.0, "source": "osm", "_tags": {"ele": "2494", "name": "Caput Mountain", "natural": "peak"}}, {"name": "Mount Perseus", "latitude": 52.3539338, "longitude": -120.5356836, "elevation": 2463.0, "source": "osm", "_tags": {"ele": "2463", "name": "Mount Perseus", "natural": "peak"}}, {"name": "McCallum Peak", "latitude": 52.3786513, "longitude": -120.5805302, "elevation": 2441.0, "source": "osm", "_tags": {"ele": "2441", "name": "McCallum Peak", "natural": "peak"}}, {"name": "Mount Hutch", "latitude": 52.38668, "longitude": -120.5143977, "elevation": 2520.0, "source": "osm", "_tags": {"ele": "2520", "name": "Mount Hutch", "natural": "peak"}}, {"name": "Vimy Ridge", "latitude": 52.3626026, "longitude": -119.7029114, "elevation": 2116.0, "source": "osm", "_tags": {"ele": "2116", "name": "Vimy Ridge", "natural": "peak"}}, {"name": "Mount Sir Mackenzie Bowell", "latitude": 52.8325198, "longitude": -119.7308386, "elevation": 3274.0, "source": "osm", "_tags": {"ele": "3274", "name": "Mount Sir Mackenzie Bowell", "natural": "peak"}}, {"name": "Mount Pierrway", "latitude": 52.875816, "longitude": -120.1396126, "elevation": 2850.0, "source": "osm", "_tags": {"ele": "2850", "name": "Mount Pierrway", "natural": "peak"}}, {"name": "Buchanan Peak", "latitude": 52.4330687, "longitude": -120.0919605, "elevation": 2493.0, "source": "osm", "_tags": {"ele": "2493", "name": "Buchanan Peak", "natural": "peak"}}, {"name": "Niagara Peak", "latitude": 52.6827273, "longitude": -120.5457098, "elevation": 2391.0, "source": "osm", "_tags": {"ele": "2391", "name": "Niagara Peak", "natural": "peak"}}, {"name": "Mount Wotzke", "latitude": 52.7129643, "longitude": -120.6501121, "elevation": 2573.0, "source": "osm", "_tags": {"ele": "2573", "name": "Mount Wotzke", "natural": "peak"}}, {"name": "Roberts Peak", "latitude": 52.9518442, "longitude": -120.5390097, "elevation": 2688.0, "source": "osm", "_tags": {"ele": "2688", "name": "Roberts Peak", "natural": "peak"}}, {"name": "Mount Beaman", "latitude": 52.7735117, "longitude": -120.2967578, "elevation": 2642.0, "source": "osm", "_tags": {"ele": "2642", "name": "Mount Beaman", "natural": "peak"}}, {"name": "Mount Hogg", "latitude": 52.7974683, "longitude": -120.2451253, "elevation": 2618.0, "source": "osm", "_tags": {"ele": "2618", "name": "Mount Hogg", "natural": "peak"}}, {"name": "Mount Winder", "latitude": 52.8467288, "longitude": -120.3273941, "elevation": 2744.0, "source": "osm", "_tags": {"ele": "2744", "name": "Mount Winder", "natural": "peak"}}, {"name": "Mount Aves", "latitude": 52.701777, "longitude": -120.1164008, "elevation": 2595.0, "source": "osm", "_tags": {"ele": "2595", "name": "Mount Aves", "natural": "peak"}}, {"name": "Eureka Peak", "latitude": 52.308945, "longitude": -120.6388797, "elevation": null, "source": "osm", "_tags": {"name": "Eureka Peak", "natural": "peak", "source": "NRCan-CanVec-10.0"}}]