[{"name": "Dome Mountain", "latitude": 54.7460299, "longitude": -126.6579149, "elevation": 1744.0, "source": "osm", "_tags": {"ele": "1744", "name": "Dome Mountain", "natural": "peak", "source": "NRCan-CanVec-8.0"}}, {"name": "Boo Mountain", "latitude": 54.3202343, "longitude": -125.9340111, "elevation": 1124.0, "source": "osm", "_tags": {"ele": "1124", "name": "Boo Mountain", "natural": "peak", "source": "NRCan-CanVec-8.0"}}, {"name": "Mount Harry Davis", "latitude": 54.4545126, "longitude": -126.6525259, "elevation": 1253.0, "source": "osm", "_tags": {"ele": "1253", "name": "Mount Harry Davis", "natural": "peak", "source": "NRCan-CanVec-8.0"}}, {"name": "China Nose Mountain", "latitude": 54.38154, "longitude": -126.3762542, "elevation": 1427.0, "source": "osm", "_tags": {"ele": "1427", "name": "China Nose Mountain", "natural": "peak", "source": "NRCan-CanVec-8.0"}}, {"name": "Matzehtzel Mountain", "latitude": 54.654594, "longitude": -126.1641137, "elevation": 1718.0, "source": "osm", "_tags": {"ele": "1718", "name": "Matzehtzel Mountain", "natural": "peak", "source": "NRCan-CanVec-8.0"}}, {"name": "Mount McCrea", "latitude": 54.565103, "longitude": -126.2078693, "elevation": 1542.0, "source": "osm", "_tags": {"ele": "1542", "name": "Mount McCrea", "natural": "peak", "source": "NRCan-CanVec-8.0"}}, {"name": "Tachek Mountain", "latitude": 54.600456, "longitude": -126.2322035, "elevation": 1650.0, "source": "osm", "_tags": {"ele": "1650", "name": "Tachek Mountain", "natural": "peak", "source": "NRCan-CanVec-8.0"}}, {"name": "Scorched Hill", "latitude": 55.2742263, "longitude": -126.3367654, "elevation": 1212.0, "source": "osm", "_tags": {"ele": "1212", "name": "Scorched Hill", "natural": "peak", "source": "NRCan-CanVec-10.0"}}, {"name": "Base Peak", "latitude": 55.2799648, "longitude": -125.8702178, "elevation": 1914.0, "source": "osm", "_tags": {"ele": "1914", "name": "Base Peak", "natural": "peak", "source": "NRCan-CanVec-10.0"}}, {"name": "Mount Blanchet", "latitude": 55.2329445, "longitude": -125.8188998, "elevation": 1973.0, "source": "osm", "_tags": {"ele": "1973", "name": "Mount Blanchet", "natural": "peak", "source": "NRCan-CanVec-10.0"}}, {"name": "Spike Peak", "latitude": 55.2467425, "longitude": -125.8839128, "elevation": 2013.0, "source": "osm", "_tags": {"ele": "2013", "name": "Spike Peak", "natural": "peak", "source": "NRCan-CanVec-10.0"}}, {"name": "Nalcus Mountain", "latitude": 55.2389388, "longitude": -125.8585628, "elevation": 1844.0, "source": "osm", "_tags": {"ele": "1844", "name": "Nalcus Mountain", "natural": "peak", "source": "NRCan-CanVec-10.0"}}, {"name": "Old Fort Mountain", "latitude": 55.0877928, "longitude": -126.3844125, "elevation": 1567.0, "source": "osm", "_tags": {"ele": "1567", "name": "Old Fort Mountain", "natural": "peak"}}, {"name": "Saddle Hill", "latitude": 55.1984292, "longitude": -126.4080219, "elevation": 1118.0, "source": "osm", "_tags": {"ele": "1118", "name": "Saddle Hill", "natural": "peak"}}, {"name": "Hearne Hill", "latitude": 55.1805095, "longitude": -126.2706504, "elevation": 1382.0, "source": "osm", "_tags": {"ele": "1382", "name": "Hearne Hill", "natural": "peak"}}, {"name": "Wedge Mountain", "latitude": 55.2464651, "longitude": -126.0547594, "elevation": 1260.0, "source": "osm", "_tags": {"ele": "1260", "name": "Wedge Mountain", "natural": "peak"}}, {"name": "Deescius Mountain", "latitude": 54.9401767, "longitude": -125.81603, "elevation": 1536.0, "source": "osm", "_tags": {"ele": "1536", "name": "Deescius Mountain", "natural": "peak"}}]