[{"name": "Mount Bennett", "latitude": 55.2705926, "longitude": -121.0337971, "elevation": 1431.0, "source": "osm", "_tags": {"ele": "1431", "name": "Mount Bennett", "natural": "peak", "source": "NRCan-CanVec-7.0", "wikidata": "Q22416358"}}, {"name": "Mount Chamberlain", "latitude": 55.1585236, "longitude": -121.5798045, "elevation": 1913.0, "source": "osm", "_tags": {"ele": "1913", "name": "Mount Chamberlain", "natural": "peak", "source": "NRCan-CanVec-7.0", "wikidata": "Q22421214"}}, {"name": "Mount Collier", "latitude": 55.0758329, "longitude": -121.52283, "elevation": 1977.0, "source": "osm", "_tags": {"ele": "1977", "name": "Mount Collier", "natural": "peak", "source": "NRCan-CanVec-7.0"}}, {"name": "Mount Crum", "latitude": 55.0260601, "longitude": -121.6453782, "elevation": 2071.0, "source": "osm", "_tags": {"ele": "2071", "name": "Mount Crum", "natural": "peak", "source": "NRCan-CanVec-7.0"}}, {"name": "Mount Reesor", "latitude": 55.0665717, "longitude": -121.4285729, "elevation": 2023.0, "source": "osm", "_tags": {"ele": "2023", "name": "Mount Reesor", "natural": "peak", "source": "NRCan-CanVec-7.0", "wikidata": "Q22551804"}}, {"name": "Mount Bergeron", "latitude": 55.2177124, "longitude": -121.1601111, "elevation": 1557.0, "source": "osm", "_tags": {"ele": "1557", "name": "Mount Bergeron", "natural": "peak", "source": "NRCan-CanVec-7.0", "wikidata": "Q22416534"}}, {"name": "Mount Spieker", "latitude": 55.1268544, "longitude": -121.3850095, "elevation": 1961.0, "source": "osm", "_tags": {"ele": "1961", "name": "Mount Spieker", "natural": "peak", "source": "NRCan-CanVec-7.0", "wikidata": "Q22554399"}}, {"name": "Bullmoose Mountain", "latitude": 55.2018826, "longitude": -121.4957651, "elevation": 2030.0, "source": "osm", "_tags": {"ele": "2030", "name": "Bullmoose Mountain", "natural": "peak", "source": "NRCan-CanVec-7.0", "wikidata": "Q22607818"}}, {"name": "Mount Myhon", "latitude": 54.7851693, "longitude": -121.5233307, "elevation": 2107.0, "source": "osm", "_tags": {"ele": "2107", "name": "Mount Myhon", "natural": "peak", "source": "NRCan-CanVec-7.0", "wikidata": "Q22548859"}}, {"name": "", "latitude": 54.8416872, "longitude": -121.4157365, "elevation": 1989.0, "source": "osm", "_tags": {"ele": "1989", "natural": "peak"}}, {"name": "", "latitude": 54.8232397, "longitude": -121.3298555, "elevation": 1911.0, "source": "osm", "_tags": {"ele": "1911", "natural": "peak"}}, {"name": "", "latitude": 54.8306095, "longitude": -121.3776099, "elevation": 2006.0, "source": "osm", "_tags": {"ele": "2006", "natural": "peak"}}, {"name": "Mount Babcock", "latitude": 54.9383447, "longitude": -121.0006008, "elevation": 1839.0, "source": "osm", "_tags": {"ele": "1839", "name": "Mount Babcock", "natural": "peak", "source": "NRCan-CanVec-7.0", "wikidata": "Q22414742"}}, {"name": "Turning Mountain", "latitude": 54.8788106, "longitude": -121.1861988, "elevation": 1648.0, "source": "osm", "_tags": {"ele": "1648", "name": "Turning Mountain", "natural": "peak", "source": "NRCan-CanVec-7.0", "wikidata": "Q22360835"}}, {"name": "Mount Clifford", "latitude": 54.7543199, "longitude": -120.77828, "elevation": 1742.0, "source": "osm", "_tags": {"ele": "1742", "name": "Mount Clifford", "natural": "peak", "source": "NRCan-CanVec-7.0", "wikidata": "Q22422124"}}, {"name": "Quintette Mountain", "latitude": 54.8584307, "longitude": -120.8788519, "elevation": 1840.0, "source": "osm", "_tags": {"ele": "1840", "name": "Quintette Mountain", "natural": "peak", "source": "NRCan-CanVec-7.0"}}, {"name": "Gable Mountain", "latitude": 54.5002986, "longitude": -121.6745997, "elevation": 2065.0, "source": "osm", "_tags": {"ele": "2065", "name": "Gable Mountain", "natural": "peak", "source": "NRCan-CanVec-7.0"}}, {"name": "Mount Barton", "latitude": 54.5311137, "longitude": -121.3997336, "elevation": 2332.0, "source": "osm", "_tags": {"ele": "2332", "name": "Mount Barton", "natural": "peak", "source": "NRCan-CanVec-7.0"}}, {"name": "Mount Vreeland", "latitude": 54.5688652, "longitude": -121.4327236, "elevation": 2466.0, "source": "osm", "_tags": {"ele": "2466", "name": "Mount Vreeland", "natural": "peak", "source": "NRCan-CanVec-7.0"}}, {"name": "Chambers Ridge", "latitude": 54.7193883, "longitude": -121.0858915, "elevation": 1462.0, "source": "osm", "_tags": {"ele": "1462", "name": "Chambers Ridge", "natural": "peak", "source": "NRCan-CanVec-7.0"}}, {"name": "Mount Watts", "latitude": 54.6039762, "longitude": -121.0949334, "elevation": 2304.0, "source": "osm", "_tags": {"ele": "2304", "name": "Mount Watts", "natural": "peak", "source": "NRCan-CanVec-7.0"}}, {"name": "Chambers Ridge", "latitude": 54.758619, "longitude": -121.15063, "elevation": 1214.0, "source": "osm", "_tags": {"ele": "1214", "name": "Chambers Ridge", "natural": "peak", "source": "NRCan-CanVec-7.0"}}, {"name": "Paxton Peak", "latitude": 54.5358314, "longitude": -121.124961, "elevation": 2270.0, "source": "osm", "_tags": {"ele": "2270", "name": "Paxton Peak", "natural": "peak", "source": "NRCan-CanVec-7.0", "wikidata": "Q22503421"}}, {"name": "Bone Mountain", "latitude": 54.6719662, "longitude": -120.8476317, "elevation": 2251.0, "source": "osm", "_tags": {"ele": "2251", "name": "Bone Mountain", "natural": "peak", "source": "NRCan-CanVec-7.0", "wikidata": "Q22580262"}}, {"name": "Montagnes Rocheuses", "latitude": 54.4108117, "longitude": -121.5809794, "elevation": 1532.0, "source": "osm", "_tags": {"ele": "1532", "name": "Montagnes Rocheuses", "natural": "peak", "source": "NRCan-CanVec-7.0"}}, {"name": "Montagnes Rocheuses", "latitude": 54.4546503, "longitude": -121.653285, "elevation": 751.0, "source": "osm", "_tags": {"ele": "751", "name": "Montagnes Rocheuses", "natural": "peak", "source": "NRCan-CanVec-7.0"}}, {"name": "Three Brothers Peaks", "latitude": 54.4478243, "longitude": -121.5804951, "elevation": 1727.0, "source": "osm", "_tags": {"ele": "1727", "name": "Three Brothers Peaks", "natural": "peak", "source": "NRCan-CanVec-7.0"}}, {"name": "Ice Mountain", "latitude": 54.4089229, "longitude": -121.1415087, "elevation": 2309.0, "source": "osm", "_tags": {"ele": "2309", "name": "Ice Mountain", "natural": "peak", "source": "NRCan-CanVec-7.0", "wikidata": "Q22353300"}}, {"name": "Mount Bulley", "latitude": 54.4843065, "longitude": -120.9852126, "elevation": 2459.0, "source": "osm", "_tags": {"ele": "2459", "name": "Mount Bulley", "natural": "peak", "source": "NRCan-CanVec-7.0", "wikidata": "Q22419371"}}, {"name": "Weaver Peak", "latitude": 54.4313771, "longitude": -120.9003931, "elevation": 2557.0, "source": "osm", "_tags": {"ele": "2557", "name": "Weaver Peak", "natural": "peak", "source": "NRCan-CanVec-7.0"}}, {"name": "Mount Hermann", "latitude": 54.994638, "longitude": -121.1198843, "elevation": 1678.0, "source": "osm", "_tags": {"ele": "1678", "name": "Mount Hermann", "natural": "peak"}}, {"name": "Roman Mountain", "latitude": 54.8755449, "longitude": -120.9536791, "elevation": 2020.0, "source": "osm", "_tags": {"ele": "2020", "name": "Roman Mountain", "natural": "peak", "wikidata": "Q22460346"}}]