[{"name": "Mount Ludington", "latitude": 56.4643993, "longitude": -123.2485029, "elevation": 2003.0, "source": "osm", "_tags": {"ele": "2003", "name": "Mount Ludington", "natural": "peak", "source": "NRCan-CanVec-7.0", "wikidata": "Q22545733"}}, {"name": "Montagnes Rocheuses", "latitude": 56.345208, "longitude": -123.4530312, "elevation": 1180.0, "source": "osm", "_tags": {"ele": "1180", "name": "Montagnes Rocheuses", "natural": "peak", "source": "NRCan-CanVec-7.0"}}, {"name": "Gauvreau Peak", "latitude": 56.353045, "longitude": -123.6186192, "elevation": 2315.0, "source": "osm", "_tags": {"ele": "2315", "name": "Gauvreau Peak", "natural": "peak", "source": "NRCan-CanVec-7.0", "wikidata": "Q22631706"}}, {"name": "Mount Laurier", "latitude": 56.7763073, "longitude": -123.4831669, "elevation": 2351.0, "source": "osm", "_tags": {"ele": "2351", "name": "Mount Laurier", "natural": "peak", "source": "NRCan-CanVec-7.0", "wikidata": "Q22441498"}}, {"name": "Pink Mountain", "latitude": 57.0714754, "longitude": -122.8746408, "elevation": 1792.0, "source": "osm", "_tags": {"ele": "1792", "name": "Pink Mountain", "natural": "peak", "source": "NRCan-CanVec-10.0"}}, {"name": "Mount Wright", "latitude": 57.088384, "longitude": -123.2835273, "elevation": 2123.0, "source": "osm", "_tags": {"ele": "2123", "name": "Mount Wright", "natural": "peak", "source": "NRCan-CanVec-10.0", "wikidata": "Q22558049"}}, {"name": "Mount Stearns", "latitude": 57.0255067, "longitude": -123.3965564, "elevation": 1942.0, "source": "osm", "_tags": {"ele": "1942", "name": "Mount Stearns", "natural": "peak", "source": "NRCan-CanVec-10.0"}}, {"name": "Mount Wooliever", "latitude": 57.2048011, "longitude": -123.2762482, "elevation": 1804.0, "source": "osm", "_tags": {"ele": "1804", "name": "Mount Wooliever", "natural": "peak", "source": "NRCan-CanVec-10.0"}}, {"name": "Mount Trimble (Southeast Summit)", "latitude": 57.2499017, "longitude": -123.6104901, "elevation": 2120.0, "source": "osm", "_tags": {"ele": "2120", "name": "Mount Trimble (Southeast Summit)", "natural": "peak", "source": "NRCan-CanVec-10.0"}}, {"name": "Mount Trimble (Northwest Summit)", "latitude": 57.2504407, "longitude": -123.6110455, "elevation": 2114.0, "source": "osm", "_tags": {"ele": "2114", "name": "Mount Trimble (Northwest Summit)", "natural": "peak", "source": "NRCan-CanVec-10.0"}}, {"name": "Mount Withrow", "latitude": 57.2581626, "longitude": -123.4011635, "elevation": 1958.0, "source": "osm", "_tags": {"ele": "1958", "name": "Mount Withrow", "natural": "peak", "source": "NRCan-CanVec-10.0", "wikidata": "Q22557874"}}]