[{"name": "Ootsa Lake", "country": "", "latitude": 53.783333, "longitude": -126.033333, "population": 0, "elevation": null, "source": "osm"}, {"name": "Grassy Plains", "country": "", "latitude": 53.95, "longitude": -125.883333, "population": 0, "elevation": null, "source": "osm"}, {"name": "Wistaria", "country": "", "latitude": 53.833333, "longitude": -126.283333, "population": 0, "elevation": null, "source": "osm"}, {"name": "Marilla", "country": "", "latitude": 53.683333, "longitude": -125.833333, "population": 0, "elevation": null, "source": "osm"}, {"name": "Burns Lake", "country": "", "latitude": 54.230269, "longitude": -125.7645032, "population": 0, "elevation": null, "source": "osm"}]