[{"name": "Cedarvale", "country": "", "latitude": 55.0178868, "longitude": -128.3196898, "population": 0, "elevation": null, "source": "osm"}, {"name": "Gitwinksihlkw", "country": "", "latitude": 55.1931199, "longitude": -129.2222031, "population": 201, "elevation": null, "source": "osm"}, {"name": "Rosswood", "country": "", "latitude": 54.836464, "longitude": -128.7934109, "population": 0, "elevation": null, "source": "osm"}, {"name": "Gitaus", "country": "", "latitude": 54.6083699, "longitude": -128.4083439, "population": 0, "elevation": null, "source": "osm"}, {"name": "Gitlaxt'aamiks", "country": "", "latitude": 55.1984114, "longitude": -129.0728649, "population": 806, "elevation": null, "source": "osm"}, {"name": "Nass Camp", "country": "", "latitude": 55.2861159, "longitude": -128.998336, "population": 0, "elevation": null, "source": "osm"}]