[{"name": "New Hazelton", "country": "", "latitude": 55.2454266, "longitude": -127.587752, "population": 0, "elevation": null, "source": "osm"}, {"name": "Carnaby", "country": "", "latitude": 55.1499985, "longitude": -127.750007, "population": 0, "elevation": null, "source": "osm"}, {"name": "Kispiox", "country": "", "latitude": 55.3501405, "longitude": -127.6957979, "population": 0, "elevation": null, "source": "osm"}, {"name": "Witset", "country": "", "latitude": 55.021405, "longitude": -127.3299556, "population": 0, "elevation": null, "source": "osm"}, {"name": "Seaton", "country": "", "latitude": 55.1, "longitude": -127.366667, "population": 0, "elevation": null, "source": "osm"}, {"name": "Kitwanga", "country": "", "latitude": 55.100373, "longitude": -128.067627, "population": 0, "elevation": null, "source": "osm"}, {"name": "Beament", "country": "", "latitude": 55.15, "longitude": -127.383333, "population": 0, "elevation": null, "source": "osm"}, {"name": "Woodcock", "country": "", "latitude": 55.066667, "longitude": -128.2, "population": 0, "elevation": null, "source": "osm"}, {"name": "Hazelton", "country": "", "latitude": 55.2553671, "longitude": -127.670882, "population": 0, "elevation": null, "source": "osm"}, {"name": "South Hazelton", "country": "", "latitude": 55.2342327, "longitude": -127.6607122, "population": 0, "elevation": null, "source": "osm"}, {"name": "Gitanyow", "country": "", "latitude": 55.2670521, "longitude": -128.0723526, "population": 0, "elevation": null, "source": "osm"}, {"name": "Kitseguecla", "country": "", "latitude": 55.0887008, "longitude": -127.8249385, "population": 0, "elevation": null, "source": "osm"}]