[{"name": "Westview Health Centre", "latitude": 53.5373859, "longitude": -113.9762964, "source": "osm", "_tags": {"addr:housename": "Stony Plain Hospital", "addr:street": "44 Avenue", "amenity": "hospital", "building": "hospital", "healthcare": "hospital", "name": "Westview Health Centre"}}, {"name": "Barrhead Healthcare Centre", "latitude": 54.1190739, "longitude": -114.400392, "source": "osm", "_tags": {"addr:city": "Barrhead", "addr:postcode": "T7N 1M1", "addr:street": "4815 51 Ave", "amenity": "hospital", "building": "yes", "name": "Barrhead Healthcare Centre", "phone": "+1-780-674-2221", "source": "NRCan-CanVec-7.0", "toilets:wheelchair": "yes", "wheelchair": "yes"}}, {"name": "Alexander Health Centre", "latitude": 53.8047643, "longitude": -113.9182841, "source": "osm", "_tags": {"amenity": "hospital", "healthcare": "hospital", "name": "Alexander Health Centre"}}, {"name": "Spruce Grove Health Centre", "latitude": 53.5368544, "longitude": -113.909029, "source": "osm", "_tags": {"addr:city": "Spruce Grove", "addr:housenumber": "205", "addr:postcode": "T7X 3A8", "addr:province": "AB", "addr:street": "Diamond Avenue", "amenity": "hospital", "healthcare": "hospital", "name": "Spruce Grove Health Centre", "operator": "Alberta Health Services", "operator:short": "AHS", "operator:type": "public", "operator:wikidata": "Q4711650", "operator:wikipedia": "en:Alberta Health Services"}}, {"name": "", "latitude": 54.1188676, "longitude": -114.4004907, "source": "osm", "_tags": {"amenity": "hospital", "healthcare": "hospital"}}, {"name": "", "latitude": 53.5374332, "longitude": -113.9760614, "source": "osm", "_tags": {"amenity": "hospital", "healthcare": "hospital"}}]