[{"name": "Brush Mountain", "latitude": 40.3643641, "longitude": -111.6910015, "elevation": 2075.0, "source": "osm", "_tags": {"ele": "2075", "name": "Brush Mountain", "natural": "peak"}}, {"name": "Camel Back Mountain", "latitude": 40.1827006, "longitude": -111.568324, "elevation": 2415.0, "source": "osm", "_tags": {"ele": "2415", "name": "Camel Back Mountain", "natural": "peak"}}, {"name": "Bald Eagle Mountain", "latitude": 40.6235629, "longitude": -111.4815821, "elevation": 2581.0, "source": "osm", "_tags": {"ele": "2581", "gnis:feature_id": "1425249", "name": "Bald Eagle Mountain", "natural": "peak"}}, {"name": "Bald Knoll", "latitude": 40.3888363, "longitude": -112.1360527, "elevation": 2284.0, "source": "osm", "_tags": {"ele": "2284", "gnis:feature_id": "1425253", "name": "Bald Knoll", "natural": "peak"}}, {"name": "Bald Mountain", "latitude": 40.3979865, "longitude": -112.2739236, "elevation": 2930.0, "source": "osm", "_tags": {"ele": "2930", "gnis:feature_id": "1425257", "name": "Bald Mountain", "natural": "peak"}}, {"name": "Bald Mountain", "latitude": 40.6088411, "longitude": -111.4804703, "elevation": 2846.0, "source": "osm", "_tags": {"ele": "2846", "gnis:feature_id": "1425258", "name": "Bald Mountain", "natural": "peak"}}, {"name": "Mount Baldy", "latitude": 40.5684016, "longitude": -111.637742, "elevation": 3373.5, "source": "osm", "_tags": {"ele": "3373.5", "gnis:feature_id": "1425265", "name": "Mount Baldy", "natural": "peak"}}, {"name": "Barneys Peak", "latitude": 40.58525, "longitude": -112.1734071, "elevation": 2508.0, "source": "osm", "_tags": {"ele": "2508", "gnis:feature_id": "1425296", "name": "Barneys Peak", "natural": "peak"}}, {"name": "Bismark Peak", "latitude": 40.019394, "longitude": -112.1257793, "elevation": 2451.0, "source": "osm", "_tags": {"ele": "2451", "gnis:feature_id": "1425633", "name": "Bismark Peak", "natural": "peak"}}, {"name": "Blowhole Hill", "latitude": 40.0968953, "longitude": -112.0349421, "elevation": 1646.0, "source": "osm", "_tags": {"ele": "1646", "gnis:feature_id": "1425779", "name": "Blowhole Hill", "natural": "peak"}}, {"name": "Breccia Knob", "latitude": 40.4608306, "longitude": -112.1277874, "elevation": 2205.0, "source": "osm", "_tags": {"ele": "2205", "gnis:feature_id": "1425948", "loc_name": "Bitchin' Brecci", "name": "Breccia Knob", "natural": "peak"}}, {"name": "Burgi Hill", "latitude": 40.5358887, "longitude": -111.464778, "elevation": 1834.0, "source": "osm", "_tags": {"ele": "1834", "gnis:feature_id": "1426166", "name": "Burgi Hill", "natural": "peak"}}, {"name": "Butterfield Peaks", "latitude": 40.4679263, "longitude": -112.1806193, "elevation": 2814.0, "source": "osm", "_tags": {"ele": "2814", "gnis:feature_id": "1426234", "name": "Butterfield Peaks", "natural": "peak"}}, {"name": "Cat Hill", "latitude": 40.1316181, "longitude": -111.9968846, "elevation": 1613.0, "source": "osm", "_tags": {"ele": "1613", "gnis:feature_id": "1426402", "name": "Cat Hill", "natural": "peak"}}, {"name": "Cedar Knolls", "latitude": 40.0979012, "longitude": -112.144897, "elevation": 1613.0, "source": "osm", "_tags": {"ele": "1613", "gnis:feature_id": "1426458", "name": "Cedar Knolls", "natural": "peak"}}, {"name": "Cedar Point", "latitude": 40.4141162, "longitude": -111.982159, "elevation": 1958.0, "source": "osm", "_tags": {"ele": "1958", "gnis:feature_id": "1426475", "name": "Cedar Point", "natural": "peak"}}, {"name": "Clipper Peak", "latitude": 40.5138326, "longitude": -112.1877852, "elevation": 2805.0, "source": "osm", "_tags": {"ele": "2805", "gnis:feature_id": "1426728", "name": "Clipper Peak", "natural": "peak"}}, {"name": "Clyde Knoll", "latitude": 40.140785, "longitude": -111.9574384, "elevation": 1456.0, "source": "osm", "_tags": {"ele": "1456", "gnis:feature_id": "1426734", "name": "Clyde Knoll", "natural": "peak"}}, {"name": "Cow Bay Knoll", "latitude": 40.860263, "longitude": -112.0585784, "elevation": 1284.0, "source": "osm", "_tags": {"created_by": "Potlatch 0.10f", "ele": "1284", "gnis:feature_id": "1426994", "name": "Cow Bay Knoll", "natural": "peak"}}, {"name": "Dromedary Peak", "latitude": 40.5930348, "longitude": -111.7058203, "elevation": 3385.4, "source": "osm", "_tags": {"ele": "3385.4", "gnis:feature_id": "1427492", "name": "Dromedary Peak", "natural": "peak"}}, {"name": "Dry Mountain", "latitude": 40.3736925, "longitude": -112.2752999, "elevation": 2553.0, "source": "osm", "_tags": {"ele": "2553", "gnis:feature_id": "1427575", "name": "Dry Mountain", "natural": "peak"}}, {"name": "Eagle Hill", "latitude": 40.306058, "longitude": -112.2110554, "elevation": 2406.0, "source": "osm", "_tags": {"ele": "2406", "gnis:feature_id": "1427646", "name": "Eagle Hill", "natural": "peak"}}, {"name": "Elephant Head", "latitude": 40.9888303, "longitude": -112.242727, "elevation": 1551.0, "source": "osm", "_tags": {"ele": "1551", "gnis:feature_id": "1427788", "name": "Elephant Head", "natural": "peak"}}, {"name": "Farnsworth Peak", "latitude": 40.6596935, "longitude": -112.2022018, "elevation": 2760.0, "source": "osm", "_tags": {"ele": "2760", "gnis:feature_id": "1427889", "name": "Farnsworth Peak", "natural": "peak"}}, {"name": "Flagstaff Mountain", "latitude": 40.6007834, "longitude": -111.6460356, "elevation": 3214.0, "source": "osm", "_tags": {"ele": "3214", "gnis:feature_id": "1427984", "name": "Flagstaff Mountain", "natural": "peak"}}, {"name": "Flagstaff Mountain", "latitude": 40.6055079, "longitude": -111.4999158, "elevation": 2797.0, "source": "osm", "_tags": {"ele": "2797", "gnis:feature_id": "1427985", "name": "Flagstaff Mountain", "natural": "peak"}}, {"name": "Flat Top Mountain", "latitude": 40.3724025, "longitude": -112.1889715, "elevation": 3235.0, "source": "osm", "_tags": {"ele": "3235", "gnis:feature_id": "1428004", "name": "Flat Top Mountain", "natural": "peak", "prominence": "1638", "source:prominence": "3235-1597 (Tenmile Pass)", "wikipedia": "en:Flat_Top_Mountain_(Utah)"}}, {"name": "Granger Mountain", "latitude": 40.2244018, "longitude": -111.4212946, "elevation": 2339.0, "source": "osm", "_tags": {"ele": "2339", "gnis:feature_id": "1428312", "name": "Granger Mountain", "natural": "peak"}}, {"name": "Greeley Hill", "latitude": 40.1166179, "longitude": -112.0132743, "elevation": 1581.0, "source": "osm", "_tags": {"ele": "1581", "gnis:feature_id": "1428388", "name": "Greeley Hill", "natural": "peak"}}, {"name": "Hogback Summit", "latitude": 40.9537205, "longitude": -111.5493127, "elevation": 1905.0, "source": "osm", "_tags": {"ele": "1905", "gnis:feature_id": "1428752", "name": "Hogback Summit", "natural": "peak", "wikidata": "Q49036758"}}, {"name": "Iron Hill", "latitude": 40.2246741, "longitude": -111.8879897, "elevation": 1594.0, "source": "osm", "_tags": {"ele": "1594", "gnis:feature_id": "1429040", "name": "Iron Hill", "natural": "peak"}}, {"name": "Kesler Peak", "latitude": 40.6754984, "longitude": -112.203152, "elevation": 2666.0, "source": "osm", "_tags": {"ele": "2666", "gnis:feature_id": "1429334", "name": "Kesler Peak", "natural": "peak", "wikidata": "Q49041323"}}, {"name": "Knee Weakener", "latitude": 40.6399455, "longitude": -112.1413316, "elevation": 2085.0, "source": "osm", "_tags": {"ele": "2085", "gnis:feature_id": "1429381", "name": "Knee Weakener", "natural": "peak", "wikidata": "Q20714379"}}, {"name": "Landrock", "latitude": 40.3302285, "longitude": -111.918546, "elevation": 1472.0, "source": "osm", "_tags": {"ele": "1472", "gnis:feature_id": "1429468", "name": "Landrock", "natural": "peak"}}, {"name": "Lewis Peak", "latitude": 40.8552252, "longitude": -111.4801998, "elevation": 2837.0, "source": "osm", "_tags": {"ele": "2837", "gnis:feature_id": "1429598", "name": "Lewis Peak", "natural": "peak"}}, {"name": "Lion Hill", "latitude": 40.3610573, "longitude": -112.2486172, "elevation": 2586.0, "source": "osm", "_tags": {"ele": "2586", "gnis:feature_id": "1429652", "name": "Lion Hill", "natural": "peak"}}, {"name": "Little Mountain", "latitude": 40.5202222, "longitude": -112.2927241, "elevation": 1681.0, "source": "osm", "_tags": {"ele": "1681", "gnis:feature_id": "1429766", "name": "Little Mountain", "natural": "peak"}}, {"name": "Lone Peak", "latitude": 40.5268567, "longitude": -111.7560942, "elevation": 3376.0, "source": "osm", "_tags": {"ele": "3376", "gnis:feature_id": "1429865", "name": "Lone Peak", "natural": "peak", "wikidata": "Q6671331"}}, {"name": "Lowe Peak", "latitude": 40.4256564, "longitude": -112.1987386, "elevation": 3216.0, "source": "osm", "_tags": {"ele": "3216", "gnis:feature_id": "1429964", "name": "Lowe Peak", "natural": "peak"}}, {"name": "Mahogany Hill", "latitude": 40.6310568, "longitude": -112.1316089, "elevation": 2074.0, "source": "osm", "_tags": {"ele": "2074", "gnis:feature_id": "1430044", "name": "Mahogany Hill", "natural": "peak"}}, {"name": "Markham Peak", "latitude": 40.5462695, "longitude": -112.1794848, "elevation": 2641.0, "source": "osm", "_tags": {"ele": "2641", "gnis:feature_id": "1430110", "name": "Markham Peak", "natural": "peak"}}, {"name": "Masonic Hill", "latitude": 40.6546731, "longitude": -111.4951953, "elevation": 2274.0, "source": "osm", "_tags": {"ele": "2274", "gnis:feature_id": "1430135", "name": "Masonic Hill", "natural": "peak"}}, {"name": "Memorial Hill", "latitude": 40.5167003, "longitude": -111.4620142, "elevation": 1761.0, "source": "osm", "_tags": {"ele": "1761", "gnis:feature_id": "1430222", "name": "Memorial Hill", "natural": "peak"}}, {"name": "Mollys Nipple", "latitude": 40.8749431, "longitude": -112.188002, "elevation": 1624.0, "source": "osm", "_tags": {"ele": "1624", "gnis:feature_id": "1430412", "name": "Mollys Nipple", "natural": "peak"}}, {"name": "Montreal Hill", "latitude": 40.6116589, "longitude": -111.6620772, "elevation": 2916.0, "source": "osm", "_tags": {"ele": "2916", "gnis:feature_id": "1430439", "name": "Montreal Hill", "natural": "peak"}}, {"name": "Mormon Rocks", "latitude": 40.9704973, "longitude": -112.2377266, "elevation": 1507.0, "source": "osm", "_tags": {"ele": "1507", "gnis:feature_id": "1430495", "name": "Mormon Rocks", "natural": "peak"}}, {"name": "Nelson Peak", "latitude": 40.6141292, "longitude": -112.1853623, "elevation": 2829.0, "source": "osm", "_tags": {"ele": "2829", "gnis:feature_id": "1430682", "name": "Nelson Peak", "natural": "peak", "wikidata": "Q49056731"}}, {"name": "One O'Clock", "latitude": 40.5107776, "longitude": -112.3060579, "elevation": 1782.0, "source": "osm", "_tags": {"ele": "1782", "gnis:feature_id": "1431005", "name": "One O'Clock", "natural": "peak"}}, {"name": "Parleys Summit Peak", "latitude": 40.7517407, "longitude": -111.6225649, "elevation": 2176.0, "source": "osm", "_tags": {"ele": "2176", "gnis:feature_id": "1431119", "name": "Parleys Summit Peak", "natural": "peak"}}, {"name": "Phosphate Hill", "latitude": 40.5475561, "longitude": -111.4756515, "elevation": 2105.0, "source": "osm", "_tags": {"ele": "2105", "gnis:feature_id": "1431212", "name": "Phosphate Hill", "natural": "peak"}}, {"name": "Poker Knoll", "latitude": 40.1624481, "longitude": -112.1841117, "elevation": 1622.0, "source": "osm", "_tags": {"ele": "1622", "gnis:feature_id": "1431367", "name": "Poker Knoll", "natural": "peak"}}, {"name": "Porcupine Peak", "latitude": 40.8668914, "longitude": -111.5249242, "elevation": 2515.0, "source": "osm", "_tags": {"ele": "2515", "gnis:feature_id": "1431416", "name": "Porcupine Peak", "natural": "peak", "wikidata": "Q49063432"}}, {"name": "Porphyry Hill", "latitude": 40.3464777, "longitude": -112.2227851, "elevation": 2645.0, "source": "osm", "_tags": {"ele": "2645", "gnis:feature_id": "1431422", "name": "Porphyry Hill", "natural": "peak"}}, {"name": "Porphyry Knob", "latitude": 40.3432305, "longitude": -112.2289063, "elevation": 2599.0, "source": "osm", "_tags": {"ele": "2599", "gnis:feature_id": "1431423", "name": "Porphyry Knob", "natural": "peak"}}, {"name": "Powder Knoll", "latitude": 40.151615, "longitude": -112.1730004, "elevation": 1646.0, "source": "osm", "_tags": {"ele": "1646", "gnis:feature_id": "1431458", "name": "Powder Knoll", "natural": "peak"}}, {"name": "Rabbit Knoll", "latitude": 40.8589592, "longitude": -112.0787228, "elevation": 1284.0, "source": "osm", "_tags": {"created_by": "Potlatch 0.10f", "ele": "1284", "gnis:feature_id": "1431536", "name": "Rabbit Knoll", "natural": "peak"}}, {"name": "Red Pine Knoll", "latitude": 40.2428319, "longitude": -111.4139409, "elevation": 2493.0, "source": "osm", "_tags": {"ele": "2493", "gnis:feature_id": "1431683", "name": "Red Pine Knoll", "natural": "peak"}}, {"name": "Redrock Peak", "latitude": 40.9680017, "longitude": -111.5877057, "elevation": 2480.0, "source": "osm", "_tags": {"ele": "2480", "gnis:feature_id": "1431725", "name": "Redrock Peak", "natural": "peak", "wikidata": "Q49068078"}}, {"name": "Rossi Hill", "latitude": 40.6421734, "longitude": -111.4913058, "elevation": 2229.0, "source": "osm", "_tags": {"ele": "2229", "gnis:feature_id": "1432011", "name": "Rossi Hill", "natural": "peak"}}, {"name": "Round Knoll", "latitude": 40.8531165, "longitude": -112.052287, "elevation": 1283.0, "source": "osm", "_tags": {"created_by": "Potlatch 0.10f", "ele": "1283", "gnis:feature_id": "1432021", "name": "Round Knoll", "natural": "peak"}}, {"name": "Rover Hill", "latitude": 40.3413351, "longitude": -112.2380005, "elevation": 2570.0, "source": "osm", "_tags": {"ele": "2570", "gnis:feature_id": "1432033", "name": "Rover Hill", "natural": "peak"}}, {"name": "Saddle Rock", "latitude": 40.9149464, "longitude": -111.6054836, "elevation": 1944.0, "source": "osm", "_tags": {"ele": "1944", "gnis:feature_id": "1432083", "name": "Saddle Rock", "natural": "peak", "wikidata": "Q49070733"}}, {"name": "Shaggy Peak", "latitude": 40.4971696, "longitude": -112.0821618, "elevation": 1836.0, "source": "osm", "_tags": {"ele": "1836", "gnis:feature_id": "1432353", "name": "Shaggy Peak", "natural": "peak"}}, {"name": "Sharp Mountain", "latitude": 40.4012689, "longitude": -112.2632134, "elevation": 3042.0, "source": "osm", "_tags": {"ele": "3042", "gnis:feature_id": "1432362", "name": "Sharp Mountain", "natural": "peak"}}, {"name": "Silveropolis Hill", "latitude": 40.3547406, "longitude": -112.2452229, "elevation": 2625.0, "source": "osm", "_tags": {"ele": "2625", "gnis:feature_id": "1432472", "name": "Silveropolis Hill", "natural": "peak"}}, {"name": "South Mountain", "latitude": 40.4668927, "longitude": -112.039105, "elevation": 2079.0, "source": "osm", "_tags": {"ele": "2079", "gnis:feature_id": "1432740", "name": "South Mountain", "natural": "peak"}}, {"name": "Step Mountain", "latitude": 40.4743922, "longitude": -112.0668836, "elevation": 1862.0, "source": "osm", "_tags": {"ele": "1862", "gnis:feature_id": "1432960", "name": "Step Mountain", "natural": "peak"}}, {"name": "Storm Mountain", "latitude": 40.6088374, "longitude": -111.7421526, "elevation": 2901.0, "source": "osm", "_tags": {"ele": "2901", "gnis:feature_id": "1432995", "name": "Storm Mountain", "natural": "peak"}}, {"name": "Sunrise Hill", "latitude": 40.3121689, "longitude": -112.219389, "elevation": 2319.0, "source": "osm", "_tags": {"ele": "2319", "gnis:feature_id": "1433072", "name": "Sunrise Hill", "natural": "peak"}}, {"name": "Tenmile Hill", "latitude": 40.1085606, "longitude": -112.1157774, "elevation": 1592.0, "source": "osm", "_tags": {"ele": "1592", "gnis:feature_id": "1433226", "name": "Tenmile Hill", "natural": "peak"}}, {"name": "The Jumpoff", "latitude": 40.39328, "longitude": -112.1791095, "elevation": 2455.0, "source": "osm", "_tags": {"ele": "2455", "gnis:feature_id": "1433350", "name": "The Jumpoff", "natural": "peak"}}, {"name": "The Knolls", "latitude": 40.2002298, "longitude": -111.8899347, "elevation": 1432.0, "source": "osm", "_tags": {"ele": "1432", "gnis:feature_id": "1433356", "name": "The Knolls", "natural": "peak"}}, {"name": "The Peak", "latitude": 40.5536008, "longitude": -111.4793731, "elevation": 2182.0, "source": "osm", "_tags": {"ele": "2182", "gnis:feature_id": "1433395", "name": "The Peak", "natural": "peak"}}, {"name": "Thorpe Hills", "latitude": 40.2074484, "longitude": -112.1566101, "elevation": 1823.0, "source": "osm", "_tags": {"ele": "1823", "gnis:feature_id": "1433479", "name": "Thorpe Hills", "natural": "peak"}}, {"name": "Topliff Hill", "latitude": 40.1277502, "longitude": -112.1729929, "elevation": 1980.0, "source": "osm", "_tags": {"ele": "1980", "gnis:feature_id": "1433598", "name": "Topliff Hill", "natural": "peak"}}, {"name": "Twin Knolls", "latitude": 40.6157796, "longitude": -112.0866074, "elevation": 1647.0, "source": "osm", "_tags": {"ele": "1647", "gnis:feature_id": "1433738", "name": "Twin Knolls", "natural": "peak"}}, {"name": "Twin Peaks (east)", "latitude": 40.5938705, "longitude": -111.720814, "elevation": 3453.4, "source": "osm", "_tags": {"alt_name": "Broads Fork Twin Peaks (east)", "ele": "3453.4", "gnis:feature_id": "1433746", "name": "Twin Peaks (east)", "natural": "peak"}}, {"name": "Two O'Clock", "latitude": 40.5074443, "longitude": -112.3074468, "elevation": 1829.0, "source": "osm", "_tags": {"ele": "1829", "gnis:feature_id": "1433762", "name": "Two O'Clock", "natural": "peak"}}, {"name": "Wanlass Hill", "latitude": 40.0771733, "longitude": -112.0277201, "elevation": 1731.0, "source": "osm", "_tags": {"ele": "1731", "gnis:feature_id": "1433940", "name": "Wanlass Hill", "natural": "peak"}}, {"name": "West Mountain", "latitude": 40.0888422, "longitude": -111.8221559, "elevation": 2074.0, "source": "osm", "_tags": {"ele": "2074", "gnis:feature_id": "1434101", "name": "West Mountain", "natural": "peak", "wikidata": "Q7986038"}}, {"name": "White Knoll", "latitude": 40.1649516, "longitude": -111.9624381, "elevation": 1478.0, "source": "osm", "_tags": {"ele": "1478", "gnis:feature_id": "1434166", "name": "White Knoll", "natural": "peak"}}, {"name": "Frary Peak", "latitude": 40.9620733, "longitude": -112.2161111, "elevation": 2006.0, "source": "osm", "_tags": {"ele": "2006", "gnis:feature_id": "1435553", "name": "Frary Peak", "natural": "peak"}}, {"name": "Freeman Peak", "latitude": 40.5575868, "longitude": -112.1688051, "elevation": 2623.0, "source": "osm", "_tags": {"ele": "2623", "gnis:feature_id": "1435555", "name": "Freeman Peak", "natural": "peak"}}, {"name": "Kelsey Peak", "latitude": 40.4518991, "longitude": -112.214414, "elevation": 3162.0, "source": "osm", "_tags": {"ele": "3162", "gnis:feature_id": "1435816", "name": "Kelsey Peak", "natural": "peak"}}, {"name": "Sunrise Peak", "latitude": 40.5910351, "longitude": -111.711177, "elevation": 3436.6, "source": "osm", "_tags": {"alt_name": "O'Sullivan Peak", "ele": "3436.6", "gnis:feature_id": "1436056", "name": "Sunrise Peak", "natural": "peak"}}, {"name": "Shoofly Hill", "latitude": 40.3978144, "longitude": -112.2705461, "elevation": 2825.0, "source": "osm", "_tags": {"ele": "2825", "gnis:feature_id": "1436348", "name": "Shoofly Hill", "natural": "peak"}}, {"name": "Sundial Peak", "latitude": 40.5987442, "longitude": -111.685958, "elevation": 3134.0, "source": "osm", "_tags": {"ele": "3134", "gnis:feature_id": "1436447", "name": "Sundial Peak", "natural": "peak"}}, {"name": "Thunder Mountain", "latitude": 40.5417013, "longitude": -111.6841778, "elevation": 3262.0, "source": "osm", "_tags": {"ele": "3262", "fixme": "This peak is incorrectly named.", "gnis:feature_id": "1436494", "name": "Thunder Mountain", "natural": "peak"}}, {"name": "White Baldy", "latitude": 40.5330062, "longitude": -111.6813146, "elevation": 3451.0, "source": "osm", "_tags": {"ele": "3451", "gnis:feature_id": "1436626", "name": "White Baldy", "natural": "peak"}}, {"name": "Curry Peak", "latitude": 40.5732793, "longitude": -112.1404975, "elevation": 2265.0, "source": "osm", "_tags": {"ele": "2265", "gnis:feature_id": "1437257", "name": "Curry Peak", "natural": "peak"}}, {"name": "Lewiston Peak", "latitude": 40.3602245, "longitude": -112.1943879, "elevation": 3161.0, "source": "osm", "_tags": {"ele": "3161", "gnis:feature_id": "1437294", "name": "Lewiston Peak", "natural": "peak"}}, {"name": "Bamberger Hill", "latitude": 40.9460533, "longitude": -112.2102256, "elevation": 1795.0, "source": "osm", "_tags": {"ele": "1795", "gnis:feature_id": "1437438", "name": "Bamberger Hill", "natural": "peak"}}, {"name": "Dooly Knob", "latitude": 40.9944969, "longitude": -112.2103414, "elevation": 1582.0, "source": "osm", "_tags": {"ele": "1582", "gnis:feature_id": "1437441", "name": "Dooly Knob", "natural": "peak"}}, {"name": "Garr Knolls", "latitude": 40.8599433, "longitude": -112.1830017, "elevation": 1495.0, "source": "osm", "_tags": {"ele": "1495", "gnis:feature_id": "1437442", "name": "Garr Knolls", "natural": "peak"}}, {"name": "The Sentry", "latitude": 40.9171648, "longitude": -112.197725, "elevation": 1642.0, "source": "osm", "_tags": {"ele": "1642", "gnis:feature_id": "1437444", "name": "The Sentry", "natural": "peak"}}, {"name": "Tooele Peak", "latitude": 40.5002225, "longitude": -112.2510556, "elevation": 2176.0, "source": "osm", "_tags": {"ele": "2176", "gnis:feature_id": "1437457", "name": "Tooele Peak", "natural": "peak"}}, {"name": "Stringham Peak", "latitude": 40.9702196, "longitude": -112.219115, "elevation": 1934.0, "source": "osm", "_tags": {"ele": "1934", "gnis:feature_id": "1438075", "name": "Stringham Peak", "natural": "peak"}}, {"name": "Mount Aire", "latitude": 40.720283, "longitude": -111.695302, "elevation": 2622.0, "source": "osm", "_tags": {"ele": "2622", "gnis:feature_id": "1438140", "name": "Mount Aire", "natural": "peak"}}, {"name": "Ant Knolls", "latitude": 40.5513415, "longitude": -111.5710295, "elevation": 3003.0, "source": "osm", "_tags": {"ele": "3003", "gnis:feature_id": "1438234", "name": "Ant Knolls", "natural": "peak"}}, {"name": "Bald Knoll", "latitude": 40.2585322, "longitude": -111.5181037, "elevation": 2793.0, "source": "osm", "_tags": {"ele": "2793", "gnis:feature_id": "1438348", "name": "Bald Knoll", "natural": "peak"}}, {"name": "Bald Knoll", "latitude": 40.3007906, "longitude": -111.458797, "elevation": 2846.0, "source": "osm", "_tags": {"ele": "2846", "gnis:feature_id": "1438349", "name": "Bald Knoll", "natural": "peak"}}, {"name": "Bald Mountain", "latitude": 40.7921691, "longitude": -111.6485394, "elevation": 2391.0, "source": "osm", "_tags": {"ele": "2391", "gnis:feature_id": "1438360", "name": "Bald Mountain", "natural": "peak"}}, {"name": "Big Baldy", "latitude": 40.3659598, "longitude": -111.6664949, "elevation": 2667.0, "source": "osm", "_tags": {"ele": "2667", "gnis:feature_id": "1438630", "name": "Big Baldy", "natural": "peak"}}, {"name": "Big Mountain", "latitude": 40.8452243, "longitude": -111.660485, "elevation": 2578.0, "source": "osm", "_tags": {"ele": "2578", "gnis:feature_id": "1438707", "name": "Big Mountain", "natural": "peak"}}, {"name": "Black Mountain (West Summit)", "latitude": 40.8132404, "longitude": -111.798245, "elevation": 2484.0, "source": "osm", "_tags": {"ele": "2484", "gnis:feature_id": "1438860", "name": "Black Mountain (West Summit)", "natural": "peak"}}, {"name": "Bountiful Peak", "latitude": 40.9644341, "longitude": -111.8180899, "elevation": 2823.0, "source": "osm", "_tags": {"ele": "2823", "gnis:feature_id": "1439040", "name": "Bountiful Peak", "natural": "peak"}}, {"name": "Box Elder Peak", "latitude": 40.4900328, "longitude": -111.6961037, "elevation": 3354.0, "source": "osm", "_tags": {"ele": "3354", "gnis:feature_id": "1439075", "name": "Box Elder Peak", "natural": "peak"}}, {"name": "Buckley Mountain", "latitude": 40.2138451, "longitude": -111.5882507, "elevation": 2900.0, "source": "osm", "_tags": {"ele": "2900", "gnis:feature_id": "1439249", "name": "Buckley Mountain", "natural": "peak"}}, {"name": "Cascade Mountain", "latitude": 40.3069728, "longitude": -111.5881371, "elevation": 3300.0, "source": "osm", "_tags": {"ele": "3300", "gnis:feature_id": "1439506", "name": "Cascade Mountain", "natural": "peak", "wikidata": "Q48971250", "wikipedia": "en:Cascade Mountain (Utah)"}}, {"name": "Cave Peak", "latitude": 40.8502844, "longitude": -111.8351032, "elevation": 2076.0, "source": "osm", "_tags": {"ele": "2076", "gnis:feature_id": "1439548", "local_name": "Pyramid Peak", "name": "Cave Peak", "natural": "peak"}}, {"name": "Clayton Peak", "latitude": 40.5906707, "longitude": -111.5598858, "elevation": 3258.0, "source": "osm", "_tags": {"ele": "3258", "gnis:feature_id": "1439786", "name": "Clayton Peak", "natural": "peak"}}, {"name": "Corral Mountain", "latitude": 40.2288778, "longitude": -111.5544823, "elevation": 3177.0, "source": "osm", "_tags": {"ele": "3177", "gnis:feature_id": "1439979", "name": "Corral Mountain", "natural": "peak"}}, {"name": "Davenport Hill", "latitude": 40.5995895, "longitude": -111.6221775, "elevation": 3076.0, "source": "osm", "_tags": {"ele": "3076", "gnis:feature_id": "1440276", "name": "Davenport Hill", "natural": "peak"}}, {"name": "Ecker Hill", "latitude": 40.7407811, "longitude": -111.5752023, "elevation": 2151.0, "source": "osm", "_tags": {"ele": "2151", "gnis:feature_id": "1440863", "name": "Ecker Hill", "natural": "peak", "tourism": "viewpoint"}}, {"name": "Ensign Peak", "latitude": 40.794374, "longitude": -111.8906558, "elevation": 1651.0, "source": "osm", "_tags": {"ele": "1651", "gnis:feature_id": "1440938", "name": "Ensign Peak", "natural": "peak", "wikidata": "Q5380003"}}, {"name": "Ether Peak", "latitude": 40.1435679, "longitude": -111.5279686, "elevation": 2291.0, "source": "osm", "_tags": {"ele": "2291", "gnis:feature_id": "1440966", "name": "Ether Peak", "natural": "peak"}}, {"name": "Mount Evergreen", "latitude": 40.6010506, "longitude": -111.597227, "elevation": 3005.0, "source": "osm", "_tags": {"ele": "3005", "gnis:feature_id": "1440973", "name": "Mount Evergreen", "natural": "peak"}}, {"name": "Grandeur Peak", "latitude": 40.7071065, "longitude": -111.7597936, "elevation": 2506.0, "source": "osm", "_tags": {"ele": "2506", "gnis:feature_id": "1441406", "name": "Grandeur Peak", "natural": "peak"}}, {"name": "Grandview Peak", "latitude": 40.8516128, "longitude": -111.7521555, "elevation": 2866.0, "source": "osm", "_tags": {"ele": "2866", "gnis:feature_id": "1441407", "name": "Grandview Peak", "natural": "peak", "wikidata": "Q49032674"}}, {"name": "Horse Mountain", "latitude": 40.2135676, "longitude": -111.5757497, "elevation": 2636.0, "source": "osm", "_tags": {"ele": "2636", "gnis:feature_id": "1441890", "name": "Horse Mountain", "natural": "peak"}}, {"name": "Iron Mountain", "latitude": 40.6572068, "longitude": -111.5429826, "elevation": 2742.0, "source": "osm", "_tags": {"ele": "2742", "gnis:feature_id": "1442050", "name": "Iron Mountain", "natural": "peak"}}, {"name": "Jupiter Peak", "latitude": 40.6133717, "longitude": -111.5398518, "elevation": 3042.0, "source": "osm", "_tags": {"ele": "3042", "gnis:feature_id": "1442256", "name": "Jupiter Peak", "natural": "peak"}}, {"name": "Kesler Peak", "latitude": 40.6251165, "longitude": -111.668756, "elevation": 3170.8, "source": "osm", "_tags": {"alt_name": "Kessler Peak", "ele": "3170.8", "gnis:feature_id": "1442305", "name": "Kesler Peak", "natural": "peak"}}, {"name": "Lightning Peak", "latitude": 40.2821796, "longitude": -111.5218567, "elevation": 3060.0, "source": "osm", "_tags": {"ele": "3060", "gnis:feature_id": "1442587", "name": "Lightning Peak", "natural": "peak"}}, {"name": "Little Baldy", "latitude": 40.3576466, "longitude": -111.6513289, "elevation": 2338.0, "source": "osm", "_tags": {"ele": "2338", "gnis:feature_id": "1442652", "name": "Little Baldy", "natural": "peak"}}, {"name": "Little Mountain", "latitude": 40.0243991, "longitude": -111.7160395, "elevation": 1614.0, "source": "osm", "_tags": {"ele": "1614", "gnis:feature_id": "1442747", "name": "Little Mountain", "natural": "peak"}}, {"name": "Little Mountain", "latitude": 40.7919633, "longitude": -111.6930446, "elevation": 2137.0, "source": "osm", "_tags": {"ele": "2137", "gnis:feature_id": "1442749", "name": "Little Mountain", "natural": "peak"}}, {"name": "Little Tree Hill", "latitude": 40.7727243, "longitude": -111.7535432, "elevation": 1762.0, "source": "osm", "_tags": {"ele": "1762", "gnis:feature_id": "1442788", "name": "Little Tree Hill", "natural": "peak"}}, {"name": "Little Water Peak", "latitude": 40.671892, "longitude": -111.627703, "elevation": 2930.0, "source": "osm", "_tags": {"ele": "2930", "gnis:feature_id": "1442809", "name": "Little Water Peak", "natural": "peak"}}, {"name": "Lookout Peak", "latitude": 40.8346685, "longitude": -111.7174316, "elevation": 2722.0, "source": "osm", "_tags": {"ele": "2722", "gnis:feature_id": "1442946", "name": "Lookout Peak", "natural": "peak"}}, {"name": "Mahogany Mountain", "latitude": 40.4098713, "longitude": -111.7142118, "elevation": 2747.0, "source": "osm", "_tags": {"ele": "2747", "gnis:feature_id": "1443090", "name": "Mahogany Mountain", "natural": "peak"}}, {"name": "Middle Mountain", "latitude": 40.5221763, "longitude": -111.5357482, "elevation": 2492.0, "source": "osm", "_tags": {"ele": "2492", "gnis:feature_id": "1443366", "name": "Middle Mountain", "natural": "peak"}}, {"name": "Mill Canyon Peak", "latitude": 40.4960781, "longitude": -111.5763083, "elevation": 3151.0, "source": "osm", "_tags": {"ele": "3151", "gnis:feature_id": "1443414", "name": "Mill Canyon Peak", "natural": "peak"}}, {"name": "Miller Hill", "latitude": 40.5445496, "longitude": -111.6210188, "elevation": 3014.0, "source": "osm", "_tags": {"ele": "3014", "gnis:feature_id": "1443486", "name": "Miller Hill", "natural": "peak"}}, {"name": "Mount Millicent", "latitude": 40.5905511, "longitude": -111.5975113, "elevation": 3185.8, "source": "osm", "_tags": {"ele": "3185.8", "gnis:feature_id": "1443494", "name": "Mount Millicent", "natural": "peak"}}, {"name": "Murdock Peak", "latitude": 40.6933055, "longitude": -111.6053188, "elevation": 2922.0, "source": "osm", "_tags": {"ele": "2922", "gnis:feature_id": "1443741", "name": "Murdock Peak", "natural": "peak"}}, {"name": "Mount Olympus", "latitude": 40.6567926, "longitude": -111.7710817, "elevation": 2741.0, "source": "osm", "_tags": {"ele": "2741", "gnis:feature_id": "1444093", "name": "Mount Olympus", "natural": "peak", "wikidata": "Q6922584"}}, {"name": "Pioneer Peak", "latitude": 40.5807848, "longitude": -111.5893649, "elevation": 3173.0, "source": "osm", "_tags": {"ele": "3173", "gnis:feature_id": "1444449", "name": "Pioneer Peak", "natural": "peak"}}, {"name": "Powerhouse Mountain", "latitude": 40.176774, "longitude": -111.524846, "elevation": 2421.0, "source": "osm", "_tags": {"ele": "2421", "gnis:feature_id": "1444624", "name": "Powerhouse Mountain", "natural": "peak"}}, {"name": "Quarry Mountain", "latitude": 40.6827276, "longitude": -111.5229757, "elevation": 2259.0, "source": "osm", "_tags": {"ele": "2259", "gnis:feature_id": "1444695", "name": "Quarry Mountain", "natural": "peak"}}, {"name": "Rattlesnake Mountain", "latitude": 40.2757906, "longitude": -111.4212945, "elevation": 2609.0, "source": "osm", "_tags": {"ele": "2609", "gnis:feature_id": "1444730", "name": "Rattlesnake Mountain", "natural": "peak"}}, {"name": "Rattlesnake Point", "latitude": 40.1471787, "longitude": -111.5488035, "elevation": 1688.0, "source": "osm", "_tags": {"ele": "1688", "gnis:feature_id": "1444745", "name": "Rattlesnake Point", "natural": "peak"}}, {"name": "Mount Raymond", "latitude": 40.6585713, "longitude": -111.7020519, "elevation": 3108.0, "source": "osm", "_tags": {"ele": "3108", "gnis:feature_id": "1444749", "name": "Mount Raymond", "natural": "peak", "wikidata": "Q49054285"}}, {"name": "Red Rock", "latitude": 40.4875166, "longitude": -111.8564901, "elevation": 1655.0, "source": "osm", "_tags": {"ele": "1655", "gnis:feature_id": "1444832", "name": "Red Rock", "natural": "peak"}}, {"name": "Roberts Horn", "latitude": 40.3996186, "longitude": -111.6374333, "elevation": 3350.7, "source": "osm", "_tags": {"ele": "3350.7", "gnis:feature_id": "1445018", "name": "Roberts Horn", "natural": "peak"}}, {"name": "Round Peak", "latitude": 40.1742421, "longitude": -111.5854908, "elevation": 1683.0, "source": "osm", "_tags": {"ele": "1683", "gnis:feature_id": "1445175", "name": "Round Peak", "natural": "peak"}}, {"name": "Scott Hill", "latitude": 40.6243702, "longitude": -111.5673589, "elevation": 3063.0, "source": "osm", "_tags": {"ele": "3063", "gnis:feature_id": "1445383", "name": "Scott Hill", "natural": "peak"}}, {"name": "Spanish Fork Peak", "latitude": 40.0879759, "longitude": -111.527795, "elevation": 3092.0, "source": "osm", "_tags": {"ele": "3092", "gnis:feature_id": "1445948", "name": "Spanish Fork Peak", "natural": "peak"}}, {"name": "Steep Mountain", "latitude": 40.4713577, "longitude": -111.883518, "elevation": 1876.0, "source": "osm", "_tags": {"ele": "1876", "gnis:feature_id": "1446124", "name": "Steep Mountain", "natural": "peak"}}, {"name": "Table Mound", "latitude": 40.8075266, "longitude": -111.7710141, "elevation": 2195.0, "source": "osm", "_tags": {"ele": "2195", "gnis:feature_id": "1446315", "name": "Table Mound", "natural": "peak"}}, {"name": "Three Sisters", "latitude": 40.1846784, "longitude": -111.5857506, "elevation": 2047.0, "source": "osm", "_tags": {"ele": "2047", "gnis:feature_id": "1446572", "name": "Three Sisters", "natural": "peak"}}, {"name": "Toad Head", "latitude": 40.2191226, "longitude": -111.607418, "elevation": 2238.0, "source": "osm", "_tags": {"ele": "2238", "gnis:feature_id": "1446623", "name": "Toad Head", "natural": "peak", "note": "https://peakery.com/toad-head-utah/map/"}}, {"name": "Treasure Hill", "latitude": 40.6343958, "longitude": -111.5088064, "elevation": 2513.0, "source": "osm", "_tags": {"ele": "2513", "gnis:feature_id": "1446709", "name": "Treasure Hill", "natural": "peak"}}, {"name": "Mount Tuscarora", "latitude": 40.5845176, "longitude": -111.5987781, "elevation": 3243.0, "source": "osm", "_tags": {"ele": "3243", "gnis:feature_id": "1446767", "name": "Mount Tuscarora", "natural": "peak"}}, {"name": "Twin Peaks", "latitude": 40.7946682, "longitude": -111.8410463, "elevation": 1904.0, "source": "osm", "_tags": {"ele": "1904", "gnis:feature_id": "1446798", "name": "Twin Peaks", "natural": "peak", "wikidata": "Q49086261"}}, {"name": "Mount Wolverine", "latitude": 40.5854307, "longitude": -111.6035752, "elevation": 3290.3, "source": "osm", "_tags": {"ele": "3290.3", "gnis:feature_id": "1447502", "name": "Mount Wolverine", "natural": "peak"}}, {"name": "Dominguez Hill", "latitude": 40.0763445, "longitude": -111.5965853, "elevation": 1539.0, "source": "osm", "_tags": {"ele": "1539", "gnis:feature_id": "1448347", "name": "Dominguez Hill", "natural": "peak"}}, {"name": "Triangle Peak", "latitude": 40.6552256, "longitude": -111.754653, "elevation": 2854.0, "source": "osm", "_tags": {"alt_name": "Hobbs Peak", "ele": "2854", "gnis:feature_id": "1451260", "name": "Triangle Peak", "natural": "peak"}}, {"name": "Rocky Peak", "latitude": 40.4313347, "longitude": -112.2191105, "elevation": 3118.0, "source": "osm", "_tags": {"ele": "3118", "gnis:feature_id": "1455011", "name": "Rocky Peak", "natural": "peak"}}, {"name": "West Mountain", "latitude": 40.5001738, "longitude": -112.175848, "elevation": 2733.0, "source": "osm", "_tags": {"ele": "2733", "gnis:feature_id": "1455045", "name": "West Mountain", "natural": "peak"}}, {"name": "Picture Rock", "latitude": 40.8860539, "longitude": -112.2174475, "elevation": 1300.0, "source": "osm", "_tags": {"ele": "1300", "gnis:feature_id": "1455707", "name": "Picture Rock", "natural": "peak"}}, {"name": "Homestead Crater Mineral Dome", "latitude": 40.5238534, "longitude": -111.4849731, "elevation": 1745.0, "source": "osm", "_tags": {"ele": "1745", "gnis:feature_id": "1904552", "name": "Homestead Crater Mineral Dome", "natural": "peak"}}, {"name": "Enniss Peak", "latitude": 40.5140863, "longitude": -111.7869864, "elevation": 2844.0, "source": "osm", "_tags": {"ele": "2844", "gnis:feature_id": "1988686", "name": "Enniss Peak", "natural": "peak"}}, {"name": "Freedom Peak", "latitude": 40.260247, "longitude": -111.544472, "elevation": 3270.0, "source": "osm", "_tags": {"ele": "3270", "gnis:feature_id": "2071367", "name": "Freedom Peak", "natural": "peak"}}, {"name": "Shingle Mill Peak", "latitude": 40.269479, "longitude": -111.5408987, "elevation": 3253.0, "source": "osm", "_tags": {"ele": "3253", "gnis:feature_id": "2129616", "name": "Shingle Mill Peak", "natural": "peak"}}, {"name": "Desolation Peak", "latitude": 40.6579868, "longitude": -111.5957722, "elevation": 3045.0, "source": "osm", "_tags": {"ele": "3045", "name": "Desolation Peak", "natural": "peak"}}, {"name": "Kimball Benchmark", "latitude": 40.7410235, "longitude": -111.5383694, "elevation": 2176.0, "source": "osm", "_tags": {"ele": "2176", "name": "Kimball Benchmark", "natural": "peak"}}, {"name": "Eagle Peak", "latitude": 40.5643224, "longitude": -111.60588, "elevation": 3311.3, "source": "osm", "_tags": {"ele": "3311.3", "name": "Eagle Peak", "natural": "peak"}}, {"name": "Flag Rock", "latitude": 40.9869861, "longitude": -111.8720446, "elevation": 1769.97, "source": "osm", "_tags": {"ele": "1769.97", "name": "Flag Rock", "natural": "peak"}}, {"name": "Eagle Rock", "latitude": 40.714157, "longitude": -111.607138, "elevation": null, "source": "osm", "_tags": {"name": "Eagle Rock", "natural": "peak"}}, {"name": "Y Mountain", "latitude": 40.2569233, "longitude": -111.6066931, "elevation": 2611.0, "source": "osm", "_tags": {"ele": "2611", "gnis:feature_id": "1447543", "name": "Y Mountain", "natural": "peak", "note": "https://peakery.com/y-mountain-utah/", "wikidata": "Q8046160", "wikipedia": "en:Y Mountain"}}, {"name": "Kyhv Peak", "latitude": 40.2712361, "longitude": -111.616915, "elevation": 2399.0, "source": "osm", "_tags": {"ele": "2399", "gnis:feature_id": "1446080", "name": "Kyhv Peak", "natural": "peak", "note": "Renamed from Squaw Mountain to Kyhv Peak on 2022/09/08. The old name is a slur and is rapidly falling out of use; do not change the name back.", "old_name:1850-2022": "Squaw Mountain", "wikidata": "Q49077288"}}, {"name": "Coyote Ridge", "latitude": 40.9847905, "longitude": -112.214143, "elevation": null, "source": "osm", "_tags": {"name": "Coyote Ridge", "natural": "peak"}}, {"name": "Latimer Point", "latitude": 40.4353889, "longitude": -112.0152211, "elevation": 2050.0, "source": "osm", "_tags": {"ele": "2050", "name": "Latimer Point", "natural": "peak"}}, {"name": "Hidden Peak via Alta By-Pass Road", "latitude": 40.5607859, "longitude": -111.6450661, "elevation": 3350.0, "source": "osm", "_tags": {"ele": "3350", "name": "Hidden Peak via Alta By-Pass Road", "natural": "peak"}}, {"name": "Buffalo Peak", "latitude": 40.2825601, "longitude": -111.6129104, "elevation": 2444.0, "source": "osm", "_tags": {"ele": "2444", "name": "Buffalo Peak", "natural": "peak"}}, {"name": "Sunset Peak", "latitude": 40.5771083, "longitude": -111.5936177, "elevation": 3245.5, "source": "osm", "_tags": {"ele": "3245.5", "gnis:feature_id": "1446260", "name": "Sunset Peak", "natural": "peak"}}, {"name": "Gobblers Knob", "latitude": 40.67074, "longitude": -111.682808, "elevation": 3115.0, "source": "osm", "_tags": {"ele": "3115", "gnis:feature_id": "1441344", "name": "Gobblers Knob", "natural": "peak", "wikidata": "Q49031976"}}, {"name": "Circle All Peak", "latitude": 40.6533822, "longitude": -111.6740407, "elevation": 2654.0, "source": "osm", "_tags": {"ele": "2654", "name": "Circle All Peak", "natural": "peak"}}, {"name": "North Thunder Mountain", "latitude": 40.543472, "longitude": -111.7311149, "elevation": 3400.0, "source": "osm", "_tags": {"ele": "3400", "name": "North Thunder Mountain", "natural": "peak"}}, {"name": "Reynolds Peak", "latitude": 40.6620683, "longitude": -111.645712, "elevation": 2875.0, "source": "osm", "_tags": {"ele": "2875", "name": "Reynolds Peak", "natural": "peak"}}, {"name": "Big Horn Peak", "latitude": 40.522406, "longitude": -111.7436459, "elevation": 3316.0, "source": "osm", "_tags": {"alt_name": "Upper Bells Peak", "ele": "3316", "name": "Big Horn Peak", "natural": "peak"}}, {"name": "Provo Peak", "latitude": 40.2443103, "longitude": -111.556725, "elevation": 3355.0, "source": "osm", "_tags": {"ele": "3355", "gnis:feature_id": "1444666", "name": "Provo Peak", "natural": "peak", "wikidata": "Q48804057", "wikipedia": "en:Provo Peak"}}, {"name": "", "latitude": 40.4179834, "longitude": -111.6702817, "elevation": 3469.5, "source": "osm", "_tags": {"ele": "3469.5", "natural": "peak"}}, {"name": "Y Mountain West Peak", "latitude": 40.2542924, "longitude": -111.610359, "elevation": 2597.0, "source": "osm", "_tags": {"ele": "2597", "name": "Y Mountain West Peak", "natural": "peak", "note": "https://peakery.com/y-mountain-west-peak-utah/"}}, {"name": "Peak 6233 ft", "latitude": 40.308773, "longitude": -111.633026, "elevation": null, "source": "osm", "_tags": {"name": "Peak 6233 ft", "natural": "peak", "note": "https://peakery.com/peak-6233-ft-utah/"}}, {"name": "Monte Cristo", "latitude": 40.5913286, "longitude": -111.671316, "elevation": 3393.0, "source": "osm", "_tags": {"alt_name": "Superior Peak", "ele": "3393", "name": "Monte Cristo", "natural": "peak"}}, {"name": "Devil's Castle", "latitude": 40.5655572, "longitude": -111.613492, "elevation": 3340.9, "source": "osm", "_tags": {"ele": "3340.9", "name": "Devil's Castle", "natural": "peak"}}, {"name": "Twin Peaks (west)", "latitude": 40.5935055, "longitude": -111.723237, "elevation": 3452.8, "source": "osm", "_tags": {"alt_name": "Broads Fork Twin Peaks (west)", "ele": "3452.8", "name": "Twin Peaks (west)", "natural": "peak"}}, {"name": "Millvue Peak", "latitude": 40.7027617, "longitude": -111.6654806, "elevation": 2720.0, "source": "osm", "_tags": {"ele": "2720", "name": "Millvue Peak", "natural": "peak"}}, {"name": "", "latitude": 40.6026933, "longitude": -111.6680355, "elevation": 3241.0, "source": "osm", "_tags": {"ele": "3241", "natural": "peak"}}, {"name": "Big Mountain South", "latitude": 40.8210026, "longitude": -111.646005, "elevation": 2385.0, "source": "osm", "_tags": {"ele": "2385", "name": "Big Mountain South", "natural": "peak"}}, {"name": "Cascade Springs Hill", "latitude": 40.4466098, "longitude": -111.5321324, "elevation": 2185.0, "source": "osm", "_tags": {"ele": "2185", "name": "Cascade Springs Hill", "natural": "peak"}}, {"name": "PC Hill", "latitude": 40.6741629, "longitude": -111.4863912, "elevation": 2195.0, "source": "osm", "_tags": {"alt_name": "Park City Hill", "ele": "2195", "name": "PC Hill", "natural": "peak"}}, {"name": "Guardsman Peak", "latitude": 40.6099141, "longitude": -111.553207, "elevation": 3056.0, "source": "osm", "_tags": {"alt_name": "Tri-County Peak", "ele": "3056", "name": "Guardsman Peak", "natural": "peak"}}, {"name": "10420", "latitude": 40.6000003, "longitude": -111.5583778, "elevation": 3176.0, "source": "osm", "_tags": {"ele": "3176", "name": "10420", "natural": "peak"}}, {"name": "Red Baldy", "latitude": 40.5403139, "longitude": -111.667139, "elevation": 3405.0, "source": "osm", "_tags": {"ele": "3405", "name": "Red Baldy", "natural": "peak"}}, {"name": "South Thunder Mountain", "latitude": 40.5326974, "longitude": -111.7350002, "elevation": 3400.0, "source": "osm", "_tags": {"description": "Summit of South Thunder Mountain", "ele": "3400", "name": "South Thunder Mountain", "natural": "peak"}}, {"name": "Farnsworth Peak", "latitude": 40.6596844, "longitude": -112.2023337, "elevation": 2755.0, "source": "osm", "_tags": {"ele": "2755", "name": "Farnsworth Peak", "name:etymology": "Philo Taylor Farnsworth", "name:etymology:wikidata": "Q360098", "name:etymology:wikipedia": "en:Philo Farnsworth", "natural": "peak", "wikidata": "Q5436057", "wikipedia": "en:Farnsworth Peak"}}, {"name": "Silver Peak", "latitude": 40.6515953, "longitude": -111.594068, "elevation": 3050.0, "source": "osm", "_tags": {"alt_name": "Silver Benchmark", "ele": "3050", "name": "Silver Peak", "natural": "peak"}}, {"name": "North Timpanogos", "latitude": 40.4164329, "longitude": -111.6683913, "elevation": 3487.2, "source": "osm", "_tags": {"ele": "3487.2", "name": "North Timpanogos", "natural": "peak"}}, {"name": "", "latitude": 40.3687245, "longitude": -111.63052, "elevation": 3269.0, "source": "osm", "_tags": {"ele": "3269", "natural": "peak"}}, {"name": "East Peak", "latitude": 40.3945763, "longitude": -111.6227363, "elevation": 3289.1, "source": "osm", "_tags": {"alt_name": "Elk Point", "ele": "3289.1", "name": "East Peak", "natural": "peak"}}, {"name": "Mount Timpanogos", "latitude": 40.3908264, "longitude": -111.6460609, "elevation": 3581.0, "source": "osm", "_tags": {"ele": "3581", "gnis:feature_id": "1446612", "name": "Mount Timpanogos", "natural": "peak", "prominence": "1606", "source:prominence": "3581-1975 (Kamas)", "wikidata": "Q129705"}}, {"name": "Sugarloaf Mountain", "latitude": 40.5659158, "longitude": -111.6247885, "elevation": 3368.0, "source": "osm", "_tags": {"ele": "3368", "gnis:feature_id": "1454917", "name": "Sugarloaf Mountain", "natural": "peak"}}, {"name": "Geek Peak", "latitude": 40.5453551, "longitude": -111.652516, "elevation": 3471.0, "source": "osm", "_tags": {"alt_name": "Twin Peaks South", "ele": "3471", "name": "Geek Peak", "natural": "peak", "note": "Not technically a peak but OSM doesn't have non-peak points that represent mountians."}}, {"name": "Twin Peaks (east)", "latitude": 40.5511378, "longitude": -111.650694, "elevation": 3484.8, "source": "osm", "_tags": {"alt_name": "American Fork Twin Peaks (east)", "ele": "3484.8", "name": "Twin Peaks (east)", "natural": "peak"}}, {"name": "Twin Peaks (west)", "latitude": 40.5519611, "longitude": -111.6567291, "elevation": 3501.8, "source": "osm", "_tags": {"alt_name": "American Fork Twin Peaks (west)", "ele": "3501.8", "gnis:feature_id": "1433745", "name": "Twin Peaks (west)", "natural": "peak"}}, {"name": "Patsy Marley Peak", "latitude": 40.5884598, "longitude": -111.6087057, "elevation": 3208.0, "source": "osm", "_tags": {"ele": "3208", "name": "Patsy Marley Peak", "natural": "peak"}}, {"name": "", "latitude": 40.572179, "longitude": -111.602347, "elevation": null, "source": "osm", "_tags": {"natural": "peak"}}, {"name": "East Castle", "latitude": 40.5659668, "longitude": -111.6110918, "elevation": 3326.0, "source": "osm", "_tags": {"ele": "3326", "name": "East Castle", "natural": "peak"}}, {"name": "The Shoulder", "latitude": 40.39134, "longitude": -111.63736, "elevation": 3401.9, "source": "osm", "_tags": {"ele": "3401.9", "name": "The Shoulder", "natural": "peak"}}, {"name": "South Timpanogos", "latitude": 40.384366, "longitude": -111.636476, "elevation": 3572.9, "source": "osm", "_tags": {"alt_name": "Second Summit", "ele": "3572.9", "name": "South Timpanogos", "natural": "peak"}}, {"name": "Bomber Peak", "latitude": 40.4041713, "longitude": -111.6575568, "elevation": 3458.6, "source": "osm", "_tags": {"ele": "3458.6", "name": "Bomber Peak", "natural": "peak"}}, {"name": "Forgotten Peak", "latitude": 40.41346, "longitude": -111.65637, "elevation": 3203.1, "source": "osm", "_tags": {"ele": "3203.1", "name": "Forgotten Peak", "natural": "peak"}}, {"name": "Mount Superior", "latitude": 40.5921025, "longitude": -111.6670297, "elevation": 3364.0, "source": "osm", "_tags": {"ele": "3364", "name": "Mount Superior", "natural": "peak"}}, {"name": "View Benchmark", "latitude": 40.4630236, "longitude": -111.8531147, "elevation": 2044.0, "source": "osm", "_tags": {"alt_name": "Alien Tower", "ele": "2044", "name": "View Benchmark", "natural": "peak"}}, {"name": "Elk Point", "latitude": 40.3969807, "longitude": -111.6107469, "elevation": null, "source": "osm", "_tags": {"name": "Elk Point", "natural": "peak"}}, {"name": "Cardiff Peak", "latitude": 40.5949591, "longitude": -111.6527713, "elevation": 3132.0, "source": "osm", "_tags": {"alt_name": "Pole Line Peak", "ele": "3132", "name": "Cardiff Peak", "natural": "peak"}}, {"name": "The Pfeifferhorn", "latitude": 40.5335434, "longitude": -111.70598, "elevation": 3453.0, "source": "osm", "_tags": {"ele": "3453", "gnis:feature_id": "1435876", "name": "The Pfeifferhorn", "natural": "peak", "wikidata": "Q7179791"}}, {"name": "Thayne Peak", "latitude": 40.6823832, "longitude": -111.722282, "elevation": 2638.0, "source": "osm", "_tags": {"ele": "2638", "name": "Thayne Peak", "natural": "peak"}}, {"name": "", "latitude": 40.2931038, "longitude": -111.6191388, "elevation": null, "source": "osm", "_tags": {"natural": "peak"}}, {"name": "Maple Mountain", "latitude": 40.2370271, "longitude": -111.5967783, "elevation": 2770.0, "source": "osm", "_tags": {"ele": "2770", "name": "Maple Mountain", "natural": "peak"}}, {"name": "Little Mountain", "latitude": 40.3781263, "longitude": -111.6973703, "elevation": 2187.0, "source": "osm", "_tags": {"ele": "2187", "name": "Little Mountain", "natural": "peak"}}, {"name": "Peak 6562", "latitude": 40.4594298, "longitude": -111.8614828, "elevation": null, "source": "osm", "_tags": {"name": "Peak 6562", "natural": "peak"}}, {"name": "Lion's Head", "latitude": 40.2436172, "longitude": -111.58405, "elevation": 2744.0, "source": "osm", "_tags": {"ele": "2744", "name": "Lion's Head", "natural": "peak", "note": "https://peakery.com/lions-head-utah/"}}, {"name": "Little Rock Peak", "latitude": 40.2887146, "longitude": -111.627339, "elevation": 2002.0, "source": "osm", "_tags": {"ele": "2002", "name": "Little Rock Peak", "natural": "peak"}}, {"name": "Peak 8790", "latitude": 40.3589389, "longitude": -112.2350186, "elevation": 2679.0, "source": "osm", "_tags": {"ele": "2679", "name": "Peak 8790", "natural": "peak"}}, {"name": "South Lowe Peak", "latitude": 40.421074, "longitude": -112.194837, "elevation": 3144.0, "source": "osm", "_tags": {"ele": "3144", "name": "South Lowe Peak", "natural": "peak"}}, {"name": "Peak 8546", "latitude": 40.5315779, "longitude": -112.1792626, "elevation": 2605.0, "source": "osm", "_tags": {"ele": "2605", "name": "Peak 8546", "natural": "peak"}}, {"name": "Peak 7491", "latitude": 40.4698098, "longitude": -112.2890567, "elevation": 2283.3, "source": "osm", "_tags": {"ele": "2283.3", "name": "Peak 7491", "natural": "peak"}}, {"name": "Peak 8662", "latitude": 40.681998, "longitude": -112.2031708, "elevation": 2640.0, "source": "osm", "_tags": {"ele": "2640", "name": "Peak 8662", "natural": "peak"}}, {"name": "Peak 8441", "latitude": 40.5562375, "longitude": -112.1780913, "elevation": 2572.8, "source": "osm", "_tags": {"ele": "2572.8", "name": "Peak 8441", "natural": "peak"}}, {"name": "Corn Peak (10186)", "latitude": 40.4321328, "longitude": -112.209682, "elevation": 3105.0, "source": "osm", "_tags": {"ele": "3105", "name": "Corn Peak (10186)", "natural": "peak"}}, {"name": "Edwards Peak (9183)", "latitude": 40.44035, "longitude": -112.2706604, "elevation": 2799.0, "source": "osm", "_tags": {"ele": "2799", "name": "Edwards Peak (9183)", "natural": "peak"}}, {"name": "Peak 6493", "latitude": 40.4666821, "longitude": -112.3993879, "elevation": 1979.0, "source": "osm", "_tags": {"ele": "1979", "name": "Peak 6493", "natural": "peak"}}, {"name": "Butterfield Peaks", "latitude": 40.467065, "longitude": -112.172862, "elevation": 2856.0, "source": "osm", "_tags": {"ele": "2856", "name": "Butterfield Peaks", "natural": "peak"}}, {"name": "Bates Peak", "latitude": 40.6200202, "longitude": -112.1932842, "elevation": 2797.0, "source": "osm", "_tags": {"ele": "2797", "name": "Bates Peak", "natural": "peak"}}, {"name": "Peak 9070", "latitude": 40.497638, "longitude": -112.1807763, "elevation": 2765.0, "source": "osm", "_tags": {"ele": "2765", "name": "Peak 9070", "natural": "peak"}}, {"name": "Sophia Peak", "latitude": 40.4595905, "longitude": -112.3020856, "elevation": 2558.0, "source": "osm", "_tags": {"ele": "2558", "name": "Sophia Peak", "natural": "peak"}}, {"name": "Tooele Peak", "latitude": 40.4786392, "longitude": -112.2276341, "elevation": 2926.0, "source": "osm", "_tags": {"ele": "2926", "name": "Tooele Peak", "natural": "peak"}}, {"name": "Griffen Peak", "latitude": 40.4827725, "longitude": -112.3003974, "elevation": 2185.0, "source": "osm", "_tags": {"ele": "2185", "name": "Griffen Peak", "natural": "peak"}}, {"name": "Peak 8252", "latitude": 40.5620755, "longitude": -112.1827327, "elevation": 2525.2, "source": "osm", "_tags": {"ele": "2525.2", "name": "Peak 8252", "natural": "peak"}}, {"name": "White Pine Peak", "latitude": 40.4604894, "longitude": -112.215379, "elevation": 3146.0, "source": "osm", "_tags": {"ele": "3146", "name": "White Pine Peak", "natural": "peak"}}, {"name": "Peak 8100", "latitude": 40.6077031, "longitude": -112.2201379, "elevation": 2469.0, "source": "osm", "_tags": {"ele": "2469", "name": "Peak 8100", "natural": "peak"}}, {"name": "Bald Mountain (East)", "latitude": 40.3984437, "longitude": -112.2641157, "elevation": 3050.0, "source": "osm", "_tags": {"ele": "3050", "name": "Bald Mountain (East)", "natural": "peak"}}, {"name": "Balboa Peak (9530)", "latitude": 40.417296, "longitude": -112.2441931, "elevation": 2905.0, "source": "osm", "_tags": {"ele": "2905", "name": "Balboa Peak (9530)", "natural": "peak"}}, {"name": "Flat Top Mtn-South Peak", "latitude": 40.368052, "longitude": -112.1938686, "elevation": 3176.0, "source": "osm", "_tags": {"ele": "3176", "name": "Flat Top Mtn-South Peak", "natural": "peak"}}, {"name": "Flat Top Ridge (Peak 9925)", "latitude": 40.3878929, "longitude": -112.2016309, "elevation": 3025.0, "source": "osm", "_tags": {"ele": "3025", "name": "Flat Top Ridge (Peak 9925)", "natural": "peak"}}, {"name": "Chandler Peak", "latitude": 40.3964908, "longitude": -112.2480868, "elevation": 2674.9, "source": "osm", "_tags": {"ele": "2674.9", "name": "Chandler Peak", "natural": "peak"}}, {"name": "Lewiston South (9861)", "latitude": 40.3550082, "longitude": -112.1884019, "elevation": 3005.6, "source": "osm", "_tags": {"ele": "3005.6", "name": "Lewiston South (9861)", "natural": "peak"}}, {"name": "Clipper Ridge", "latitude": 40.5165366, "longitude": -112.2185529, "elevation": 2665.5, "source": "osm", "_tags": {"ele": "2665.5", "name": "Clipper Ridge", "natural": "peak"}}, {"name": "Lake Point", "latitude": 40.700902, "longitude": -112.2430942, "elevation": 1825.8, "source": "osm", "_tags": {"ele": "1825.8", "name": "Lake Point", "natural": "peak"}}, {"name": "", "latitude": 40.2906184, "longitude": -111.4928866, "elevation": 2833.0, "source": "osm", "_tags": {"ele": "2833", "natural": "peak"}}, {"name": "Maack Hill", "latitude": 40.4688746, "longitude": -111.8602091, "elevation": 1951.63, "source": "osm", "_tags": {"ele": "1951.63", "name": "Maack Hill", "natural": "peak"}}, {"name": "", "latitude": 40.4191162, "longitude": -111.714041, "elevation": 2721.0, "source": "osm", "_tags": {"ele": "2721", "natural": "peak"}}, {"name": "", "latitude": 40.3649887, "longitude": -111.5683398, "elevation": 2162.0, "source": "osm", "_tags": {"ele": "2162", "natural": "peak"}}, {"name": "North Fork Peak", "latitude": 40.4343793, "longitude": -111.6006742, "elevation": 2629.0, "source": "osm", "_tags": {"ele": "2629", "name": "North Fork Peak", "natural": "peak"}}, {"name": "Pine Hollow Peak", "latitude": 40.4583605, "longitude": -111.6427558, "elevation": 2579.0, "source": "osm", "_tags": {"ele": "2579", "name": "Pine Hollow Peak", "natural": "peak"}}, {"name": "", "latitude": 40.4667785, "longitude": -111.5012885, "elevation": 1984.0, "source": "osm", "_tags": {"ele": "1984", "natural": "peak"}}, {"name": "", "latitude": 40.4748119, "longitude": -111.6801757, "elevation": 3065.0, "source": "osm", "_tags": {"ele": "3065", "natural": "peak"}}, {"name": "", "latitude": 40.4769536, "longitude": -111.691415, "elevation": 3239.0, "source": "osm", "_tags": {"ele": "3239", "natural": "peak"}}, {"name": "", "latitude": 40.5078203, "longitude": -111.525609, "elevation": 2457.0, "source": "osm", "_tags": {"ele": "2457", "natural": "peak"}}, {"name": "Rocky Mouth Canyon Peak", "latitude": 40.5383041, "longitude": -111.7607675, "elevation": 3137.0, "source": "osm", "_tags": {"ele": "3137", "name": "Rocky Mouth Canyon Peak", "natural": "peak"}}, {"name": "Bonanza Benchmark", "latitude": 40.5696987, "longitude": -111.4767765, "elevation": 2654.0, "source": "osm", "_tags": {"ele": "2654", "name": "Bonanza Benchmark", "natural": "peak"}}, {"name": "Honeycomb Cliffs", "latitude": 40.6019031, "longitude": -111.614582, "elevation": 3197.0, "source": "osm", "_tags": {"ele": "3197", "name": "Honeycomb Cliffs", "natural": "peak"}}, {"name": "Reed and Benson Ridge", "latitude": 40.6050404, "longitude": -111.6445344, "elevation": 3219.0, "source": "osm", "_tags": {"ele": "3219", "name": "Reed and Benson Ridge", "natural": "peak"}}, {"name": "Park Benchmark", "latitude": 40.6015636, "longitude": -111.4865384, "elevation": 2860.0, "source": "osm", "_tags": {"ele": "2860", "name": "Park Benchmark", "natural": "peak"}}, {"name": "Big Dutch Peak", "latitude": 40.6054689, "longitude": -111.4610807, "elevation": 2496.0, "source": "osm", "_tags": {"ele": "2496", "name": "Big Dutch Peak", "natural": "peak"}}, {"name": "", "latitude": 40.6450031, "longitude": -111.4634155, "elevation": 2342.0, "source": "osm", "_tags": {"ele": "2342", "natural": "peak"}}, {"name": "", "latitude": 40.6598057, "longitude": -111.4682378, "elevation": 2324.0, "source": "osm", "_tags": {"ele": "2324", "natural": "peak"}}, {"name": "April Mountain", "latitude": 40.6526972, "longitude": -111.486825, "elevation": 2338.0, "source": "osm", "_tags": {"ele": "2338", "name": "April Mountain", "natural": "peak"}}, {"name": "", "latitude": 40.654902, "longitude": -111.7447837, "elevation": 2979.0, "source": "osm", "_tags": {"ele": "2979", "natural": "peak"}}, {"name": "", "latitude": 40.6581065, "longitude": -111.74042, "elevation": 2981.0, "source": "osm", "_tags": {"ele": "2981", "natural": "peak"}}, {"name": "South Thayne Peak", "latitude": 40.6651762, "longitude": -111.722755, "elevation": 2980.0, "source": "osm", "_tags": {"ele": "2980", "name": "South Thayne Peak", "natural": "peak"}}, {"name": "", "latitude": 40.7000431, "longitude": -111.4855036, "elevation": 2215.0, "source": "osm", "_tags": {"ele": "2215", "natural": "peak"}}, {"name": "", "latitude": 40.7109597, "longitude": -111.629515, "elevation": 2584.0, "source": "osm", "_tags": {"ele": "2584", "natural": "peak"}}, {"name": "Church Fork Peak", "latitude": 40.7143445, "longitude": -111.7241962, "elevation": 2532.0, "source": "osm", "_tags": {"access": "private", "ele": "2532", "name": "Church Fork Peak", "natural": "peak"}}, {"name": "", "latitude": 40.7165567, "longitude": -111.6823966, "elevation": 2588.0, "source": "osm", "_tags": {"ele": "2588", "natural": "peak"}}, {"name": "Summit Park Peak", "latitude": 40.7276702, "longitude": -111.6133179, "elevation": 2627.0, "source": "osm", "_tags": {"ele": "2627", "name": "Summit Park Peak", "natural": "peak"}}, {"name": "", "latitude": 40.7283646, "longitude": -111.6439562, "elevation": 2524.0, "source": "osm", "_tags": {"ele": "2524", "natural": "peak"}}, {"name": "", "latitude": 40.4987437, "longitude": -111.599944, "elevation": 3003.0, "source": "osm", "_tags": {"ele": "3003", "natural": "peak"}}, {"name": "Alma Peak", "latitude": 40.747817, "longitude": -111.7709647, "elevation": 2286.0, "source": "osm", "_tags": {"ele": "2286", "name": "Alma Peak", "natural": "peak"}}, {"name": "Dale Benchmark", "latitude": 40.7553543, "longitude": -111.750831, "elevation": 2248.0, "source": "osm", "_tags": {"ele": "2248", "name": "Dale Benchmark", "natural": "peak"}}, {"name": "", "latitude": 40.7644341, "longitude": -111.6376555, "elevation": 2371.0, "source": "osm", "_tags": {"ele": "2371", "natural": "peak"}}, {"name": "", "latitude": 40.7773767, "longitude": -111.6203688, "elevation": 2225.0, "source": "osm", "_tags": {"ele": "2225", "natural": "peak"}}, {"name": "", "latitude": 40.7856743, "longitude": -111.6150629, "elevation": 2164.0, "source": "osm", "_tags": {"ele": "2164", "natural": "peak"}}, {"name": "", "latitude": 40.792398, "longitude": -111.5833207, "elevation": 2245.0, "source": "osm", "_tags": {"ele": "2245", "natural": "peak"}}, {"name": "", "latitude": 40.7966145, "longitude": -111.5426897, "elevation": 2395.0, "source": "osm", "_tags": {"ele": "2395", "natural": "peak"}}, {"name": "", "latitude": 40.8080627, "longitude": -111.5740889, "elevation": 2319.0, "source": "osm", "_tags": {"ele": "2319", "natural": "peak"}}, {"name": "", "latitude": 40.8196845, "longitude": -111.5162534, "elevation": 2566.0, "source": "osm", "_tags": {"ele": "2566", "natural": "peak"}}, {"name": "", "latitude": 40.7979707, "longitude": -111.7528487, "elevation": 2286.0, "source": "osm", "_tags": {"ele": "2286", "natural": "peak"}}, {"name": "", "latitude": 40.8064069, "longitude": -111.7802073, "elevation": 2274.0, "source": "osm", "_tags": {"ele": "2274", "natural": "peak"}}, {"name": "Black Mountain (East Summit)", "latitude": 40.8236028, "longitude": -111.7623196, "elevation": 2518.0, "source": "osm", "_tags": {"ele": "2518", "name": "Black Mountain (East Summit)", "natural": "peak"}}, {"name": "Dude Benchmark", "latitude": 40.8309645, "longitude": -111.8376633, "elevation": 2198.0, "source": "osm", "_tags": {"ele": "2198", "name": "Dude Benchmark", "natural": "peak"}}, {"name": "Swallow Rocks Peak", "latitude": 40.8616404, "longitude": -111.701131, "elevation": 2713.0, "source": "osm", "_tags": {"ele": "2713", "name": "Swallow Rocks Peak", "natural": "peak"}}, {"name": "Deadox Benchmark", "latitude": 40.8721785, "longitude": -111.6389122, "elevation": 2553.0, "source": "osm", "_tags": {"ele": "2553", "name": "Deadox Benchmark", "natural": "peak"}}, {"name": "", "latitude": 40.8750939, "longitude": -111.69147, "elevation": 2615.0, "source": "osm", "_tags": {"ele": "2615", "natural": "peak"}}, {"name": "Sessions Mountain (east)", "latitude": 40.8694116, "longitude": -111.7444176, "elevation": 2791.0, "source": "osm", "_tags": {"ele": "2791", "name": "Sessions Mountain (east)", "natural": "peak"}}, {"name": "Sessions Mountain (west)", "latitude": 40.8722496, "longitude": -111.7682795, "elevation": 2822.0, "source": "osm", "_tags": {"ele": "2822", "name": "Sessions Mountain (west)", "natural": "peak"}}, {"name": "", "latitude": 40.8878878, "longitude": -111.7699114, "elevation": 2658.0, "source": "osm", "_tags": {"ele": "2658", "natural": "peak"}}, {"name": "Jeep Benchmark", "latitude": 40.9161974, "longitude": -111.7934495, "elevation": 2637.0, "source": "osm", "_tags": {"ele": "2637", "name": "Jeep Benchmark", "natural": "peak"}}, {"name": "Gold Ridge", "latitude": 40.960136, "longitude": -111.775308, "elevation": 2559.0, "source": "osm", "_tags": {"ele": "2559", "name": "Gold Ridge", "natural": "peak"}}, {"name": "", "latitude": 40.9611649, "longitude": -111.7105815, "elevation": 1871.0, "source": "osm", "_tags": {"ele": "1871", "natural": "peak"}}, {"name": "Mahogany Ridge", "latitude": 40.9660997, "longitude": -111.7363506, "elevation": 2096.0, "source": "osm", "_tags": {"ele": "2096", "name": "Mahogany Ridge", "natural": "peak"}}, {"name": "", "latitude": 40.9823019, "longitude": -111.728019, "elevation": 1998.0, "source": "osm", "_tags": {"ele": "1998", "natural": "peak"}}, {"name": "The Hogsback", "latitude": 41.0021046, "longitude": -111.7877237, "elevation": 2422.0, "source": "osm", "_tags": {"ele": "2422", "name": "The Hogsback", "natural": "peak", "wikidata": "Q49698192"}}, {"name": "", "latitude": 40.988577, "longitude": -111.6313182, "elevation": 2113.0, "source": "osm", "_tags": {"ele": "2113", "natural": "peak"}}, {"name": "", "latitude": 40.9971062, "longitude": -111.5099988, "elevation": 1986.0, "source": "osm", "_tags": {"ele": "1986", "natural": "peak"}}, {"name": "", "latitude": 41.0138663, "longitude": -111.6215309, "elevation": 2221.0, "source": "osm", "_tags": {"ele": "2221", "natural": "peak"}}, {"name": "", "latitude": 40.1602517, "longitude": -111.5597583, "elevation": 1852.0, "source": "osm", "_tags": {"ele": "1852", "natural": "peak"}}, {"name": "Wilson Peak", "latitude": 40.6741399, "longitude": -111.6724384, "elevation": 3033.0, "source": "osm", "_tags": {"ele": "3033", "name": "Wilson Peak", "natural": "peak"}}, {"name": "Jacks Peak", "latitude": 40.7377344, "longitude": -111.79575, "elevation": 1955.0, "source": "osm", "_tags": {"ele": "1955", "name": "Jacks Peak", "natural": "peak"}}, {"name": "Peak 8485", "latitude": 40.1318848, "longitude": -111.4782598, "elevation": 2586.0, "source": "osm", "_tags": {"ele": "2586", "name": "Peak 8485", "natural": "peak"}}, {"name": "Dick Benchmark", "latitude": 40.1412731, "longitude": -111.4799544, "elevation": 2587.0, "source": "osm", "_tags": {"ele": "2587", "name": "Dick Benchmark", "natural": "peak"}}, {"name": "Pencil Point", "latitude": 40.7260431, "longitude": -111.7972827, "elevation": 1868.0, "source": "osm", "_tags": {"ele": "1868", "name": "Pencil Point", "natural": "peak"}}, {"name": "Peak 7068", "latitude": 40.1690937, "longitude": -111.437444, "elevation": 2154.0, "source": "osm", "_tags": {"ele": "2154", "name": "Peak 7068", "natural": "peak"}}, {"name": "Peak 7412", "latitude": 40.1724752, "longitude": -111.4447719, "elevation": 2259.0, "source": "osm", "_tags": {"ele": "2259", "name": "Peak 7412", "natural": "peak"}}, {"name": "Packard Benchmark", "latitude": 40.1811246, "longitude": -111.4062244, "elevation": 2354.0, "source": "osm", "_tags": {"ele": "2354", "name": "Packard Benchmark", "natural": "peak"}}, {"name": "Juniper Hill", "latitude": 40.4065408, "longitude": -111.7307057, "elevation": 2056.0, "source": "osm", "_tags": {"ele": "2056", "name": "Juniper Hill", "natural": "peak"}}, {"name": "", "latitude": 40.6975941, "longitude": -111.651785, "elevation": 2766.0, "source": "osm", "_tags": {"ele": "2766", "natural": "peak"}}, {"name": "North Cascade Mountain", "latitude": 40.3121317, "longitude": -111.5885322, "elevation": 3314.0, "source": "osm", "_tags": {"ele": "3314", "name": "North Cascade Mountain", "natural": "peak"}}, {"name": "Peak 10731 ft", "latitude": 40.2981815, "longitude": -111.585937, "elevation": 3271.0, "source": "osm", "_tags": {"ele": "3271", "name": "Peak 10731 ft", "natural": "peak", "note": "https://peakery.com/peak-10731-ft-utah/"}}, {"name": "South Cascade Mountain", "latitude": 40.2920853, "longitude": -111.584278, "elevation": 3280.0, "source": "osm", "_tags": {"ele": "3280", "name": "South Cascade Mountain", "natural": "peak"}}, {"name": "East Provo Peak", "latitude": 40.2481141, "longitude": -111.5466105, "elevation": 3366.0, "source": "osm", "_tags": {"ele": "3366", "name": "East Provo Peak", "natural": "peak"}}, {"name": "Peak 8753 ft", "latitude": 40.2524958, "longitude": -111.5858455, "elevation": 2668.0, "source": "osm", "_tags": {"ele": "2668", "name": "Peak 8753 ft", "natural": "peak", "note": "https://peakery.com/peak-8753-ft-utah/"}}, {"name": "Black Bess Peak", "latitude": 40.5983138, "longitude": -111.610021, "elevation": 3194.0, "source": "osm", "_tags": {"ele": "3194", "name": "Black Bess Peak", "natural": "peak"}}, {"name": "Chipman Peak", "latitude": 40.5229533, "longitude": -111.7224168, "elevation": 3339.0, "source": "osm", "_tags": {"ele": "3339", "name": "Chipman Peak", "natural": "peak"}}, {"name": "Red Stack", "latitude": 40.5498423, "longitude": -111.661752, "elevation": 3426.0, "source": "osm", "_tags": {"alt_name": "Red Top", "ele": "3426", "name": "Red Stack", "natural": "peak", "note": "Not technically a peak but OSM doesn't have non-peak points that represent mountians."}}, {"name": "Mount Wire", "latitude": 40.7706363, "longitude": -111.7984528, "elevation": 2167.0, "source": "osm", "_tags": {"ele": "2167", "gnis:feature_id": "1447490", "loc_name": "Big Beacon", "name": "Mount Wire", "natural": "peak", "tourism": "viewpoint", "wikidata": "Q8525796"}}, {"name": "Skyridge Peak", "latitude": 40.6605871, "longitude": -111.4362537, "elevation": 2251.0, "source": "osm", "_tags": {"ele": "2251", "name": "Skyridge Peak", "natural": "peak"}}, {"name": "", "latitude": 40.6954893, "longitude": -111.4171391, "elevation": 2225.0, "source": "osm", "_tags": {"ele": "2225", "natural": "peak"}}, {"name": "", "latitude": 40.7311419, "longitude": -111.4254581, "elevation": 2195.0, "source": "osm", "_tags": {"ele": "2195", "natural": "peak"}}, {"name": "", "latitude": 40.7490496, "longitude": -111.4033217, "elevation": 2112.0, "source": "osm", "_tags": {"ele": "2112", "natural": "peak"}}, {"name": "", "latitude": 40.7707046, "longitude": -111.4449533, "elevation": 2254.0, "source": "osm", "_tags": {"ele": "2254", "natural": "peak"}}, {"name": "Willow Peak", "latitude": 40.6381973, "longitude": -111.5773475, "elevation": 3051.0, "source": "osm", "_tags": {"alt_name": "Peak 10009", "ele": "3051", "name": "Willow Peak", "natural": "peak"}}, {"name": "Preston Peak", "latitude": 40.5821635, "longitude": -111.5723046, "elevation": 3144.0, "source": "osm", "_tags": {"ele": "3144", "name": "Preston Peak", "natural": "peak"}}, {"name": "Soldier Peak", "latitude": 40.6726162, "longitude": -111.6592914, "elevation": 2847.0, "source": "osm", "_tags": {"ele": "2847", "name": "Soldier Peak", "natural": "peak"}}, {"name": "Mount Olympus (north)", "latitude": 40.6595192, "longitude": -111.7732731, "elevation": 2731.0, "source": "osm", "_tags": {"ele": "2731", "name": "Mount Olympus (north)", "natural": "peak"}}, {"name": "Tom's Hill", "latitude": 40.6604152, "longitude": -111.636266, "elevation": 2761.0, "source": "osm", "_tags": {"ele": "2761", "name": "Tom's Hill", "natural": "peak"}}, {"name": "Hogum Divide", "latitude": 40.5452804, "longitude": -111.709981, "elevation": 3205.0, "source": "osm", "_tags": {"ele": "3205", "name": "Hogum Divide", "natural": "peak"}}, {"name": "Peak 9699", "latitude": 40.6204815, "longitude": -111.6287127, "elevation": 2956.25, "source": "osm", "_tags": {"ele": "2956.25", "name": "Peak 9699", "natural": "peak"}}, {"name": "Hail Benchmark", "latitude": 40.6052424, "longitude": -111.442831, "elevation": 2312.0, "source": "osm", "_tags": {"ele": "2312", "name": "Hail Benchmark", "natural": "peak"}}, {"name": "Point Supreme", "latitude": 40.5759105, "longitude": -111.601609, "elevation": 3230.0, "source": "osm", "_tags": {"ele": "3230", "name": "Point Supreme", "natural": "peak"}}, {"name": "Bells Cleaver", "latitude": 40.5428223, "longitude": -111.7424427, "elevation": 3197.0, "source": "osm", "_tags": {"ele": "3197", "name": "Bells Cleaver", "natural": "peak"}}, {"name": "", "latitude": 40.8159966, "longitude": -111.7443128, "elevation": 2497.0, "source": "osm", "_tags": {"ele": "2497", "natural": "peak"}}, {"name": "Squaretop", "latitude": 40.665236, "longitude": -111.601772, "elevation": 2981.0, "source": "osm", "_tags": {"ele": "2981", "name": "Squaretop", "natural": "peak"}}, {"name": "Willow Canyon Peak", "latitude": 40.4568692, "longitude": -111.7225309, "elevation": 2815.0, "source": "osm", "_tags": {"alt_name": "Dharma Peak", "ele": "2815", "name": "Willow Canyon Peak", "natural": "peak"}}, {"name": "Hounds Tooth", "latitude": 40.6029192, "longitude": -111.7672317, "elevation": 2480.0, "source": "osm", "_tags": {"ele": "2480", "name": "Hounds Tooth", "natural": "peak"}}, {"name": "", "latitude": 40.4161579, "longitude": -111.4954282, "elevation": 1888.0, "source": "osm", "_tags": {"ele": "1888", "natural": "peak"}}, {"name": "", "latitude": 40.4945058, "longitude": -112.3012388, "elevation": 2156.46, "source": "osm", "_tags": {"ele": "2156.46", "natural": "peak"}}, {"name": "", "latitude": 40.4977391, "longitude": -112.3115294, "elevation": 1871.777, "source": "osm", "_tags": {"ele": "1871.777", "natural": "peak"}}, {"name": "", "latitude": 40.4902768, "longitude": -112.3019957, "elevation": 2168.042, "source": "osm", "_tags": {"ele": "2168.042", "natural": "peak"}}, {"name": "", "latitude": 40.477476, "longitude": -112.2950166, "elevation": 2193.341, "source": "osm", "_tags": {"ele": "2193.341", "natural": "peak"}}, {"name": "Flatiron Mesa", "latitude": 40.5973087, "longitude": -111.8421295, "elevation": null, "source": "osm", "_tags": {"gnis:feature_id": "1428006", "name": "Flatiron Mesa", "natural": "peak"}}, {"name": "Point of the Mountain", "latitude": 40.457114, "longitude": -111.9041699, "elevation": null, "source": "osm", "_tags": {"gnis:feature_id": "1431351", "name": "Point of the Mountain", "natural": "peak"}}, {"name": "Long Point", "latitude": 40.1095128, "longitude": -112.0528369, "elevation": null, "source": "osm", "_tags": {"gnis:feature_id": "1429913", "name": "Long Point", "natural": "peak"}}, {"name": "Potato Hill", "latitude": 40.4891336, "longitude": -111.8485847, "elevation": null, "source": "osm", "_tags": {"gnis:feature_id": "1444604", "name": "Potato Hill", "natural": "peak"}}, {"name": "Eagle Mountain", "latitude": 40.2748374, "longitude": -111.9405448, "elevation": 2346.0, "source": "osm", "_tags": {"ele": "2346", "gnis:feature_id": "2831036", "name": "Eagle Mountain", "natural": "peak"}}, {"name": "The Cone", "latitude": 40.6505364, "longitude": -111.6190045, "elevation": 2822.5, "source": "osm", "_tags": {"ele": "2822.5", "name": "The Cone", "natural": "peak"}}, {"name": "Dixon Peak", "latitude": 40.0187394, "longitude": -111.614323, "elevation": 2753.6, "source": "osm", "_tags": {"ele": "2753.6", "name": "Dixon Peak", "natural": "peak"}}, {"name": "Salem Peak", "latitude": 40.038226, "longitude": -111.5993412, "elevation": 2665.9, "source": "osm", "_tags": {"ele": "2665.9", "name": "Salem Peak", "natural": "peak"}}]