[{"name": "Bailey Mountain", "latitude": 40.24187, "longitude": -115.9439532, "elevation": 2359.0, "source": "osm", "_tags": {"ele": "2359", "gnis:feature_id": "838566", "name": "Bailey Mountain", "natural": "peak"}}, {"name": "Bald Mountain", "latitude": 40.0565912, "longitude": -116.0770104, "elevation": 2332.0, "source": "osm", "_tags": {"ele": "2332", "gnis:feature_id": "838579", "name": "Bald Mountain", "natural": "peak"}}, {"name": "Buckskin Mountain", "latitude": 40.6740862, "longitude": -116.0303524, "elevation": 2037.0, "source": "osm", "_tags": {"ele": "2037", "gnis:feature_id": "839143", "name": "Buckskin Mountain", "natural": "peak", "wikidata": "Q49016362"}}, {"name": "Carlin Peaks", "latitude": 40.7443586, "longitude": -116.2950827, "elevation": 2223.0, "source": "osm", "_tags": {"ele": "2223", "gnis:feature_id": "839321", "name": "Carlin Peaks", "natural": "peak"}}, {"name": "Cave Hill", "latitude": 40.134646, "longitude": -116.0914564, "elevation": 2126.0, "source": "osm", "_tags": {"ele": "2126", "gnis:feature_id": "839370", "name": "Cave Hill", "natural": "peak"}}, {"name": "Coffin Mountain", "latitude": 40.272424, "longitude": -116.0053445, "elevation": 2476.0, "source": "osm", "_tags": {"ele": "2476", "gnis:feature_id": "839602", "name": "Coffin Mountain", "natural": "peak", "wikidata": "Q49021343"}}, {"name": "Fish Creek Mountain", "latitude": 40.9740804, "longitude": -116.0803585, "elevation": 2377.0, "source": "osm", "_tags": {"ele": "2377", "gnis:feature_id": "840470", "name": "Fish Creek Mountain", "natural": "peak", "wikidata": "Q49029002"}}, {"name": "Grindstone Mountain", "latitude": 40.6976994, "longitude": -115.9042373, "elevation": 2241.0, "source": "osm", "_tags": {"ele": "2241", "gnis:feature_id": "840820", "name": "Grindstone Mountain", "natural": "peak", "wikidata": "Q19880648", "wikipedia": "en:Grindstone Mountain (Nevada)"}}, {"name": "Iron Blossom Mountain", "latitude": 40.5388067, "longitude": -116.2425777, "elevation": 2040.0, "source": "osm", "_tags": {"ele": "2040", "gnis:feature_id": "841302", "name": "Iron Blossom Mountain", "natural": "peak"}}, {"name": "Mineral Hill", "latitude": 40.1536373, "longitude": -116.0963024, "elevation": 2123.0, "source": "osm", "_tags": {"ele": "2123", "gnis:feature_id": "842154", "name": "Mineral Hill", "natural": "peak"}}, {"name": "Monument Peak", "latitude": 41.0093597, "longitude": -115.8870197, "elevation": 1915.0, "source": "osm", "_tags": {"ele": "1915", "gnis:feature_id": "842222", "name": "Monument Peak", "natural": "peak", "wikidata": "Q49051242"}}, {"name": "Pine Mountain", "latitude": 40.5293648, "longitude": -116.0606279, "elevation": 2524.0, "source": "osm", "_tags": {"ele": "2524", "gnis:feature_id": "842829", "name": "Pine Mountain", "natural": "peak", "wikidata": "Q49061777"}}, {"name": "Popovich Hill", "latitude": 40.9118563, "longitude": -116.3153638, "elevation": 2003.0, "source": "osm", "_tags": {"ele": "2003", "gnis:feature_id": "842934", "name": "Popovich Hill", "natural": "peak"}}, {"name": "Ravens Nest", "latitude": 40.5021434, "longitude": -116.0122927, "elevation": 2640.0, "source": "osm", "_tags": {"ele": "2640", "gnis:feature_id": "843108", "name": "Ravens Nest", "natural": "peak", "wikidata": "Q49066936"}}, {"name": "Red Hill", "latitude": 40.0535329, "longitude": -116.3550743, "elevation": 1920.0, "source": "osm", "_tags": {"ele": "1920", "gnis:feature_id": "843143", "name": "Red Hill", "natural": "peak"}}, {"name": "Richmond Mountain", "latitude": 40.8838012, "longitude": -116.315919, "elevation": 2197.0, "source": "osm", "_tags": {"ele": "2197", "gnis:feature_id": "843213", "name": "Richmond Mountain", "natural": "peak"}}, {"name": "Richmond Summit", "latitude": 40.8340796, "longitude": -116.3092512, "elevation": 1784.0, "source": "osm", "_tags": {"ele": "1784", "gnis:feature_id": "843215", "name": "Richmond Summit", "natural": "peak"}}, {"name": "Robinson Mountain", "latitude": 40.3874245, "longitude": -115.9356217, "elevation": 2427.0, "source": "osm", "_tags": {"ele": "2427", "gnis:feature_id": "843256", "name": "Robinson Mountain", "natural": "peak", "wikidata": "Q49068804"}}, {"name": "Schroeder Mountain", "latitude": 40.8093589, "longitude": -116.2220264, "elevation": 1809.0, "source": "osm", "_tags": {"ele": "1809", "gnis:feature_id": "843540", "name": "Schroeder Mountain", "natural": "peak"}}, {"name": "Spring Canyon Mountain", "latitude": 40.6438093, "longitude": -115.9914618, "elevation": 2226.0, "source": "osm", "_tags": {"ele": "2226", "gnis:feature_id": "843930", "name": "Spring Canyon Mountain", "natural": "peak", "wikidata": "Q49076666"}}, {"name": "Rock Springs Mountain", "latitude": 40.4574514, "longitude": -115.9050586, "elevation": 2201.0, "source": "osm", "_tags": {"ele": "2201", "gnis:feature_id": "843962", "name": "Rock Springs Mountain", "natural": "peak", "old_name": "Squaw Mountain", "wikidata": "Q49077280"}}, {"name": "Station Butte", "latitude": 40.0607635, "longitude": -115.4825444, "elevation": 1926.0, "source": "osm", "_tags": {"ele": "1926", "gnis:feature_id": "843988", "name": "Station Butte", "natural": "peak"}}, {"name": "Swales Mountain", "latitude": 40.9363036, "longitude": -116.0528572, "elevation": 2430.0, "source": "osm", "_tags": {"ele": "2430", "gnis:feature_id": "844127", "name": "Swales Mountain", "natural": "peak", "wikidata": "Q49080372"}}, {"name": "Table Mountain", "latitude": 40.0890901, "longitude": -116.1461796, "elevation": 2025.0, "source": "osm", "_tags": {"ele": "2025", "gnis:feature_id": "844158", "name": "Table Mountain", "natural": "peak"}}, {"name": "Union Mountain", "latitude": 40.1904801, "longitude": -116.0125659, "elevation": 2415.0, "source": "osm", "_tags": {"ele": "2415", "gnis:feature_id": "844520", "name": "Union Mountain", "natural": "peak", "wikidata": "Q49086659"}}, {"name": "Union Summit", "latitude": 40.1807576, "longitude": -116.0331218, "elevation": 2060.0, "source": "osm", "_tags": {"ele": "2060", "gnis:feature_id": "844521", "name": "Union Summit", "natural": "peak"}}, {"name": "Black Mountain", "latitude": 40.217147, "longitude": -115.9858987, "elevation": 2191.0, "source": "osm", "_tags": {"ele": "2191", "gnis:feature_id": "845113", "name": "Black Mountain", "natural": "peak", "wikidata": "Q49013742"}}, {"name": "Elko Mountain", "latitude": 40.8943659, "longitude": -115.6297877, "elevation": 2286.0, "source": "osm", "_tags": {"ele": "2286", "gnis:feature_id": "845160", "name": "Elko Mountain", "natural": "peak", "wikidata": "Q19880410"}}, {"name": "Twin Summit", "latitude": 40.6415822, "longitude": -116.314248, "elevation": 1807.0, "source": "osm", "_tags": {"ele": "1807", "gnis:feature_id": "845721", "name": "Twin Summit", "natural": "peak"}}, {"name": "West Peak", "latitude": 40.9051988, "longitude": -115.6417326, "elevation": 2014.0, "source": "osm", "_tags": {"ele": "2014", "gnis:feature_id": "850802", "name": "West Peak", "natural": "peak", "wikidata": "Q49088664"}}, {"name": "East Peak", "latitude": 40.9121439, "longitude": -115.5828423, "elevation": 1888.0, "source": "osm", "_tags": {"ele": "1888", "gnis:feature_id": "850803", "name": "East Peak", "natural": "peak"}}, {"name": "Hog Tommy Hill", "latitude": 40.7568704, "longitude": -115.5522842, "elevation": 1758.0, "source": "osm", "_tags": {"ele": "1758", "gnis:feature_id": "852202", "name": "Hog Tommy Hill", "natural": "peak", "wikidata": "Q49036697"}}, {"name": "Tipton Peak", "latitude": 40.4229847, "longitude": -115.4792188, "elevation": 3315.0, "source": "osm", "_tags": {"ele": "3315", "gnis:feature_id": "853514", "name": "Tipton Peak", "natural": "peak", "wikidata": "Q49084000"}}, {"name": "Maggie Peak", "latitude": 40.8365813, "longitude": -116.185637, "elevation": 1912.0, "source": "osm", "_tags": {"ele": "1912", "gnis:feature_id": "853604", "name": "Maggie Peak", "natural": "peak"}}, {"name": "Bunker Hill", "latitude": 40.5107545, "longitude": -116.0111817, "elevation": 2636.0, "source": "osm", "_tags": {"ele": "2636", "gnis:feature_id": "854385", "name": "Bunker Hill", "natural": "peak", "wikidata": "Q49016752"}}, {"name": "Marys Mountain", "latitude": 40.7351926, "longitude": -116.2631372, "elevation": 2345.0, "source": "osm", "_tags": {"ele": "2345", "gnis:feature_id": "854941", "name": "Marys Mountain", "natural": "peak"}}, {"name": "Adobe Summit", "latitude": 40.8946402, "longitude": -115.8811843, "elevation": 1997.0, "source": "osm", "_tags": {"ele": "1997", "gnis:feature_id": "856179", "name": "Adobe Summit", "natural": "peak", "wikidata": "Q49008495"}}, {"name": "Sherman Peak", "latitude": 40.9913063, "longitude": -115.751737, "elevation": 2281.0, "source": "osm", "_tags": {"ele": "2281", "gnis:feature_id": "856373", "name": "Sherman Peak", "natural": "peak", "wikidata": "Q49073280"}}, {"name": "Drown Peak", "latitude": 40.5107622, "longitude": -115.4975551, "elevation": 3102.0, "source": "osm", "_tags": {"ele": "3102", "gnis:feature_id": "859553", "name": "Drown Peak", "natural": "peak", "wikidata": "Q49025837"}}, {"name": "Green Mountain", "latitude": 40.3954849, "longitude": -115.5067191, "elevation": 3254.0, "source": "osm", "_tags": {"ele": "3254", "gnis:feature_id": "859899", "name": "Green Mountain", "natural": "peak", "wikidata": "Q49033592"}}, {"name": "King Peak", "latitude": 40.4765955, "longitude": -115.4706087, "elevation": 3326.0, "source": "osm", "_tags": {"ele": "3326", "gnis:feature_id": "860255", "name": "King Peak", "natural": "peak", "wikidata": "Q6411935"}}, {"name": "Pearl Peak", "latitude": 40.2352076, "longitude": -115.5419942, "elevation": 3285.0, "source": "osm", "_tags": {"ele": "3285", "gnis:feature_id": "860904", "name": "Pearl Peak", "natural": "peak", "wikidata": "Q48773542", "wikipedia": "en:Pearl Peak"}}, {"name": "Rattlesnake Mountain", "latitude": 40.2524297, "longitude": -115.6064415, "elevation": 2598.0, "source": "osm", "_tags": {"ele": "2598", "gnis:feature_id": "861071", "name": "Rattlesnake Mountain", "natural": "peak", "wikidata": "Q49066847"}}, {"name": "Ruby Dome", "latitude": 40.6218722, "longitude": -115.4750569, "elevation": 3428.0, "source": "osm", "_tags": {"ele": "3428", "gnis:feature_id": "861197", "name": "Ruby Dome", "natural": "peak", "wikidata": "Q7376306", "wikipedia": "en:Ruby Dome"}}, {"name": "Sherman Mountain", "latitude": 40.1188187, "longitude": -115.5878273, "elevation": 3114.0, "source": "osm", "_tags": {"ele": "3114", "gnis:feature_id": "861360", "name": "Sherman Mountain", "natural": "peak"}}, {"name": "Wines Peak", "latitude": 40.5485388, "longitude": -115.4047747, "elevation": 3311.0, "source": "osm", "_tags": {"ele": "3311", "gnis:feature_id": "862084", "name": "Wines Peak", "natural": "peak", "wikidata": "Q49090562"}}, {"name": "Cass House Peak", "latitude": 40.199652, "longitude": -115.5514385, "elevation": 3222.0, "source": "osm", "_tags": {"ele": "3222", "gnis:feature_id": "862243", "name": "Cass House Peak", "natural": "peak", "wikidata": "Q49018358"}}, {"name": "Lee Peak", "latitude": 40.6263168, "longitude": -115.4897797, "elevation": 3325.0, "source": "osm", "_tags": {"ele": "3325", "gnis:feature_id": "862399", "name": "Lee Peak", "natural": "peak", "wikidata": "Q49043868"}}, {"name": "Mount Gilbert", "latitude": 40.6243719, "longitude": -115.446167, "elevation": 3352.0, "source": "osm", "_tags": {"ele": "3352", "gnis:feature_id": "862409", "name": "Mount Gilbert", "natural": "peak", "wikidata": "Q6920899", "wikipedia": "en:Mount Gilbert (Nevada)"}}, {"name": "Mount Fitzgerald", "latitude": 40.6049942, "longitude": -115.4100946, "elevation": 3418.0, "source": "osm", "_tags": {"ele": "3418", "gnis:feature_id": "862410", "name": "Mount Fitzgerald", "natural": "peak", "wikidata": "Q6920770", "wikipedia": "en:Mount Fitzgerald (Nevada)"}}, {"name": "Mount Silliman", "latitude": 40.6188165, "longitude": -115.456445, "elevation": 3336.0, "source": "osm", "_tags": {"ele": "3336", "gnis:feature_id": "863339", "name": "Mount Silliman", "natural": "peak", "wikidata": "Q49054590"}}, {"name": "Noon Rock", "latitude": 40.6364036, "longitude": -115.5089599, "elevation": null, "source": "osm", "_tags": {"name": "Noon Rock", "natural": "peak"}}, {"name": "Elliott Benchmark", "latitude": 40.409767, "longitude": -115.9883289, "elevation": 2669.0, "source": "osm", "_tags": {"ele": "2669", "name": "Elliott Benchmark", "natural": "peak"}}, {"name": "Sulphur Spring Range Highpoint", "latitude": 40.1634833, "longitude": -116.0531888, "elevation": 2554.0, "source": "osm", "_tags": {"ele": "2554", "name": "Sulphur Spring Range Highpoint", "natural": "peak"}}]