[{"name": "Wells Summit", "latitude": 43.4775342, "longitude": -114.7504143, "elevation": 2328.0, "source": "osm", "_tags": {"ele": "2328", "gnis:feature_id": "392998", "name": "Wells Summit", "natural": "peak", "wikidata": "Q49088137"}}, {"name": "Flat Top Butte", "latitude": 43.1668464, "longitude": -114.6619987, "elevation": 1689.0, "source": "osm", "_tags": {"ele": "1689", "gnis:feature_id": "372725", "name": "Flat Top Butte", "natural": "peak", "wikidata": "Q49029468"}}, {"name": "Horse Mountain", "latitude": 43.253514, "longitude": -114.4692159, "elevation": 1756.0, "source": "osm", "_tags": {"ele": "1756", "gnis:feature_id": "373146", "name": "Horse Mountain", "natural": "peak", "wikidata": "Q49037322"}}, {"name": "Horton Peak", "latitude": 43.9657412, "longitude": -114.7484018, "elevation": 3015.0, "source": "osm", "_tags": {"ele": "3015", "gnis:feature_id": "373160", "name": "Horton Peak", "natural": "peak", "wikidata": "Q5906911"}}, {"name": "Johnson Hill", "latitude": 43.2465682, "longitude": -114.6639445, "elevation": 1730.0, "source": "osm", "_tags": {"ele": "1730", "gnis:feature_id": "373327", "name": "Johnson Hill", "natural": "peak", "wikidata": "Q49040019"}}, {"name": "Johnson Hill", "latitude": 43.2868439, "longitude": -114.9347877, "elevation": 1718.0, "source": "osm", "_tags": {"ele": "1718", "gnis:feature_id": "373328", "name": "Johnson Hill", "natural": "peak", "wikidata": "Q49040021"}}, {"name": "Lookout Point", "latitude": 43.2649006, "longitude": -114.8008938, "elevation": 1621.0, "source": "osm", "_tags": {"ele": "1621", "gnis:feature_id": "373736", "name": "Lookout Point", "natural": "peak", "wikidata": "Q49046772"}}, {"name": "Moonstone Mountain", "latitude": 43.3637927, "longitude": -114.4622725, "elevation": 1869.0, "source": "osm", "_tags": {"ele": "1869", "gnis:feature_id": "374014", "name": "Moonstone Mountain", "natural": "peak", "wikidata": "Q49051376"}}, {"name": "Paradise Peak", "latitude": 43.7385132, "longitude": -114.8492354, "elevation": 2959.0, "source": "osm", "_tags": {"ele": "2959", "gnis:feature_id": "374313", "name": "Paradise Peak", "natural": "peak", "wikidata": "Q7134335"}}, {"name": "Baker Peak", "latitude": 43.6699035, "longitude": -114.6797842, "elevation": 3098.0, "source": "osm", "_tags": {"ele": "3098", "gnis:feature_id": "376870", "name": "Baker Peak", "natural": "peak", "wikidata": "Q4849194"}}, {"name": "Bald Mountain", "latitude": 43.6549064, "longitude": -114.4092186, "elevation": 2779.0, "source": "osm", "_tags": {"ele": "2779", "gnis:feature_id": "376878", "name": "Bald Mountain", "natural": "peak", "wikidata": "Q748604"}}, {"name": "Bald Mountain", "latitude": 43.7454534, "longitude": -115.2284173, "elevation": 2837.0, "source": "osm", "_tags": {"ele": "2837", "gnis:feature_id": "376880", "name": "Bald Mountain", "natural": "peak", "wikidata": "Q49010060"}}, {"name": "Bear Peak", "latitude": 43.6754602, "longitude": -114.5895032, "elevation": 2891.0, "source": "osm", "_tags": {"ele": "2891", "gnis:feature_id": "377184", "name": "Bear Peak", "natural": "peak", "wikidata": "Q4876522"}}, {"name": "Big Buck Mountain", "latitude": 43.9851797, "longitude": -115.2142558, "elevation": 2676.0, "source": "osm", "_tags": {"ele": "2676", "gnis:feature_id": "377443", "name": "Big Buck Mountain", "natural": "peak", "wikidata": "Q49012318"}}, {"name": "Big Peak", "latitude": 43.6690697, "longitude": -114.7283971, "elevation": 3049.0, "source": "osm", "_tags": {"ele": "3049", "gnis:feature_id": "377573", "name": "Big Peak", "natural": "peak", "wikidata": "Q4906108"}}, {"name": "Blacknose Mountain", "latitude": 43.9749028, "longitude": -115.1136958, "elevation": 2897.0, "source": "osm", "_tags": {"ele": "2897", "gnis:feature_id": "377814", "name": "Blacknose Mountain", "natural": "peak", "wikidata": "Q49014083"}}, {"name": "Boulder Peak", "latitude": 43.8326858, "longitude": -114.5181143, "elevation": 3334.0, "source": "osm", "_tags": {"ele": "3334", "gnis:feature_id": "378110", "name": "Boulder Peak", "natural": "peak"}}, {"name": "Boyle Mountain", "latitude": 43.6782387, "longitude": -114.5217229, "elevation": 2721.0, "source": "osm", "_tags": {"ele": "2721", "gnis:feature_id": "378168", "name": "Boyle Mountain", "natural": "peak", "wikidata": "Q49015214"}}, {"name": "Bromaghin Peak", "latitude": 43.830461, "longitude": -114.7192323, "elevation": 3087.0, "source": "osm", "_tags": {"ele": "3087", "gnis:feature_id": "378250", "name": "Bromaghin Peak", "natural": "peak", "wikidata": "Q4973575"}}, {"name": "Browns Peak", "latitude": 43.9343464, "longitude": -115.1339734, "elevation": 2958.0, "source": "osm", "_tags": {"ele": "2958", "gnis:feature_id": "378294", "name": "Browns Peak", "natural": "peak", "wikidata": "Q49015698"}}, {"name": "Buttercup Mountain", "latitude": 43.5154591, "longitude": -114.5770005, "elevation": 2741.0, "source": "osm", "_tags": {"ele": "2741", "gnis:feature_id": "378611", "name": "Buttercup Mountain", "natural": "peak", "wikidata": "Q5002870"}}, {"name": "Cat Creek Summit", "latitude": 43.3043407, "longitude": -115.3136894, "elevation": 1655.0, "source": "osm", "_tags": {"ele": "1655", "gnis:feature_id": "379033", "name": "Cat Creek Summit", "natural": "peak", "wikidata": "Q49018613"}}, {"name": "Cayuse Point", "latitude": 43.7023978, "longitude": -115.199804, "elevation": 2722.0, "source": "osm", "_tags": {"ele": "2722", "gnis:feature_id": "379076", "name": "Cayuse Point", "natural": "peak", "wikidata": "Q49018835"}}, {"name": "Mount Cramer", "latitude": 44.011016, "longitude": -114.9825801, "elevation": 3266.0, "source": "osm", "_tags": {"ele": "3266", "gnis:feature_id": "380022", "name": "Mount Cramer", "natural": "peak", "wikidata": "Q8528285", "wikipedia": "en:Mount Cramer"}}, {"name": "Dog Mountain", "latitude": 43.5190621, "longitude": -115.3459172, "elevation": 2343.0, "source": "osm", "_tags": {"ele": "2343", "gnis:feature_id": "380694", "name": "Dog Mountain", "natural": "peak", "wikidata": "Q49025222"}}, {"name": "East Warrior Peak", "latitude": 43.8782334, "longitude": -115.2153644, "elevation": 2663.0, "source": "osm", "_tags": {"ele": "2663", "gnis:feature_id": "381224", "name": "East Warrior Peak", "natural": "peak", "wikidata": "Q49027119"}}, {"name": "Edaho Mountain", "latitude": 44.0029585, "longitude": -115.1475869, "elevation": 2921.0, "source": "osm", "_tags": {"ele": "2921", "gnis:feature_id": "381247", "name": "Edaho Mountain", "natural": "peak", "wikidata": "Q49027216"}}, {"name": "El Capitan", "latitude": 43.9408112, "longitude": -114.9334108, "elevation": 3018.0, "source": "osm", "_tags": {"ele": "3018", "gnis:feature_id": "381291", "name": "El Capitan", "natural": "peak", "wikidata": "Q5350920", "wikipedia": "en:El Capitan (Idaho)"}}, {"name": "Mount Everly", "latitude": 43.9580222, "longitude": -115.0922272, "elevation": 3003.0, "source": "osm", "_tags": {"ele": "3003", "gnis:feature_id": "381515", "name": "Mount Everly", "natural": "peak", "wikidata": "Q49052671"}}, {"name": "Flat Top Mountain", "latitude": 43.9176795, "longitude": -115.1348064, "elevation": 2946.0, "source": "osm", "_tags": {"ele": "2946", "gnis:feature_id": "381840", "name": "Flat Top Mountain", "natural": "peak", "wikidata": "Q49029521"}}, {"name": "Fleck Summit", "latitude": 43.6254563, "longitude": -114.8934018, "elevation": 1831.0, "source": "osm", "_tags": {"ele": "1831", "gnis:feature_id": "381854", "name": "Fleck Summit", "natural": "peak", "wikidata": "Q49029685"}}, {"name": "Galena Peak", "latitude": 43.8896304, "longitude": -114.6036738, "elevation": 3387.0, "source": "osm", "_tags": {"ele": "3387", "gnis:feature_id": "382149", "name": "Galena Peak", "natural": "peak", "wikidata": "Q49030912"}}, {"name": "Glassford Peak", "latitude": 43.9122295, "longitude": -114.4809848, "elevation": 3536.2896, "source": "osm", "_tags": {"ele": "3536.2896", "gnis:feature_id": "382291", "name": "Glassford Peak", "natural": "peak", "wikidata": "Q5567159"}}, {"name": "Glens Peak", "latitude": 43.9497954, "longitude": -115.0111461, "elevation": 3065.0, "source": "osm", "_tags": {"ele": "3065", "gnis:feature_id": "382297", "name": "Glens Peak", "natural": "peak", "wikidata": "Q49031679"}}, {"name": "Goat Mountain", "latitude": 43.9648998, "longitude": -115.3509281, "elevation": 2686.0, "source": "osm", "_tags": {"ele": "2686", "gnis:feature_id": "382335", "name": "Goat Mountain", "natural": "peak", "wikidata": "Q49031790"}}, {"name": "Graham Peak", "latitude": 43.9815675, "longitude": -115.2967594, "elevation": 2408.0, "source": "osm", "_tags": {"ele": "2408", "gnis:feature_id": "382492", "name": "Graham Peak", "natural": "peak", "wikidata": "Q49032588"}}, {"name": "Greylock Mountain", "latitude": 43.8442668, "longitude": -115.0957295, "elevation": 2854.0, "source": "osm", "_tags": {"ele": "2854", "gnis:feature_id": "382678", "name": "Greylock Mountain", "natural": "peak"}}, {"name": "Griffin Butte", "latitude": 43.7299068, "longitude": -114.4197756, "elevation": 2550.0, "source": "osm", "_tags": {"ele": "2550", "gnis:feature_id": "382683", "name": "Griffin Butte", "natural": "peak", "wikidata": "Q8537371"}}, {"name": "Grouse Butte", "latitude": 43.554064, "longitude": -115.1525769, "elevation": 2336.0, "source": "osm", "_tags": {"ele": "2336", "gnis:feature_id": "382707", "name": "Grouse Butte", "natural": "peak", "wikidata": "Q49034092"}}, {"name": "Gunsight Peak", "latitude": 43.697677, "longitude": -115.071465, "elevation": 2893.0, "source": "osm", "_tags": {"ele": "2893", "gnis:feature_id": "382778", "name": "Gunsight Peak", "natural": "peak", "wikidata": "Q49034360"}}, {"name": "Horse Ranch Mountain", "latitude": 43.6840632, "longitude": -115.3298093, "elevation": 2056.0, "source": "osm", "_tags": {"ele": "2056", "gnis:feature_id": "383399", "name": "Horse Ranch Mountain", "natural": "peak", "wikidata": "Q49037413"}}, {"name": "Iron Mountain", "latitude": 43.5382413, "longitude": -115.04495, "elevation": 2942.0, "source": "osm", "_tags": {"ele": "2942", "gnis:feature_id": "383760", "name": "Iron Mountain", "natural": "peak", "wikidata": "Q8536537"}}, {"name": "Jumbo Mountain", "latitude": 43.6179547, "longitude": -115.0331286, "elevation": 2493.0, "source": "osm", "_tags": {"ele": "2493", "gnis:feature_id": "384050", "name": "Jumbo Mountain", "natural": "peak", "wikidata": "Q49040319"}}, {"name": "Liberal Mountain", "latitude": 43.4774022, "longitude": -114.6861707, "elevation": 2505.0, "source": "osm", "_tags": {"ele": "2505", "gnis:feature_id": "384596", "name": "Liberal Mountain", "natural": "peak", "wikidata": "Q49044098"}}, {"name": "Mahoney Butte", "latitude": 43.5968499, "longitude": -114.4542194, "elevation": 2350.0, "source": "osm", "_tags": {"ele": "2350", "gnis:feature_id": "386385", "name": "Mahoney Butte", "natural": "peak", "wikidata": "Q8537375"}}, {"name": "Mattingly Peak", "latitude": 43.8921249, "longitude": -115.0039667, "elevation": 3022.0, "source": "osm", "_tags": {"ele": "3022", "gnis:feature_id": "386541", "name": "Mattingly Peak", "natural": "peak", "wikidata": "Q49048311"}}, {"name": "McDonald Peak", "latitude": 43.9462939, "longitude": -114.906464, "elevation": 3063.0, "source": "osm", "_tags": {"ele": "3063", "gnis:feature_id": "386604", "name": "McDonald Peak", "natural": "peak", "wikidata": "Q6800920", "wikipedia": "en:McDonald Peak (Blaine County, Idaho)"}}, {"name": "Nahneke Mountain", "latitude": 43.8932346, "longitude": -115.133139, "elevation": 2921.0, "source": "osm", "_tags": {"ele": "2921", "gnis:feature_id": "387458", "name": "Nahneke Mountain", "natural": "peak", "wikidata": "Q49056286"}}, {"name": "Newman Peak", "latitude": 43.7060118, "longitude": -114.9511827, "elevation": 2890.0, "source": "osm", "_tags": {"ele": "2890", "gnis:feature_id": "387542", "name": "Newman Peak", "natural": "peak", "wikidata": "Q49056852"}}, {"name": "North Raker", "latitude": 43.995427, "longitude": -115.1053978, "elevation": 3039.0, "source": "osm", "_tags": {"ele": "3039", "gnis:feature_id": "387835", "name": "North Raker", "natural": "peak"}}, {"name": "Packer Butte", "latitude": 43.2885537, "longitude": -115.326149, "elevation": 1782.0, "source": "osm", "_tags": {"ele": "1782", "gnis:feature_id": "388092", "name": "Packer Butte", "natural": "peak", "wikidata": "Q49059295"}}, {"name": "Payette Peak", "latitude": 43.992155, "longitude": -114.987251, "elevation": 3115.0, "source": "osm", "_tags": {"ele": "3115", "gnis:feature_id": "388283", "name": "Payette Peak", "natural": "peak", "wikidata": "Q7156736", "wikipedia": "en:Payette Peak"}}, {"name": "Plummer Peak", "latitude": 43.945825, "longitude": -115.076194, "elevation": 3041.0, "source": "osm", "_tags": {"ele": "3041", "gnis:feature_id": "388613", "name": "Plummer Peak", "natural": "peak", "wikidata": "Q49062711"}}, {"name": "Richardson Summit", "latitude": 43.4374041, "longitude": -114.471718, "elevation": 1885.0, "source": "osm", "_tags": {"ele": "1885", "gnis:feature_id": "389350", "name": "Richardson Summit", "natural": "peak", "wikidata": "Q49068451"}}, {"name": "Ross Peak", "latitude": 43.7249001, "longitude": -115.0156296, "elevation": 2970.0, "source": "osm", "_tags": {"ele": "2970", "gnis:feature_id": "389624", "name": "Ross Peak", "natural": "peak", "wikidata": "Q49069485"}}, {"name": "Ryan Peak", "latitude": 43.9021335, "longitude": -114.4095013, "elevation": 3561.0, "source": "osm", "_tags": {"ele": "3561", "gnis:feature_id": "389753", "name": "Ryan Peak", "natural": "peak", "wikidata": "Q7384412"}}, {"name": "Shaw Mountain", "latitude": 43.6160145, "longitude": -114.6614495, "elevation": 2931.0, "source": "osm", "_tags": {"ele": "2931", "gnis:feature_id": "390166", "name": "Shaw Mountain", "natural": "peak", "wikidata": "Q49072690"}}, {"name": "Sheep Point", "latitude": 43.4168434, "longitude": -114.9756238, "elevation": 2118.0, "source": "osm", "_tags": {"ele": "2118", "gnis:feature_id": "390251", "name": "Sheep Point", "natural": "peak", "wikidata": "Q49073032"}}, {"name": "Silver Mountain", "latitude": 43.9646225, "longitude": -115.3170377, "elevation": 2608.0, "source": "osm", "_tags": {"ele": "2608", "gnis:feature_id": "390450", "name": "Silver Mountain", "natural": "peak", "wikidata": "Q49073960"}}, {"name": "Silver Peak", "latitude": 43.8454636, "longitude": -114.5378374, "elevation": 3342.0, "source": "osm", "_tags": {"ele": "3342", "gnis:feature_id": "390452", "name": "Silver Peak", "natural": "peak", "wikidata": "Q49073981"}}, {"name": "Skillern Peak", "latitude": 43.6874021, "longitude": -114.8159003, "elevation": 2706.0, "source": "osm", "_tags": {"ele": "2706", "gnis:feature_id": "390518", "name": "Skillern Peak", "natural": "peak", "wikidata": "Q7535205"}}, {"name": "Smoky Dome", "latitude": 43.4932632, "longitude": -114.9361519, "elevation": 3059.0, "source": "osm", "_tags": {"ele": "3059", "gnis:feature_id": "390710", "name": "Smoky Dome", "natural": "peak", "wikidata": "Q7546138", "wikipedia": "en:Smoky Dome"}}, {"name": "Smoky Peak", "latitude": 43.9882358, "longitude": -115.1659206, "elevation": 2833.0, "source": "osm", "_tags": {"ele": "2833", "gnis:feature_id": "390718", "name": "Smoky Peak", "natural": "peak", "wikidata": "Q49074932"}}, {"name": "Sprout Mountain", "latitude": 43.4918411, "longitude": -115.1703541, "elevation": 2151.0, "source": "osm", "_tags": {"ele": "2151", "gnis:feature_id": "391238", "name": "Sprout Mountain", "natural": "peak", "wikidata": "Q49076793"}}, {"name": "Square Mountain", "latitude": 43.3865702, "longitude": -114.503663, "elevation": 1849.0, "source": "osm", "_tags": {"ele": "1849", "gnis:feature_id": "391269", "name": "Square Mountain", "natural": "peak", "wikidata": "Q49077057"}}, {"name": "Steel Mountain", "latitude": 43.7468414, "longitude": -115.3175881, "elevation": 2965.0, "source": "osm", "_tags": {"ele": "2965", "gnis:feature_id": "391402", "name": "Steel Mountain", "natural": "peak", "wikidata": "Q18679683"}}, {"name": "Swanholm Peak", "latitude": 43.8926769, "longitude": -115.3259252, "elevation": 2663.0, "source": "osm", "_tags": {"ele": "2663", "gnis:feature_id": "391735", "name": "Swanholm Peak", "natural": "peak", "wikidata": "Q49080423"}}, {"name": "Two Point Mountain", "latitude": 43.7371228, "longitude": -114.9767395, "elevation": 3061.0, "source": "osm", "_tags": {"ele": "3061", "gnis:feature_id": "392559", "name": "Two Point Mountain", "natural": "peak", "wikidata": "Q18681199"}}, {"name": "Kelly Mountain", "latitude": 43.4924046, "longitude": -114.467274, "elevation": 2672.0, "source": "osm", "_tags": {"ele": "2672", "gnis:feature_id": "392671", "name": "Kelly Mountain", "natural": "peak", "wikidata": "Q6386216"}}, {"name": "Washington Peak", "latitude": 44.0085209, "longitude": -114.6725669, "elevation": 3199.0, "source": "osm", "_tags": {"ele": "3199", "gnis:feature_id": "392925", "name": "Washington Peak", "natural": "peak", "wikidata": "Q7972127"}}, {"name": "West Warrior Peak", "latitude": 43.8760102, "longitude": -115.2995347, "elevation": 2719.0, "source": "osm", "_tags": {"ele": "2719", "gnis:feature_id": "393251", "name": "West Warrior Peak", "natural": "peak", "wikidata": "Q49088768"}}, {"name": "Wolf Mountain", "latitude": 44.0098999, "longitude": -115.3881531, "elevation": 2699.0, "source": "osm", "_tags": {"ele": "2699", "gnis:feature_id": "393635", "name": "Wolf Mountain", "natural": "peak", "wikidata": "Q49090759"}}, {"name": "Wood Creek Mountain", "latitude": 43.3576739, "longitude": -115.3114682, "elevation": 1863.0, "source": "osm", "_tags": {"ele": "1863", "gnis:feature_id": "393656", "name": "Wood Creek Mountain", "natural": "peak", "wikidata": "Q49090848"}}, {"name": "Croesus Peak", "latitude": 43.9979655, "longitude": -114.6517326, "elevation": 3113.0, "source": "osm", "_tags": {"ele": "3113", "gnis:feature_id": "393886", "name": "Croesus Peak", "natural": "peak"}}, {"name": "Bible Back Mountain", "latitude": 43.9976879, "longitude": -114.6378433, "elevation": 3013.0, "source": "osm", "_tags": {"ele": "3013", "gnis:feature_id": "393893", "name": "Bible Back Mountain", "natural": "peak", "wikidata": "Q4903073"}}, {"name": "Cline Hill", "latitude": 43.3854574, "longitude": -114.6906139, "elevation": 1633.0, "source": "osm", "_tags": {"ele": "1633", "gnis:feature_id": "395222", "name": "Cline Hill", "natural": "peak", "wikidata": "Q49021030"}}, {"name": "The Knob", "latitude": 43.216566, "longitude": -115.0075673, "elevation": 2002.0, "source": "osm", "_tags": {"ele": "2002", "gnis:feature_id": "395558", "name": "The Knob", "natural": "peak"}}, {"name": "Cannonball Mountain", "latitude": 43.4599019, "longitude": -114.7125603, "elevation": 2537.0, "source": "osm", "_tags": {"ele": "2537", "gnis:feature_id": "396225", "name": "Cannonball Mountain", "natural": "peak", "wikidata": "Q49017922"}}, {"name": "Davis Mountain", "latitude": 43.2137889, "longitude": -114.9128415, "elevation": 2070.0, "source": "osm", "_tags": {"ele": "2070", "gnis:feature_id": "396378", "name": "Davis Mountain", "natural": "peak", "wikidata": "Q49023720"}}, {"name": "Deer Mountain", "latitude": 43.4948975, "longitude": -115.1000737, "elevation": 2416.0, "source": "osm", "_tags": {"ele": "2416", "gnis:feature_id": "396389", "name": "Deer Mountain", "natural": "peak", "wikidata": "Q49024090"}}, {"name": "Fir Grove Mountain", "latitude": 43.1990676, "longitude": -114.7886702, "elevation": 1889.0, "source": "osm", "_tags": {"ele": "1889", "gnis:feature_id": "396487", "name": "Fir Grove Mountain", "natural": "peak", "wikidata": "Q49028913"}}, {"name": "Fox Peak", "latitude": 43.7251837, "longitude": -114.5145011, "elevation": 2782.0, "source": "osm", "_tags": {"ele": "2782", "gnis:feature_id": "396513", "name": "Fox Peak", "natural": "peak", "wikidata": "Q49030373"}}, {"name": "Galena Summit", "latitude": 43.8707396, "longitude": -114.713955, "elevation": 2654.0, "source": "osm", "_tags": {"ele": "2654", "gnis:feature_id": "396526", "name": "Galena Summit", "natural": "peak"}}, {"name": "Kings Crown", "latitude": 43.0418433, "longitude": -115.2320148, "elevation": 1099.0, "source": "osm", "_tags": {"ele": "1099", "gnis:feature_id": "396746", "name": "Kings Crown", "natural": "peak", "wikidata": "Q49041739"}}, {"name": "McKinney Butte", "latitude": 43.0201797, "longitude": -114.8197798, "elevation": 1196.0, "source": "osm", "_tags": {"ele": "1196", "gnis:feature_id": "396873", "name": "McKinney Butte", "natural": "peak", "wikidata": "Q49048918"}}, {"name": "Phantom Hill", "latitude": 43.7865739, "longitude": -114.4958904, "elevation": 2002.0, "source": "osm", "_tags": {"ele": "2002", "gnis:feature_id": "397026", "name": "Phantom Hill", "natural": "peak", "wikidata": "Q49060948"}}, {"name": "South Raker", "latitude": 43.9873443, "longitude": -115.101992, "elevation": 3011.0, "source": "osm", "_tags": {"ele": "3011", "gnis:feature_id": "397191", "name": "South Raker", "natural": "peak", "wikidata": "Q49076044"}}, {"name": "Tackobe Mountain", "latitude": 43.9524019, "longitude": -115.1711977, "elevation": 2825.0, "source": "osm", "_tags": {"ele": "2825", "gnis:feature_id": "397235", "name": "Tackobe Mountain", "natural": "peak", "wikidata": "Q49081113"}}, {"name": "The Knob", "latitude": 43.2168437, "longitude": -115.0070116, "elevation": 1992.0, "source": "osm", "_tags": {"ele": "1992", "gnis:feature_id": "397245", "name": "The Knob", "natural": "peak"}}, {"name": "The Temple", "latitude": 44.011393, "longitude": -114.992595, "elevation": 2986.0, "source": "osm", "_tags": {"ele": "2986", "gnis:feature_id": "397246", "name": "The Temple", "natural": "peak"}}, {"name": "Twin Peaks", "latitude": 43.2151781, "longitude": -114.8603396, "elevation": 1969.0, "source": "osm", "_tags": {"ele": "1969", "gnis:feature_id": "397284", "name": "Twin Peaks", "natural": "peak", "wikidata": "Q49086187"}}, {"name": "Black Butte", "latitude": 43.1351814, "longitude": -114.4778254, "elevation": 1548.0, "source": "osm", "_tags": {"ele": "1548", "gnis:feature_id": "397442", "name": "Black Butte", "natural": "peak", "wikidata": "Q49013161"}}, {"name": "Couch Summit", "latitude": 43.5149011, "longitude": -114.8014529, "elevation": 2098.0, "source": "osm", "_tags": {"ele": "2098", "gnis:feature_id": "397578", "name": "Couch Summit", "natural": "peak", "wikidata": "Q49022285"}}, {"name": "Dollarhide Mountain", "latitude": 43.6090698, "longitude": -114.6817279, "elevation": 2819.0, "source": "osm", "_tags": {"ele": "2819", "gnis:feature_id": "397633", "name": "Dollarhide Mountain", "natural": "peak", "wikidata": "Q5289245", "wikipedia": "en:Dollarhide Mountain"}}, {"name": "Dollarhide Summit", "latitude": 43.5937919, "longitude": -114.6833944, "elevation": 2653.0, "source": "osm", "_tags": {"ele": "2653", "gnis:feature_id": "397634", "name": "Dollarhide Summit", "natural": "peak", "wikidata": "Q49025311"}}, {"name": "Norton Peak", "latitude": 43.7618491, "longitude": -114.6531179, "elevation": 3146.0, "source": "osm", "_tags": {"ele": "3146", "gnis:feature_id": "397956", "name": "Norton Peak", "natural": "peak", "wikidata": "Q7060672"}}, {"name": "Shephard Peak", "latitude": 43.9724003, "longitude": -115.3225937, "elevation": 2683.0, "source": "osm", "_tags": {"ele": "2683", "gnis:feature_id": "398123", "name": "Shephard Peak", "natural": "peak", "wikidata": "Q49073203"}}, {"name": "Sydney Butte", "latitude": 43.5349013, "longitude": -114.7920084, "elevation": 2481.0, "source": "osm", "_tags": {"ele": "2481", "gnis:feature_id": "398210", "name": "Sydney Butte", "natural": "peak", "wikidata": "Q49080559"}}, {"name": "Turkey Head Butte", "latitude": 43.0554582, "longitude": -114.6733862, "elevation": 1202.0, "source": "osm", "_tags": {"ele": "1202", "gnis:feature_id": "398267", "name": "Turkey Head Butte", "natural": "peak", "wikidata": "Q49085299"}}, {"name": "Grey Lock Peak", "latitude": 43.8387898, "longitude": -115.0861911, "elevation": 2784.0, "source": "osm", "_tags": {"ele": "2784", "gnis:feature_id": "399039", "name": "Grey Lock Peak", "natural": "peak"}}, {"name": "James Creek Summit", "latitude": 43.7568421, "longitude": -115.2467517, "elevation": 2380.0, "source": "osm", "_tags": {"ele": "2380", "gnis:feature_id": "399079", "name": "James Creek Summit", "natural": "peak", "wikidata": "Q49039545"}}, {"name": "Packer Butte", "latitude": 43.2818408, "longitude": -115.3111889, "elevation": 1771.0, "source": "osm", "_tags": {"ele": "1771", "gnis:feature_id": "399182", "name": "Packer Butte", "natural": "peak", "wikidata": "Q49059291"}}, {"name": "Twin Oaks", "latitude": 43.143514, "longitude": -114.5617172, "elevation": 1587.0, "source": "osm", "_tags": {"ele": "1587", "gnis:feature_id": "399260", "name": "Twin Oaks", "natural": "peak", "wikidata": "Q49086095"}}, {"name": "Wrangle Hill", "latitude": 43.1829563, "longitude": -114.8375606, "elevation": 1721.0, "source": "osm", "_tags": {"ele": "1721", "gnis:feature_id": "399674", "name": "Wrangle Hill", "natural": "peak", "wikidata": "Q49091044"}}, {"name": "Easley Peak", "latitude": 43.8515743, "longitude": -114.5817279, "elevation": 3375.0, "source": "osm", "_tags": {"ele": "3375", "gnis:feature_id": "399859", "name": "Easley Peak", "natural": "peak", "wikidata": "Q49026842"}}, {"name": "Parks Peak", "latitude": 43.9666066, "longitude": -114.9327755, "elevation": 3130.0, "source": "osm", "_tags": {"ele": "3130", "gnis:feature_id": "400031", "name": "Parks Peak", "natural": "peak", "wikidata": "Q7138653", "wikipedia": "en:Parks Peak (Blaine County, Idaho)"}}, {"name": "Snowyside Peak", "latitude": 43.938134, "longitude": -114.9713602, "elevation": 3249.0, "source": "osm", "_tags": {"ele": "3249", "gnis:feature_id": "400097", "name": "Snowyside Peak", "natural": "peak", "wikidata": "Q7548767", "wikipedia": "en:Snowyside Peak"}}, {"name": "Deer Heaven Mountain", "latitude": 43.2254531, "longitude": -115.1995175, "elevation": 1942.0, "source": "osm", "_tags": {"ele": "1942", "gnis:feature_id": "400236", "name": "Deer Heaven Mountain", "natural": "peak", "wikidata": "Q49024032"}}, {"name": "Blizzard Mountain", "latitude": 43.8745587, "longitude": -115.0783198, "elevation": 2928.0, "source": "osm", "_tags": {"ele": "2928", "gnis:feature_id": "400353", "name": "Blizzard Mountain", "natural": "peak", "wikidata": "Q49014237"}}, {"name": "", "latitude": 43.6613416, "longitude": -114.4042805, "elevation": null, "source": "osm", "_tags": {"natural": "peak"}}, {"name": "Vienna Peak", "latitude": 43.8506432, "longitude": -114.8525104, "elevation": 3116.0, "source": "osm", "_tags": {"ele": "3116", "name": "Vienna Peak", "natural": "peak"}}, {"name": "Abe's Armchair", "latitude": 43.8668509, "longitude": -114.8345617, "elevation": 3035.0, "source": "osm", "_tags": {"ele": "3035", "name": "Abe's Armchair", "natural": "peak"}}, {"name": "Boardman Peak", "latitude": 43.5133516, "longitude": -114.9952851, "elevation": 2882.0, "source": "osm", "_tags": {"ele": "2882", "name": "Boardman Peak", "natural": "peak", "wikidata": "Q4931433", "wikipedia": "en:Boardman Peak"}}, {"name": "North Smoky Dome", "latitude": 43.5000795, "longitude": -114.9276413, "elevation": 3028.0, "source": "osm", "_tags": {"ele": "3028", "name": "North Smoky Dome", "natural": "peak"}}, {"name": "Third Peak", "latitude": 43.4863194, "longitude": -114.9194629, "elevation": 2946.0, "source": "osm", "_tags": {"ele": "2946", "name": "Third Peak", "natural": "peak"}}, {"name": "Second Peak", "latitude": 43.4846018, "longitude": -114.9071541, "elevation": 2904.0, "source": "osm", "_tags": {"ele": "2904", "name": "Second Peak", "natural": "peak"}}, {"name": "First Peak", "latitude": 43.4785447, "longitude": -114.8945667, "elevation": 2788.0, "source": "osm", "_tags": {"ele": "2788", "name": "First Peak", "natural": "peak"}}, {"name": "Peak 9712", "latitude": 43.5284474, "longitude": -115.033333, "elevation": 2960.0, "source": "osm", "_tags": {"ele": "2960", "name": "Peak 9712", "natural": "peak"}}, {"name": "Imogene Peak", "latitude": 43.9934118, "longitude": -114.935224, "elevation": 3086.0, "source": "osm", "_tags": {"ele": "3086", "name": "Imogene Peak", "natural": "peak", "wikidata": "Q8537455", "wikipedia": "en:Imogene Peak"}}, {"name": "", "latitude": 43.9475882, "longitude": -114.9558343, "elevation": 3063.0, "source": "osm", "_tags": {"ele": "3063", "natural": "peak"}}, {"name": "", "latitude": 43.946841, "longitude": -114.978209, "elevation": 3110.0, "source": "osm", "_tags": {"ele": "3110", "natural": "peak"}}, {"name": "Perfect Peak", "latitude": 43.9192487, "longitude": -114.9474001, "elevation": 3130.0, "source": "osm", "_tags": {"ele": "3130", "name": "Perfect Peak", "natural": "peak"}}, {"name": "Benedict Peak", "latitude": 43.9701565, "longitude": -115.0508326, "elevation": 3027.0, "source": "osm", "_tags": {"ele": "3027", "name": "Benedict Peak", "natural": "peak"}}, {"name": "Alpine Creek Lakes Peak", "latitude": 43.9214015, "longitude": -114.9907463, "elevation": 3037.0, "source": "osm", "_tags": {"ele": "3037", "name": "Alpine Creek Lakes Peak", "natural": "peak"}}, {"name": "", "latitude": 43.9204414, "longitude": -115.0409896, "elevation": 2967.0, "source": "osm", "_tags": {"ele": "2967", "natural": "peak"}}, {"name": "", "latitude": 43.9300731, "longitude": -114.9109595, "elevation": 3056.0, "source": "osm", "_tags": {"ele": "3056", "natural": "peak"}}, {"name": "Nahneke Mountain West", "latitude": 43.8942509, "longitude": -115.1432815, "elevation": 2915.0, "source": "osm", "_tags": {"ele": "2915", "name": "Nahneke Mountain West", "natural": "peak"}}, {"name": "", "latitude": 43.953518, "longitude": -115.074065, "elevation": 2986.0, "source": "osm", "_tags": {"ele": "2986", "natural": "peak"}}, {"name": "Scenic Peak", "latitude": 43.9085467, "longitude": -115.1374042, "elevation": 2912.0, "source": "osm", "_tags": {"ele": "2912", "name": "Scenic Peak", "natural": "peak"}}, {"name": "", "latitude": 43.9835701, "longitude": -115.1094491, "elevation": 2975.0, "source": "osm", "_tags": {"ele": "2975", "natural": "peak"}}, {"name": "", "latitude": 43.9652659, "longitude": -115.1202437, "elevation": 2958.0, "source": "osm", "_tags": {"ele": "2958", "natural": "peak"}}, {"name": "", "latitude": 43.8570901, "longitude": -114.7930809, "elevation": 2855.0, "source": "osm", "_tags": {"ele": "2855", "natural": "peak"}}, {"name": "", "latitude": 43.8710192, "longitude": -114.8936453, "elevation": 3087.0, "source": "osm", "_tags": {"ele": "3087", "natural": "peak"}}, {"name": "", "latitude": 43.6764763, "longitude": -114.9146144, "elevation": null, "source": "osm", "_tags": {"natural": "peak"}}, {"name": "", "latitude": 43.9932803, "longitude": -115.138894, "elevation": 2849.0, "source": "osm", "_tags": {"ele": "2849", "natural": "peak"}}, {"name": "", "latitude": 43.9844959, "longitude": -115.1375637, "elevation": 2748.0, "source": "osm", "_tags": {"ele": "2748", "natural": "peak"}}, {"name": "", "latitude": 44.0039074, "longitude": -115.1090582, "elevation": 2894.0, "source": "osm", "_tags": {"ele": "2894", "natural": "peak"}}, {"name": "", "latitude": 43.9810787, "longitude": -115.1266528, "elevation": 2841.0, "source": "osm", "_tags": {"ele": "2841", "natural": "peak"}}, {"name": "", "latitude": 43.9598374, "longitude": -115.0388413, "elevation": 3023.0, "source": "osm", "_tags": {"ele": "3023", "natural": "peak"}}, {"name": "", "latitude": 43.9530263, "longitude": -114.991465, "elevation": 3030.0, "source": "osm", "_tags": {"ele": "3030", "natural": "peak"}}, {"name": "", "latitude": 43.9704327, "longitude": -114.9781336, "elevation": 2970.0, "source": "osm", "_tags": {"ele": "2970", "natural": "peak"}}, {"name": "", "latitude": 43.9824595, "longitude": -114.9680259, "elevation": 3034.0, "source": "osm", "_tags": {"ele": "3034", "natural": "peak"}}, {"name": "", "latitude": 44.0008322, "longitude": -115.0095847, "elevation": 3000.0, "source": "osm", "_tags": {"ele": "3000", "natural": "peak"}}, {"name": "", "latitude": 44.0005627, "longitude": -114.9821478, "elevation": 3150.0, "source": "osm", "_tags": {"ele": "3150", "natural": "peak"}}, {"name": "", "latitude": 44.0134288, "longitude": -115.0072892, "elevation": 3066.0, "source": "osm", "_tags": {"ele": "3066", "natural": "peak"}}, {"name": "JT Peak", "latitude": 43.9951105, "longitude": -115.062488, "elevation": 2877.0, "source": "osm", "_tags": {"ele": "2877", "name": "JT Peak", "natural": "peak"}}, {"name": "", "latitude": 43.9728321, "longitude": -115.0009864, "elevation": 2853.5, "source": "osm", "_tags": {"ele": "2853.5", "natural": "peak"}}, {"name": "", "latitude": 43.9926433, "longitude": -115.0699141, "elevation": 2835.0, "source": "osm", "_tags": {"ele": "2835", "natural": "peak"}}, {"name": "Sand Mountain", "latitude": 43.9734498, "longitude": -114.9651406, "elevation": 2916.0, "source": "osm", "_tags": {"ele": "2916", "name": "Sand Mountain", "natural": "peak"}}, {"name": "", "latitude": 44.0063105, "longitude": -114.933384, "elevation": 2970.0, "source": "osm", "_tags": {"ele": "2970", "natural": "peak"}}, {"name": "", "latitude": 43.9833773, "longitude": -114.952716, "elevation": 3028.0, "source": "osm", "_tags": {"ele": "3028", "natural": "peak"}}, {"name": "", "latitude": 43.948693, "longitude": -114.9878282, "elevation": 3042.0, "source": "osm", "_tags": {"ele": "3042", "natural": "peak"}}, {"name": "", "latitude": 43.9342182, "longitude": -114.982252, "elevation": 3017.5, "source": "osm", "_tags": {"ele": "3017.5", "natural": "peak"}}, {"name": "", "latitude": 43.9268778, "longitude": -114.9798488, "elevation": 3018.0, "source": "osm", "_tags": {"ele": "3018", "natural": "peak"}}, {"name": "", "latitude": 43.9375952, "longitude": -114.9015673, "elevation": 2985.0, "source": "osm", "_tags": {"ele": "2985", "natural": "peak"}}, {"name": "The Rakers", "latitude": 43.993097, "longitude": -115.1034043, "elevation": null, "source": "osm", "_tags": {"gnis:feature_id": "393919", "name": "The Rakers", "natural": "peak"}}, {"name": "Marshall Peak", "latitude": 43.7729837, "longitude": -114.890015, "elevation": null, "source": "osm", "_tags": {"gnis:feature_id": "386495", "name": "Marshall Peak", "natural": "peak"}}, {"name": "Crows Nest", "latitude": 43.1996223, "longitude": -114.5729028, "elevation": null, "source": "osm", "_tags": {"gnis:feature_id": "372276", "name": "Crows Nest", "natural": "peak"}}, {"name": "North Goat Peak", "latitude": 43.981757, "longitude": -115.3435944, "elevation": 2734.056, "source": "osm", "_tags": {"ele": "2734.056", "name": "North Goat Peak", "natural": "peak"}}, {"name": "Saviers Peak", "latitude": 43.8219635, "longitude": -114.7131342, "elevation": 3182.4168, "source": "osm", "_tags": {"ele": "3182.4168", "name": "Saviers Peak", "natural": "peak"}}, {"name": "", "latitude": 43.5010624, "longitude": -114.9579803, "elevation": 2961.0, "source": "osm", "_tags": {"ele": "2961", "natural": "peak"}}, {"name": "Cold Spring Ridge", "latitude": 43.4815864, "longitude": -115.0296419, "elevation": null, "source": "osm", "_tags": {"name": "Cold Spring Ridge", "natural": "peak"}}, {"name": "Galena", "latitude": 43.879307, "longitude": -114.7106002, "elevation": 2812.0, "source": "osm", "_tags": {"ele": "2812", "name": "Galena", "natural": "peak"}}]