[{"name": "Gobblers Knob", "latitude": 45.832668, "longitude": -121.8564685, "elevation": 677.0, "source": "osm", "_tags": {"ele": "677", "gnis:feature_id": "1520065", "name": "Gobblers Knob", "natural": "peak", "source": "USGS"}}, {"name": "Termination Point", "latitude": 45.9921683, "longitude": -121.9626279, "elevation": 1211.0, "source": "osm", "_tags": {"ele": "1211", "gnis:feature_id": "1527012", "name": "Termination Point", "natural": "peak", "source": "USGS", "wikidata": "Q49081997"}}, {"name": "Goat Point", "latitude": 45.7931732, "longitude": -121.690076, "elevation": 694.0, "source": "osm", "_tags": {"ele": "694", "gnis:feature_id": "1520056", "name": "Goat Point", "natural": "peak", "source": "USGS"}}, {"name": "Little Baldy Peak", "latitude": 45.8026184, "longitude": -121.622576, "elevation": 855.0, "source": "osm", "_tags": {"ele": "855", "gnis:feature_id": "1522155", "name": "Little Baldy Peak", "natural": "peak", "source": "USGS"}}, {"name": "Mount Pleasant", "latitude": 45.5728966, "longitude": -122.2320343, "elevation": 299.0, "source": "osm", "_tags": {"ele": "299", "gnis:feature_id": "1507500", "name": "Mount Pleasant", "natural": "peak", "source": "USGS"}}, {"name": "Gumboot Mountain", "latitude": 45.8620376, "longitude": -122.2139196, "elevation": 1175.0, "source": "osm", "_tags": {"ele": "1175", "is_in:country": "USA", "is_in:county": "Skamania", "is_in:state_code": "WA", "name": "Gumboot Mountain", "natural": "peak", "source": "USGS"}}, {"name": "Pohls Hill", "latitude": 45.6384506, "longitude": -122.2298122, "elevation": 410.0, "source": "osm", "_tags": {"ele": "410", "gnis:feature_id": "1524530", "name": "Pohls Hill", "natural": "peak", "source": "USGS"}}, {"name": "Cougar Rock", "latitude": 45.8368328, "longitude": -122.089284, "elevation": 1257.0, "source": "osm", "_tags": {"ele": "1257", "gnis:feature_id": "1518188", "name": "Cougar Rock", "natural": "peak", "source": "USGS"}}, {"name": "Tatoosh Hills", "latitude": 45.8576365, "longitude": -122.1767781, "elevation": 1191.0, "source": "osm", "_tags": {"ele": "1191", "is_in:country": "USA", "is_in:county": "Skamania", "is_in:state_code": "WA", "name": "Tatoosh Hills", "natural": "peak", "source": "USGS"}}, {"name": "Silver Star Mountain", "latitude": 45.7477295, "longitude": -122.2390091, "elevation": 1337.0, "source": "osm", "_tags": {"ele": "1337", "name": "Silver Star Mountain", "natural": "peak", "source": "USGS"}}, {"name": "South Butte", "latitude": 45.9031706, "longitude": -121.92425, "elevation": 863.0, "source": "osm", "_tags": {"ele": "863", "gnis:feature_id": "1526137", "name": "South Butte", "natural": "peak", "source": "USGS"}}, {"name": "Mann Butte", "latitude": 45.9415013, "longitude": -121.6433768, "elevation": 1211.9, "source": "osm", "_tags": {"ele": "1211.9", "gnis:feature_id": "1522677", "name": "Mann Butte", "natural": "peak", "source": "USGS", "wikidata": "Q49047768"}}, {"name": "Pilot Knob", "latitude": 45.8006716, "longitude": -121.885358, "elevation": 664.0, "source": "osm", "_tags": {"ele": "664", "gnis:feature_id": "1524428", "name": "Pilot Knob", "natural": "peak", "source": "USGS"}}, {"name": "Chemawa Hill", "latitude": 45.7437752, "longitude": -121.6113055, "elevation": 673.0, "source": "osm", "_tags": {"ele": "673", "gnis:feature_id": "1512086", "name": "Chemawa Hill", "natural": "peak", "source": "USGS"}}, {"name": "Green Mountain", "latitude": 45.7581747, "longitude": -121.542574, "elevation": 427.0, "source": "osm", "_tags": {"ele": "427", "gnis:feature_id": "1529130", "name": "Green Mountain", "natural": "peak", "source": "USGS"}}, {"name": "Lookout Mountain", "latitude": 45.7997592, "longitude": -122.104436, "elevation": 1287.0, "source": "osm", "_tags": {"ele": "1287", "gnis:feature_id": "1522432", "name": "Lookout Mountain", "natural": "peak", "source": "USGS"}}, {"name": "Trail Peak", "latitude": 45.9143923, "longitude": -121.6257978, "elevation": 1200.0, "source": "osm", "_tags": {"ele": "1200", "gnis:feature_id": "1527350", "name": "Trail Peak", "natural": "peak", "source": "USGS"}}, {"name": "Little Baldy", "latitude": 45.7470802, "longitude": -122.205061, "elevation": 1201.0, "source": "osm", "_tags": {"ele": "1201", "gnis:feature_id": "1522154", "name": "Little Baldy", "natural": "peak", "source": "USGS"}}, {"name": "Rock Point", "latitude": 45.9642807, "longitude": -121.982863, "elevation": 1152.0, "source": "osm", "_tags": {"ele": "1152", "gnis:feature_id": "1525149", "name": "Rock Point", "natural": "peak", "source": "USGS"}}, {"name": "West Point", "latitude": 45.9255281, "longitude": -122.1690237, "elevation": 1173.0, "source": "osm", "_tags": {"ele": "1173", "gnis:feature_id": "1527995", "name": "West Point", "natural": "peak", "source": "USGS"}}, {"name": "Greenleaf Peak", "latitude": 45.713981, "longitude": -121.9669431, "elevation": 1043.0, "source": "osm", "_tags": {"ele": "1043", "gnis:feature_id": "1505285", "name": "Greenleaf Peak", "natural": "peak", "source": "USGS", "wikidata": "Q3116138", "wikipedia": "en:Greenleaf Peak"}}, {"name": "Saturday Rock", "latitude": 45.8506692, "longitude": -122.1625896, "elevation": 1183.0, "source": "osm", "_tags": {"ele": "1183", "gnis:feature_id": "1525447", "name": "Saturday Rock", "natural": "peak", "source": "USGS"}}, {"name": "Grassy Knoll", "latitude": 45.8151705, "longitude": -121.7555056, "elevation": 1112.0, "source": "osm", "_tags": {"ele": "1112", "is_in:country": "USA", "is_in:county": "Skamania", "is_in:state_code": "WA", "name": "Grassy Knoll", "natural": "peak", "source": "USGS"}}, {"name": "Huffman Peak", "latitude": 45.9796983, "longitude": -122.1629188, "elevation": 1251.0, "source": "osm", "_tags": {"ele": "1251", "gnis:feature_id": "1521046", "name": "Huffman Peak", "natural": "peak", "source": "USGS"}}, {"name": "Aldrich Butte", "latitude": 45.6535381, "longitude": -121.9798309, "elevation": 348.7, "source": "osm", "_tags": {"ele": "348.7", "gnis:feature_id": "1511957", "name": "Aldrich Butte", "natural": "peak", "source": "USGS", "wikidata": "Q49008594"}}, {"name": "Shingle Mountain", "latitude": 45.8140068, "longitude": -121.665076, "elevation": 725.0, "source": "osm", "_tags": {"ele": "725", "gnis:feature_id": "1525688", "name": "Shingle Mountain", "natural": "peak", "source": "USGS"}}, {"name": "Bare Mountain", "latitude": 45.9101511, "longitude": -122.0716749, "elevation": 1329.0, "source": "osm", "_tags": {"ele": "1329", "is_in:country": "USA", "is_in:county": "Skamania", "is_in:state_code": "WA", "name": "Bare Mountain", "natural": "peak", "source": "USGS"}}, {"name": "Cook Hill", "latitude": 45.7299861, "longitude": -121.6690289, "elevation": 919.0, "source": "osm", "_tags": {"ele": "919", "name": "Cook Hill", "natural": "peak", "source": "USGS"}}, {"name": "Twin Rocks", "latitude": 45.8726484, "longitude": -122.1009795, "elevation": 1340.0, "source": "osm", "_tags": {"ele": "1340", "gnis:feature_id": "1527556", "name": "Twin Rocks", "natural": "peak", "source": "USGS"}}, {"name": "Hamilton Mountain", "latitude": 45.651032, "longitude": -122.0052574, "elevation": 735.6, "source": "osm", "_tags": {"ele": "735.6", "name": "Hamilton Mountain", "natural": "peak", "source": "USGS 3DEP", "wikimedia_commons": "File:Hamilton Mountain (3541766193).jpg"}}, {"name": "Hauk Butte", "latitude": 45.7778956, "longitude": -121.67952, "elevation": 849.0, "source": "osm", "_tags": {"ele": "849", "gnis:feature_id": "1520604", "name": "Hauk Butte", "natural": "peak", "source": "USGS"}}, {"name": "Bobs Mountain", "latitude": 45.6510253, "longitude": -122.1846917, "elevation": 643.0, "source": "osm", "_tags": {"alt_name": "Bob's Mountain", "ele": "643", "gnis:feature_id": "1516741", "name": "Bobs Mountain", "natural": "peak", "source": "USGS"}}, {"name": "Jack Mountain", "latitude": 45.8401132, "longitude": -122.2500922, "elevation": 858.0, "source": "osm", "_tags": {"ele": "858", "gnis:feature_id": "1521291", "name": "Jack Mountain", "natural": "peak", "source": "USGS"}}, {"name": "Siouxon Peak", "latitude": 45.9924003, "longitude": -122.1306727, "elevation": 1270.7, "source": "osm", "_tags": {"ele": "1270.7", "gnis:feature_id": "1525820", "name": "Siouxon Peak", "natural": "peak", "source": "USGS"}}, {"name": "Berry Mountain", "latitude": 45.9632008, "longitude": -121.8119607, "elevation": 1529.0, "source": "osm", "_tags": {"ele": "1529", "gnis:feature_id": "1516443", "name": "Berry Mountain", "natural": "peak", "source": "USGS", "wikidata": "Q49012190"}}, {"name": "Bluff Mountain", "latitude": 45.7421692, "longitude": -122.1910796, "elevation": 1198.3, "source": "osm", "_tags": {"ele": "1198.3", "name": "Bluff Mountain", "natural": "peak", "source": "USGS"}}, {"name": "Green Knob", "latitude": 45.7887267, "longitude": -121.973972, "elevation": 939.0, "source": "osm", "_tags": {"ele": "939", "gnis:feature_id": "1520293", "name": "Green Knob", "natural": "peak", "source": "USGS", "wikidata": "Q49033478"}}, {"name": "Timberhead Mountain", "latitude": 45.8453753, "longitude": -121.6059675, "elevation": 1106.4, "source": "osm", "_tags": {"ele": "1106.4", "gnis:feature_id": "1527236", "name": "Timberhead Mountain", "natural": "peak", "source": "USGS"}}, {"name": "Calamity Peak", "latitude": 45.916308, "longitude": -122.1272517, "elevation": 1306.0, "source": "osm", "_tags": {"ele": "1306", "gnis:feature_id": "1517215", "name": "Calamity Peak", "natural": "peak", "source": "USGS"}}, {"name": "Biddle Butte", "latitude": 45.5806931, "longitude": -122.2076941, "elevation": 447.0, "source": "osm", "_tags": {"alt_name": "Mount Zion", "ele": "447", "gnis:feature_id": "1509678", "name": "Biddle Butte", "natural": "peak", "source": "USGS"}}, {"name": "Green Lookout Mountain", "latitude": 45.861225, "longitude": -122.123144, "elevation": 1307.0, "source": "osm", "_tags": {"ele": "1307", "gnis:feature_id": "1520302", "name": "Green Lookout Mountain", "natural": "peak", "source": "USGS"}}, {"name": "Sister Rocks", "latitude": 45.9338965, "longitude": -122.0466934, "elevation": 1263.0, "source": "osm", "_tags": {"ele": "1263", "gnis:feature_id": "1525825", "name": "Sister Rocks", "natural": "peak", "source": "USGS", "wikidata": "Q49074151"}}, {"name": "Little Lookout Mountain", "latitude": 45.8061638, "longitude": -122.1014044, "elevation": 1168.0, "source": "osm", "_tags": {"ele": "1168", "gnis:feature_id": "1522256", "name": "Little Lookout Mountain", "natural": "peak", "source": "USGS"}}, {"name": "Archer Mountain", "latitude": 45.6202085, "longitude": -122.0997147, "elevation": 616.0, "source": "osm", "_tags": {"ele": "616", "gnis:feature_id": "1503055", "name": "Archer Mountain", "natural": "peak", "source": "USGS"}}, {"name": "Buck Mountain", "latitude": 45.7381725, "longitude": -121.793688, "elevation": 400.0, "source": "osm", "_tags": {"ele": "400", "gnis:feature_id": "1512043", "name": "Buck Mountain", "natural": "peak", "source": "USGS"}}, {"name": "Rock Creek Butte", "latitude": 45.7390052, "longitude": -121.935915, "elevation": 584.0, "source": "osm", "_tags": {"ele": "584", "gnis:feature_id": "1512612", "name": "Rock Creek Butte", "natural": "peak", "source": "USGS", "wikidata": "Q49068853"}}, {"name": "Lava Butte", "latitude": 45.9520591, "longitude": -121.922028, "elevation": 767.0, "source": "osm", "_tags": {"ele": "767", "gnis:feature_id": "1521943", "name": "Lava Butte", "natural": "peak", "source": "USGS"}}, {"name": "Sacagawea and Papoose Rocks", "latitude": 45.6729261, "longitude": -121.974081, "elevation": 476.0, "source": "osm", "_tags": {"alt_name": "Rabbit Ears;Two Chiefs", "ele": "476", "gnis:feature_id": "1510443", "name": "Sacagawea and Papoose Rocks", "natural": "peak", "source": "USGS", "wikidata": "Q49070513"}}, {"name": "Middle Butte", "latitude": 45.9217815, "longitude": -121.92925, "elevation": 1041.0, "source": "osm", "_tags": {"ele": "1041", "gnis:feature_id": "1523051", "name": "Middle Butte", "natural": "peak", "source": "USGS"}}, {"name": "Sedum Point", "latitude": 45.7930721, "longitude": -121.9814991, "elevation": 938.0, "source": "osm", "_tags": {"ele": "938", "gnis:feature_id": "1525557", "name": "Sedum Point", "natural": "peak", "source": "USGS", "wikidata": "Q49072148"}}, {"name": "Sugarbowl Butte", "latitude": 45.9917858, "longitude": -121.592026, "elevation": 900.0, "source": "osm", "_tags": {"ele": "900", "gnis:feature_id": "1526666", "name": "Sugarbowl Butte", "natural": "peak", "source": "USGS", "wikidata": "Q49079165"}}, {"name": "Monte Carlo", "latitude": 45.8720059, "longitude": -121.5712426, "elevation": 1224.0, "source": "osm", "_tags": {"ele": "1224", "gnis:feature_id": "1523328", "name": "Monte Carlo", "natural": "peak", "source": "USGS"}}, {"name": "Burdoin Mountain", "latitude": 45.7209416, "longitude": -121.4409308, "elevation": 688.0, "source": "osm", "_tags": {"ele": "688", "gnis:feature_id": "1513900", "name": "Burdoin Mountain", "natural": "peak", "source": "USGS", "wikidata": "Q49016837"}}, {"name": "Nichols Hill", "latitude": 45.6056736, "longitude": -122.274813, "elevation": 338.0, "source": "osm", "_tags": {"ele": "338", "gnis:feature_id": "1506977", "name": "Nichols Hill", "natural": "peak"}}, {"name": "Mount Norway", "latitude": 45.6120624, "longitude": -122.292591, "elevation": 333.0, "source": "osm", "_tags": {"ele": "333", "gnis:feature_id": "1507115", "name": "Mount Norway", "natural": "peak"}}, {"name": "Wind Mountain", "latitude": 45.7099163, "longitude": -121.755774, "elevation": 581.2, "source": "osm", "_tags": {"ele": "581.2", "name": "Wind Mountain", "natural": "peak", "source": "USGS"}}, {"name": "Table Mountain", "latitude": 45.6913634, "longitude": -121.983187, "elevation": 1042.0, "source": "osm", "_tags": {"ele": "1042", "gnis:feature_id": "1512710", "name": "Table Mountain", "natural": "peak", "source": "USGS 3DEP", "wikidata": "Q7673142", "wikipedia": "en:Table Mountain (Skamania County, Washington)"}}, {"name": "Woodburn Hill", "latitude": 45.5959518, "longitude": -122.3539805, "elevation": 197.0, "source": "osm", "_tags": {"ele": "197", "gnis:feature_id": "1512811", "name": "Woodburn Hill", "natural": "peak"}}, {"name": "", "latitude": 45.7412821, "longitude": -121.6861002, "elevation": 970.0, "source": "osm", "_tags": {"ele": "970", "natural": "peak", "source": "USGS"}}, {"name": "Baldy Peak", "latitude": 45.8306901, "longitude": -121.5323224, "elevation": 774.0, "source": "osm", "_tags": {"ele": "774", "gnis:feature_id": "1516102", "name": "Baldy Peak", "natural": "peak", "source": "USGS"}}, {"name": "Big Huckleberry Mountain", "latitude": 45.8473387, "longitude": -121.78369, "elevation": 1283.0, "source": "osm", "_tags": {"ele": "1283", "gnis:feature_id": "1516521", "name": "Big Huckleberry Mountain", "natural": "peak", "source": "USGS"}}, {"name": "Brunner Hill", "latitude": 45.6417843, "longitude": -122.4006482, "elevation": 210.0, "source": "osm", "_tags": {"ele": "210", "gnis:feature_id": "1517000", "name": "Brunner Hill", "natural": "peak"}}, {"name": "Bunker Hill", "latitude": 45.8182933, "longitude": -121.9316837, "elevation": 671.0, "source": "osm", "_tags": {"ele": "671", "gnis:feature_id": "1517099", "name": "Bunker Hill", "natural": "peak", "source": "USGS"}}, {"name": "Elkhorn Mountain", "latitude": 45.7390114, "longitude": -122.371344, "elevation": 679.0, "source": "osm", "_tags": {"ele": "679", "gnis:feature_id": "1519301", "name": "Elkhorn Mountain", "natural": "peak", "wikidata": "Q5364269", "wikipedia": "en:Elkhorn Mountain (Washington)"}}, {"name": "Gifford Peak", "latitude": 45.9818175, "longitude": -121.805018, "elevation": 1636.2, "source": "osm", "_tags": {"ele": "1636.2", "gnis:feature_id": "1519952", "name": "Gifford Peak", "natural": "peak", "source": "USGS", "wikidata": "Q49031442"}}, {"name": "Green Knob", "latitude": 45.9015012, "longitude": -122.2570377, "elevation": 870.0, "source": "osm", "_tags": {"ele": "870", "gnis:feature_id": "1520294", "name": "Green Knob", "natural": "peak"}}, {"name": "Gross Mountain", "latitude": 45.9442877, "longitude": -121.455634, "elevation": 725.0, "source": "osm", "_tags": {"ele": "725", "gnis:feature_id": "1520374", "name": "Gross Mountain", "natural": "peak", "source": "USGS"}}, {"name": "Guler Mountain", "latitude": 45.928453, "longitude": -121.556468, "elevation": 1288.0, "source": "osm", "_tags": {"ele": "1288", "gnis:feature_id": "1520408", "name": "Guler Mountain", "natural": "peak", "source": "USGS"}}, {"name": "Larch Mountain", "latitude": 45.71668, "longitude": -122.2957826, "elevation": 1057.0, "source": "osm", "_tags": {"ele": "1057", "gnis:feature_id": "1521907", "name": "Larch Mountain", "natural": "peak", "wikidata": "Q6488759", "wikipedia": "en:Larch Mountain (Clark County, Washington)"}}, {"name": "Little Baldy", "latitude": 45.6795615, "longitude": -122.400371, "elevation": 437.0, "source": "osm", "_tags": {"ele": "437", "gnis:feature_id": "1522153", "name": "Little Baldy", "natural": "peak"}}, {"name": "Little Huckleberry Mountain", "latitude": 45.8853259, "longitude": -121.7047117, "elevation": 1457.2, "source": "osm", "_tags": {"ele": "1457.2", "gnis:feature_id": "1522237", "name": "Little Huckleberry Mountain", "natural": "peak", "source": "USGS"}}, {"name": "Livingston Mountain", "latitude": 45.6790058, "longitude": -122.3675927, "elevation": 595.0, "source": "osm", "_tags": {"ele": "595", "gnis:feature_id": "1522332", "name": "Livingston Mountain", "natural": "peak"}}, {"name": "Monte Cristo", "latitude": 45.905863, "longitude": -121.5744832, "elevation": 1271.3, "source": "osm", "_tags": {"ele": "1271.3", "gnis:feature_id": "1523330", "name": "Monte Cristo", "natural": "peak", "source": "USGS"}}, {"name": "Mowich Butte", "latitude": 45.7998727, "longitude": -122.0308887, "elevation": 1071.0, "source": "osm", "_tags": {"ele": "1071", "gnis:feature_id": "1523451", "name": "Mowich Butte", "natural": "peak", "source": "USGS", "wikidata": "Q49055447"}}, {"name": "Nestor Peak", "latitude": 45.8166767, "longitude": -121.5722359, "elevation": 958.0, "source": "osm", "_tags": {"ele": "958", "gnis:feature_id": "1523626", "name": "Nestor Peak", "natural": "peak", "source": "USGS"}}, {"name": "North Butte", "latitude": 45.9367814, "longitude": -121.92925, "elevation": 893.0, "source": "osm", "_tags": {"ele": "893", "gnis:feature_id": "1523729", "name": "North Butte", "natural": "peak", "source": "USGS"}}, {"name": "Observation Peak", "latitude": 45.9205875, "longitude": -122.0246982, "elevation": 1282.0, "source": "osm", "_tags": {"ele": "1282", "gnis:feature_id": "1523963", "name": "Observation Peak", "natural": "peak", "source": "USGS", "wikidata": "Q49058134"}}, {"name": "Pyramid Rock", "latitude": 45.7340179, "longitude": -122.2530724, "elevation": 1091.0, "source": "osm", "_tags": {"ele": "1091", "name": "Pyramid Rock", "natural": "peak"}}, {"name": "Spotted Deer Mountain", "latitude": 45.7701152, "longitude": -122.377594, "elevation": 594.0, "source": "osm", "_tags": {"ele": "594", "gnis:feature_id": "1526391", "name": "Spotted Deer Mountain", "natural": "peak"}}, {"name": "Spud Mountain", "latitude": 45.6926611, "longitude": -122.3564774, "elevation": 576.0, "source": "osm", "_tags": {"ele": "576", "gnis:feature_id": "1526438", "name": "Spud Mountain", "natural": "peak"}}, {"name": "Kloochman Butte", "latitude": 45.771766, "longitude": -122.2771865, "elevation": 777.8, "source": "osm", "_tags": {"alt_name": "Squaw Butte", "ele": "777.8", "gnis:feature_id": "1526447", "name": "Kloochman Butte", "natural": "peak"}}, {"name": "Sturgeon Rock", "latitude": 45.7482693, "longitude": -122.2485033, "elevation": 1267.0, "source": "osm", "_tags": {"ele": "1267", "gnis:feature_id": "1526653", "name": "Sturgeon Rock", "natural": "peak"}}, {"name": "Timbered Peak", "latitude": 45.9671809, "longitude": -122.0519061, "elevation": 1335.3, "source": "osm", "_tags": {"ele": "1335.3", "gnis:feature_id": "1527235", "name": "Timbered Peak", "natural": "peak", "source": "USGS"}}, {"name": "Tumtum Mountain", "latitude": 45.9342728, "longitude": -122.3371736, "elevation": 611.0, "source": "osm", "_tags": {"ele": "611", "gnis:feature_id": "1527446", "name": "Tumtum Mountain", "natural": "peak"}}, {"name": "Weigle Hill", "latitude": 45.8023386, "longitude": -121.840079, "elevation": 767.0, "source": "osm", "_tags": {"ele": "767", "gnis:feature_id": "1527881", "name": "Weigle Hill", "natural": "peak", "source": "USGS"}}, {"name": "West Crater", "latitude": 45.8731813, "longitude": -122.0849913, "elevation": 1260.0, "source": "osm", "_tags": {"ele": "1260", "gnis:feature_id": "1527922", "name": "West Crater", "natural": "peak"}}, {"name": "Camp Five Hill", "latitude": 45.8995647, "longitude": -121.511745, "elevation": 387.0, "source": "osm", "_tags": {"ele": "387", "gnis:feature_id": "1528927", "name": "Camp Five Hill", "natural": "peak", "source": "USGS"}}, {"name": "Peterson Butte", "latitude": 45.9875407, "longitude": -121.6896206, "elevation": 1188.0, "source": "osm", "_tags": {"ele": "1188", "gnis:feature_id": "1529008", "name": "Peterson Butte", "natural": "peak", "source": "USGS", "wikidata": "Q49060849"}}, {"name": "Grouse Butte", "latitude": 45.9709506, "longitude": -121.687581, "elevation": 1152.0, "source": "osm", "_tags": {"ele": "1152", "gnis:feature_id": "1529017", "name": "Grouse Butte", "natural": "peak", "source": "USGS", "wikidata": "Q49034100"}}, {"name": "Bald Mountain", "latitude": 45.7537306, "longitude": -121.504795, "elevation": 498.0, "source": "osm", "_tags": {"ele": "498", "gnis:feature_id": "1529131", "name": "Bald Mountain", "natural": "peak", "source": "USGS"}}, {"name": "Chanticleer Point", "latitude": 45.537503, "longitude": -122.2654441, "elevation": 215.0, "source": "osm", "_tags": {"ele": "215", "gnis:feature_id": "1118822", "name": "Chanticleer Point", "natural": "peak", "wikidata": "Q2105188", "wikipedia": "en:Chanticleer Point"}}, {"name": "", "latitude": 45.6329935, "longitude": -121.469177, "elevation": 728.5, "source": "osm", "_tags": {"ele": "728.5", "natural": "peak"}}, {"name": "Sheepshead Rock", "latitude": 45.245058, "longitude": -122.0044616, "elevation": 1359.0, "source": "osm", "_tags": {"ele": "1359", "gnis:feature_id": "1135215", "name": "Sheepshead Rock", "natural": "peak"}}, {"name": "South Fork Mountain", "latitude": 45.0915102, "longitude": -122.240359, "elevation": 1473.0, "source": "osm", "_tags": {"ele": "1473", "gnis:feature_id": "1135488", "name": "South Fork Mountain", "natural": "peak"}}, {"name": "Aemisegger Hill", "latitude": 45.4067875, "longitude": -122.3831441, "elevation": 187.0, "source": "osm", "_tags": {"ele": "187", "gnis:feature_id": "1135991", "name": "Aemisegger Hill", "natural": "peak"}}, {"name": "Cemetery Hill", "latitude": 45.5191204, "longitude": -122.2956527, "elevation": 221.0, "source": "osm", "_tags": {"ele": "221", "gnis:feature_id": "1136136", "name": "Cemetery Hill", "natural": "peak"}}, {"name": "Chamberlain Hill", "latitude": 45.5331753, "longitude": -122.3428686, "elevation": 277.0, "source": "osm", "_tags": {"ele": "277", "gnis:feature_id": "1136138", "name": "Chamberlain Hill", "natural": "peak"}}, {"name": "Panorama Point", "latitude": 45.6873402, "longitude": -121.4997971, "elevation": 210.0, "source": "osm", "_tags": {"ele": "210", "gnis:feature_id": "1136612", "name": "Panorama Point", "natural": "peak"}}, {"name": "Angel's Rest", "latitude": 45.5641142, "longitude": -122.1529651, "elevation": 484.0, "source": "osm", "_tags": {"alt_name": "Angels Rest", "ele": "484", "gnis:feature_id": "1137221", "name": "Angel's Rest", "natural": "peak", "wikidata": "Q49008806"}}, {"name": "Aschoff Buttes", "latitude": 45.4215077, "longitude": -121.9928593, "elevation": 1159.0, "source": "osm", "_tags": {"ele": "1159", "name": "Aschoff Buttes", "natural": "peak"}}, {"name": "Badger Butte", "latitude": 45.2942845, "longitude": -121.5525727, "elevation": 1821.0, "source": "osm", "_tags": {"ele": "1821", "gnis:feature_id": "1137390", "name": "Badger Butte", "natural": "peak"}}, {"name": "Bald Butte", "latitude": 45.5362279, "longitude": -121.5322966, "elevation": 1151.8, "source": "osm", "_tags": {"ele": "1151.8", "name": "Bald Butte", "natural": "peak"}}, {"name": "Bald Mountain", "latitude": 45.4024715, "longitude": -121.7756568, "elevation": 1392.0, "source": "osm", "_tags": {"ele": "1392", "gnis:feature_id": "1137455", "name": "Bald Mountain", "natural": "peak"}}, {"name": "Barlow Butte", "latitude": 45.2756737, "longitude": -121.6689645, "elevation": 1536.0, "source": "osm", "_tags": {"ele": "1536", "gnis:feature_id": "1137521", "name": "Barlow Butte", "natural": "peak"}}, {"name": "Basin Point", "latitude": 45.1812296, "longitude": -121.7670219, "elevation": 1248.0, "source": "osm", "_tags": {"ele": "1248", "gnis:feature_id": "1137565", "name": "Basin Point", "natural": "peak"}}, {"name": "Beaver Butte", "latitude": 45.0598388, "longitude": -121.5881257, "elevation": 1541.0, "source": "osm", "_tags": {"ele": "1541", "gnis:feature_id": "1137798", "name": "Beaver Butte", "natural": "peak"}}, {"name": "Bedford Point", "latitude": 45.2201202, "longitude": -122.1781372, "elevation": 714.0, "source": "osm", "_tags": {"ele": "714", "gnis:feature_id": "1137864", "name": "Bedford Point", "natural": "peak"}}, {"name": "Big Bend Mountain", "latitude": 45.4830612, "longitude": -121.9533703, "elevation": 1224.0, "source": "osm", "_tags": {"ele": "1224", "gnis:feature_id": "1137975", "name": "Big Bend Mountain", "natural": "peak"}}, {"name": "Bird Butte", "latitude": 45.2508429, "longitude": -121.6798182, "elevation": 1453.0, "source": "osm", "_tags": {"ele": "1453", "gnis:feature_id": "1138154", "name": "Bird Butte", "natural": "peak"}}, {"name": "Blazed Alder Butte", "latitude": 45.4359516, "longitude": -121.8695234, "elevation": 1258.0, "source": "osm", "_tags": {"ele": "1258", "gnis:feature_id": "1138256", "name": "Blazed Alder Butte", "natural": "peak"}}, {"name": "Bonney Butte", "latitude": 45.2628175, "longitude": -121.5929855, "elevation": 1701.0, "source": "osm", "_tags": {"ele": "1701", "gnis:feature_id": "1138425", "name": "Bonney Butte", "natural": "peak"}}, {"name": "Boulder Point", "latitude": 45.1790515, "longitude": -121.501097, "elevation": 1083.0, "source": "osm", "_tags": {"ele": "1083", "gnis:feature_id": "1138488", "name": "Boulder Point", "natural": "peak"}}, {"name": "Buck Peak", "latitude": 45.4987292, "longitude": -121.859801, "elevation": 1443.0, "source": "osm", "_tags": {"ele": "1443", "gnis:feature_id": "1138810", "name": "Buck Peak", "natural": "peak"}}, {"name": "Buckskin Butte", "latitude": 45.0665068, "longitude": -121.718964, "elevation": 1249.0, "source": "osm", "_tags": {"ele": "1249", "gnis:feature_id": "1138873", "name": "Buckskin Butte", "natural": "peak"}}, {"name": "Burnt Peak", "latitude": 45.4209517, "longitude": -121.8881349, "elevation": 1344.0, "source": "osm", "_tags": {"ele": "1344", "gnis:feature_id": "1139005", "name": "Burnt Peak", "natural": "peak"}}, {"name": "Butcher Knife Peak", "latitude": 45.4695322, "longitude": -121.7937325, "elevation": 1161.0, "source": "osm", "_tags": {"ele": "1161", "gnis:feature_id": "1139040", "name": "Butcher Knife Peak", "natural": "peak"}}, {"name": "Chinidere Mountain", "latitude": 45.5862286, "longitude": -121.8114664, "elevation": 1416.0, "source": "osm", "_tags": {"ele": "1416", "gnis:feature_id": "1139695", "name": "Chinidere Mountain", "natural": "peak"}}, {"name": "Clear Fork Butte", "latitude": 45.4157049, "longitude": -121.8569553, "elevation": 1265.0, "source": "osm", "_tags": {"ele": "1265", "gnis:feature_id": "1139799", "name": "Clear Fork Butte", "natural": "peak"}}, {"name": "Clear Lake Butte", "latitude": 45.1567847, "longitude": -121.7192428, "elevation": 1356.0, "source": "osm", "_tags": {"ele": "1356", "gnis:feature_id": "1139806", "name": "Clear Lake Butte", "natural": "peak"}}, {"name": "Clear Point", "latitude": 45.1726192, "longitude": -121.4892023, "elevation": 1076.0, "source": "osm", "_tags": {"ele": "1076", "gnis:feature_id": "1139807", "name": "Clear Point", "natural": "peak"}}, {"name": "Cold Point", "latitude": 45.3387285, "longitude": -121.4739606, "elevation": 1637.0, "source": "osm", "_tags": {"ele": "1637", "gnis:feature_id": "1139919", "name": "Cold Point", "natural": "peak"}}, {"name": "Crown Point", "latitude": 45.5399142, "longitude": -122.244337, "elevation": 223.0, "source": "osm", "_tags": {"ele": "223", "gnis:feature_id": "1140493", "name": "Crown Point", "natural": "peak"}}, {"name": "Dead Point", "latitude": 45.5983457, "longitude": -121.6582163, "elevation": 651.7, "source": "osm", "_tags": {"ele": "651.7", "gnis:feature_id": "1140711", "name": "Dead Point", "natural": "peak"}}, {"name": "Mount Defiance", "latitude": 45.6484508, "longitude": -121.7222975, "elevation": 1504.0, "source": "osm", "_tags": {"ele": "1504", "gnis:feature_id": "1140872", "name": "Mount Defiance", "natural": "peak"}}, {"name": "Devil's Peak", "latitude": 45.2642224, "longitude": -121.8757011, "elevation": 1537.7, "source": "osm", "_tags": {"ele": "1537.7", "gnis:feature_id": "1140968", "name": "Devil's Peak", "natural": "peak"}}, {"name": "Devil's Pulpit", "latitude": 45.4752534, "longitude": -121.832088, "elevation": 1359.0, "source": "osm", "_tags": {"ele": "1359", "gnis:feature_id": "1140970", "name": "Devil's Pulpit", "natural": "peak"}}, {"name": "Devils Rest", "latitude": 45.5626212, "longitude": -122.128488, "elevation": 732.0, "source": "osm", "_tags": {"ele": "732", "gnis:feature_id": "1140971", "name": "Devils Rest", "natural": "peak", "wikidata": "Q49024576"}}, {"name": "Divide Butte", "latitude": 45.0240106, "longitude": -122.2495251, "elevation": 1456.0, "source": "osm", "_tags": {"ele": "1456", "gnis:feature_id": "1141062", "name": "Divide Butte", "natural": "peak"}}, {"name": "Eagle Butte", "latitude": 45.5370624, "longitude": -121.9128581, "elevation": 1270.0, "source": "osm", "_tags": {"ele": "1270", "gnis:feature_id": "1141460", "name": "Eagle Butte", "natural": "peak"}}, {"name": "Eightmile Point", "latitude": 45.3665061, "longitude": -121.4806277, "elevation": 1600.0, "source": "osm", "_tags": {"ele": "1600", "gnis:feature_id": "1141707", "name": "Eightmile Point", "natural": "peak"}}, {"name": "Elk Mountain", "latitude": 45.3359511, "longitude": -121.6114633, "elevation": 1712.0, "source": "osm", "_tags": {"ele": "1712", "gnis:feature_id": "1141790", "name": "Elk Mountain", "natural": "peak"}}, {"name": "Eureka Peak", "latitude": 45.2723406, "longitude": -121.7550779, "elevation": 1487.4, "source": "osm", "_tags": {"ele": "1487.4", "gnis:feature_id": "1141918", "name": "Eureka Peak", "natural": "peak"}}, {"name": "File Butte", "latitude": 45.4924982, "longitude": -121.6798439, "elevation": 1134.0, "source": "osm", "_tags": {"ele": "1134", "gnis:feature_id": "1142091", "name": "File Butte", "natural": "peak"}}, {"name": "Fir Mountain", "latitude": 45.5431725, "longitude": -121.4681295, "elevation": 1098.0, "source": "osm", "_tags": {"ele": "1098", "gnis:feature_id": "1142113", "name": "Fir Mountain", "natural": "peak"}}, {"name": "Fish Creek Mountain", "latitude": 45.0789245, "longitude": -122.1254679, "elevation": 1522.0, "source": "osm", "_tags": {"ele": "1522", "gnis:feature_id": "1142153", "name": "Fish Creek Mountain", "natural": "peak"}}, {"name": "Fivemile Butte", "latitude": 45.4103947, "longitude": -121.4711839, "elevation": 1416.0, "source": "osm", "_tags": {"ele": "1416", "gnis:feature_id": "1142201", "name": "Fivemile Butte", "natural": "peak"}}, {"name": "Flag Mountain", "latitude": 45.3042854, "longitude": -121.8923014, "elevation": 771.0, "source": "osm", "_tags": {"ele": "771", "gnis:feature_id": "1142213", "name": "Flag Mountain", "natural": "peak"}}, {"name": "Frailey Point", "latitude": 45.3523395, "longitude": -121.4261824, "elevation": 1340.0, "source": "osm", "_tags": {"ele": "1340", "gnis:feature_id": "1142401", "name": "Frailey Point", "natural": "peak"}}, {"name": "Frazier Mountain", "latitude": 45.1434614, "longitude": -121.9756543, "elevation": 1549.3, "source": "osm", "_tags": {"ele": "1549.3", "gnis:feature_id": "1142426", "name": "Frazier Mountain", "natural": "peak"}}, {"name": "Frog Lake Buttes", "latitude": 45.2177205, "longitude": -121.6667704, "elevation": 1606.0, "source": "osm", "_tags": {"ele": "1606", "name": "Frog Lake Buttes", "natural": "peak"}}, {"name": "Goat Mountain", "latitude": 45.1315103, "longitude": -122.2967491, "elevation": 1282.0, "source": "osm", "_tags": {"ele": "1282", "gnis:feature_id": "1142785", "name": "Goat Mountain", "natural": "peak"}}, {"name": "Gordon Butte", "latitude": 45.2917027, "longitude": -121.4426026, "elevation": 1463.0, "source": "osm", "_tags": {"ele": "1463", "gnis:feature_id": "1142867", "name": "Gordon Butte", "natural": "peak"}}, {"name": "Grasshopper Point", "latitude": 45.2523403, "longitude": -121.5359051, "elevation": 1641.0, "source": "osm", "_tags": {"ele": "1641", "gnis:feature_id": "1142965", "name": "Grasshopper Point", "natural": "peak"}}, {"name": "Green Point Mountain", "latitude": 45.6246259, "longitude": -121.770401, "elevation": 1443.8, "source": "osm", "_tags": {"ele": "1443.8", "gnis:feature_id": "1143053", "name": "Green Point Mountain", "natural": "peak"}}, {"name": "Grouse Point", "latitude": 45.1548882, "longitude": -122.0248429, "elevation": 1367.0, "source": "osm", "_tags": {"ele": "1367", "gnis:feature_id": "1143134", "name": "Grouse Point", "natural": "peak"}}, {"name": "Gunsight Butte", "latitude": 45.3182844, "longitude": -121.5609251, "elevation": 1799.0, "source": "osm", "_tags": {"ele": "1799", "gnis:feature_id": "1143158", "name": "Gunsight Butte", "natural": "peak"}}, {"name": "Halfway Hill", "latitude": 45.4262295, "longitude": -121.8761903, "elevation": 1293.0, "source": "osm", "_tags": {"ele": "1293", "gnis:feature_id": "1143210", "name": "Halfway Hill", "natural": "peak"}}, {"name": "Hambone Butte", "latitude": 45.2086942, "longitude": -121.911404, "elevation": 1420.368, "source": "osm", "_tags": {"ele": "1420.368", "gnis:feature_id": "1143237", "name": "Hambone Butte", "natural": "peak"}}, {"name": "Hickman Butte", "latitude": 45.4128964, "longitude": -121.9117465, "elevation": 1334.0, "source": "osm", "_tags": {"ele": "1334", "gnis:feature_id": "1143533", "name": "Hickman Butte", "natural": "peak"}}, {"name": "High Rock", "latitude": 45.1596182, "longitude": -121.8913168, "elevation": 1499.616, "source": "osm", "_tags": {"ele": "1499.616", "gnis:feature_id": "1143580", "name": "High Rock", "natural": "peak"}}, {"name": "Hiyu Mountain", "latitude": 45.4353741, "longitude": -121.807003, "elevation": 1418.0, "source": "osm", "_tags": {"ele": "1418", "gnis:feature_id": "1143621", "name": "Hiyu Mountain", "natural": "peak"}}, {"name": "Indian Mountain", "latitude": 45.5482148, "longitude": -121.828873, "elevation": 1491.0, "source": "osm", "_tags": {"ele": "1491", "gnis:feature_id": "1144065", "name": "Indian Mountain", "natural": "peak"}}, {"name": "Joes Point", "latitude": 45.4273391, "longitude": -121.4200726, "elevation": 1136.0, "source": "osm", "_tags": {"ele": "1136", "gnis:feature_id": "1144298", "name": "Joes Point", "natural": "peak"}}, {"name": "Jordan Butte", "latitude": 45.3353078, "longitude": -121.4090883, "elevation": 1453.0, "source": "osm", "_tags": {"ele": "1453", "gnis:feature_id": "1144390", "name": "Jordan Butte", "natural": "peak"}}, {"name": "Lamberson Butte", "latitude": 45.3590369, "longitude": -121.646923, "elevation": 2022.0, "source": "osm", "_tags": {"ele": "2022", "gnis:feature_id": "1144799", "name": "Lamberson Butte", "natural": "peak"}}, {"name": "Larch Mountain", "latitude": 45.5309522, "longitude": -122.090363, "elevation": 1202.0, "source": "osm", "_tags": {"ele": "1202", "gnis:feature_id": "1144827", "name": "Larch Mountain", "natural": "peak", "volcano:status": "extinct", "volcano:type": "shield", "wikidata": "Q6488760"}}, {"name": "Last Chance Mountain", "latitude": 45.3973405, "longitude": -121.831745, "elevation": 1198.0, "source": "osm", "_tags": {"ele": "1198", "gnis:feature_id": "1144847", "name": "Last Chance Mountain", "natural": "peak"}}, {"name": "Laughlin Hills", "latitude": 45.0899293, "longitude": -121.430679, "elevation": null, "source": "osm", "_tags": {"name": "Laughlin Hills", "natural": "peak"}}, {"name": "Lenhart Butte", "latitude": 45.35012, "longitude": -122.1667508, "elevation": 638.0, "source": "osm", "_tags": {"ele": "638", "gnis:feature_id": "1144945", "name": "Lenhart Butte", "natural": "peak"}}, {"name": "Linney Butte", "latitude": 45.1939236, "longitude": -121.8959059, "elevation": 1534.973, "source": "osm", "_tags": {"ele": "1534.973", "gnis:feature_id": "1145052", "name": "Linney Butte", "natural": "peak"}}, {"name": "Lookout Mountain", "latitude": 45.3425035, "longitude": -121.5241884, "elevation": 1991.0, "source": "osm", "_tags": {"ele": "1991", "gnis:feature_id": "1145473", "name": "Lookout Mountain", "natural": "peak"}}, {"name": "Lookout Point", "latitude": 45.4840086, "longitude": -122.1284194, "elevation": 802.0, "source": "osm", "_tags": {"ele": "802", "gnis:feature_id": "1145478", "name": "Lookout Point", "natural": "peak"}}, {"name": "Lost Lake Butte", "latitude": 45.4957724, "longitude": -121.7959077, "elevation": 1362.0, "source": "osm", "_tags": {"ele": "1362", "gnis:feature_id": "1145547", "name": "Lost Lake Butte", "natural": "peak"}}, {"name": "Marion Point", "latitude": 45.3640061, "longitude": -121.4670164, "elevation": 1461.0, "source": "osm", "_tags": {"ele": "1461", "gnis:feature_id": "1145816", "name": "Marion Point", "natural": "peak"}}, {"name": "Miners Butte", "latitude": 45.0423438, "longitude": -122.2242474, "elevation": 1401.0, "source": "osm", "_tags": {"ele": "1401", "gnis:feature_id": "1146319", "name": "Miners Butte", "natural": "peak"}}, {"name": "Mount Mitchell", "latitude": 45.1084944, "longitude": -121.9800252, "elevation": 1448.0, "source": "osm", "_tags": {"ele": "1448", "gnis:feature_id": "1146526", "name": "Mount Mitchell", "natural": "peak", "wikidata": "Q6922213"}}, {"name": "Multorpor Mountain", "latitude": 45.2936252, "longitude": -121.7497557, "elevation": 1419.1, "source": "osm", "_tags": {"ele": "1419.1", "gnis:feature_id": "1146660", "name": "Multorpor Mountain", "natural": "peak"}}, {"name": "Munra Point", "latitude": 45.622633, "longitude": -121.9612665, "elevation": 553.0, "source": "osm", "_tags": {"ele": "553", "gnis:feature_id": "1146663", "name": "Munra Point", "natural": "peak"}}, {"name": "Nesmith Point", "latitude": 45.5877228, "longitude": -122.0072463, "elevation": 1180.2, "source": "osm", "_tags": {"ele": "1180.2", "gnis:feature_id": "1146789", "name": "Nesmith Point", "natural": "peak"}}, {"name": "North Mountain", "latitude": 45.3967854, "longitude": -121.9539694, "elevation": 1229.0, "source": "osm", "_tags": {"ele": "1229", "gnis:feature_id": "1147042", "name": "North Mountain", "natural": "peak"}}, {"name": "North Wilson", "latitude": 45.1198399, "longitude": -121.666185, "elevation": 1406.0, "source": "osm", "_tags": {"ele": "1406", "gnis:feature_id": "1147075", "name": "North Wilson", "natural": "peak"}}, {"name": "Oak Grove Butte", "latitude": 45.0487329, "longitude": -121.9900796, "elevation": 1404.0, "source": "osm", "_tags": {"ele": "1404", "gnis:feature_id": "1147114", "name": "Oak Grove Butte", "natural": "peak"}}, {"name": "Palmer Peak", "latitude": 45.5708875, "longitude": -122.0074827, "elevation": 1222.0, "source": "osm", "_tags": {"ele": "1222", "gnis:feature_id": "1147374", "name": "Palmer Peak", "natural": "peak"}}, {"name": "Pepper Mountain", "latitude": 45.5273417, "longitude": -122.1734212, "elevation": 655.0, "source": "osm", "_tags": {"ele": "655", "gnis:feature_id": "1147589", "name": "Pepper Mountain", "natural": "peak"}}, {"name": "Perry Point", "latitude": 45.4031724, "longitude": -121.4928507, "elevation": 1503.0, "source": "osm", "_tags": {"ele": "1503", "gnis:feature_id": "1147603", "name": "Perry Point", "natural": "peak"}}, {"name": "Post Point", "latitude": 45.198541, "longitude": -121.501454, "elevation": 1110.0, "source": "osm", "_tags": {"ele": "1110", "gnis:feature_id": "1147923", "name": "Post Point", "natural": "peak"}}, {"name": "Preachers Peak", "latitude": 45.4730163, "longitude": -121.8354002, "elevation": 1389.0, "source": "osm", "_tags": {"ele": "1389", "gnis:feature_id": "1147993", "name": "Preachers Peak", "natural": "peak"}}, {"name": "Pulpit Rock", "latitude": 45.3837289, "longitude": -121.6981316, "elevation": 2663.0, "source": "osm", "_tags": {"ele": "2663", "gnis:feature_id": "1148031", "name": "Pulpit Rock", "natural": "peak"}}, {"name": "Quartz Butte", "latitude": 45.0706716, "longitude": -121.4525662, "elevation": 930.0, "source": "osm", "_tags": {"ele": "930", "gnis:feature_id": "1148080", "name": "Quartz Butte", "natural": "peak"}}, {"name": "Raker Point", "latitude": 45.5092181, "longitude": -121.8356564, "elevation": 1239.0, "source": "osm", "_tags": {"ele": "1239", "gnis:feature_id": "1148184", "name": "Raker Point", "natural": "peak"}}, {"name": "Red Hill", "latitude": 45.4581732, "longitude": -121.7281317, "elevation": 1502.0, "source": "osm", "_tags": {"ele": "1502", "gnis:feature_id": "1148305", "name": "Red Hill", "natural": "peak"}}, {"name": "Rock Butte", "latitude": 45.0670636, "longitude": -121.8253551, "elevation": 1361.0, "source": "osm", "_tags": {"ele": "1361", "gnis:feature_id": "1148561", "name": "Rock Butte", "natural": "peak"}}, {"name": "Rocky Butte", "latitude": 45.2523402, "longitude": -121.5034042, "elevation": 1455.0, "source": "osm", "_tags": {"ele": "1455", "gnis:feature_id": "1148656", "name": "Rocky Butte", "natural": "peak"}}, {"name": "Rocky Point", "latitude": 45.0412275, "longitude": -121.5878477, "elevation": 1383.0, "source": "osm", "_tags": {"ele": "1383", "gnis:feature_id": "1148670", "name": "Rocky Point", "natural": "peak"}}, {"name": "Ross Mountain", "latitude": 45.5206756, "longitude": -122.2353676, "elevation": 396.0, "source": "osm", "_tags": {"ele": "396", "gnis:feature_id": "1148739", "name": "Ross Mountain", "natural": "peak"}}, {"name": "Round Mountain", "latitude": 45.055677, "longitude": -122.2295253, "elevation": 1404.0, "source": "osm", "_tags": {"ele": "1404", "gnis:feature_id": "1148787", "name": "Round Mountain", "natural": "peak"}}, {"name": "Salmon Butte", "latitude": 45.2279261, "longitude": -121.9346658, "elevation": 1431.0, "source": "osm", "_tags": {"ele": "1431", "gnis:feature_id": "1148965", "name": "Salmon Butte", "natural": "peak"}}, {"name": "Sawtooth Mountain", "latitude": 45.5111696, "longitude": -121.8134186, "elevation": 1270.0, "source": "osm", "_tags": {"ele": "1270", "gnis:feature_id": "1149101", "name": "Sawtooth Mountain", "natural": "peak"}}, {"name": "Sentinel Peak", "latitude": 45.4536492, "longitude": -121.8064896, "elevation": 1391.0, "source": "osm", "_tags": {"ele": "1391", "gnis:feature_id": "1149235", "name": "Sentinel Peak", "natural": "peak"}}, {"name": "Shellrock Mountain", "latitude": 45.4642832, "longitude": -121.527852, "elevation": 1354.5, "source": "osm", "_tags": {"ele": "1354.5", "gnis:feature_id": "1149377", "name": "Shellrock Mountain", "natural": "peak"}}, {"name": "Shellrock Mountain", "latitude": 45.6840063, "longitude": -121.7375753, "elevation": 638.0, "source": "osm", "_tags": {"ele": "638", "gnis:feature_id": "1149378", "name": "Shellrock Mountain", "natural": "peak"}}, {"name": "Slide Mountain", "latitude": 45.3647059, "longitude": -121.7795964, "elevation": 1481.0, "source": "osm", "_tags": {"ele": "1481", "gnis:feature_id": "1149718", "name": "Slide Mountain", "natural": "peak"}}, {"name": "Soosap Peak", "latitude": 45.0715103, "longitude": -122.2600812, "elevation": 1419.0, "source": "osm", "_tags": {"ele": "1419", "gnis:feature_id": "1149878", "name": "Soosap Peak", "natural": "peak"}}, {"name": "Tumala Mountain", "latitude": 45.2309783, "longitude": -122.0405442, "elevation": 1432.0, "source": "osm", "_tags": {"ele": "1432", "gnis:feature_id": "1150290", "name": "Tumala Mountain", "natural": "peak", "wikidata": "Q20712572"}}, {"name": "Sugarloaf Mountain", "latitude": 45.3987296, "longitude": -121.8770236, "elevation": 1278.0, "source": "osm", "_tags": {"ele": "1278", "gnis:feature_id": "1150560", "name": "Sugarloaf Mountain", "natural": "peak"}}, {"name": "Summit Butte", "latitude": 45.0384511, "longitude": -121.717297, "elevation": 1446.0, "source": "osm", "_tags": {"ele": "1446", "gnis:feature_id": "1150605", "name": "Summit Butte", "natural": "peak"}}, {"name": "Table Mountain", "latitude": 45.5126632, "longitude": -121.890914, "elevation": 1383.8, "source": "osm", "_tags": {"ele": "1383.8", "gnis:feature_id": "1150816", "name": "Table Mountain", "natural": "peak"}}, {"name": "Mount Talapus", "latitude": 45.5620623, "longitude": -121.9675818, "elevation": 1178.0, "source": "osm", "_tags": {"ele": "1178", "gnis:feature_id": "1150843", "name": "Mount Talapus", "natural": "peak"}}, {"name": "Tanner Butte", "latitude": 45.5665067, "longitude": -121.9070246, "elevation": 1355.0, "source": "osm", "_tags": {"ele": "1355", "gnis:feature_id": "1150891", "name": "Tanner Butte", "natural": "peak"}}, {"name": "Thimble Mountain", "latitude": 45.4312614, "longitude": -121.9307372, "elevation": 1210.0, "source": "osm", "_tags": {"ele": "1210", "gnis:feature_id": "1151056", "name": "Thimble Mountain", "natural": "peak"}}, {"name": "Thunder Rock", "latitude": 45.439285, "longitude": -121.8859127, "elevation": 1006.0, "source": "osm", "_tags": {"ele": "1006", "gnis:feature_id": "1151206", "name": "Thunder Rock", "natural": "peak"}}, {"name": "Tom Dick and Harry Mountain", "latitude": 45.2899332, "longitude": -121.7913473, "elevation": 1544.1, "source": "osm", "_tags": {"ele": "1544.1", "gnis:feature_id": "1151313", "name": "Tom Dick and Harry Mountain", "natural": "peak", "wikidata": "Q7815577"}}, {"name": "Tomlike Mountain", "latitude": 45.6087623, "longitude": -121.8010654, "elevation": 1387.0, "source": "osm", "_tags": {"ele": "1387", "gnis:feature_id": "1151325", "name": "Tomlike Mountain", "natural": "peak"}}, {"name": "Veda Butte", "latitude": 45.258174, "longitude": -121.7742448, "elevation": 1518.0, "source": "osm", "_tags": {"ele": "1518", "gnis:feature_id": "1151743", "name": "Veda Butte", "natural": "peak"}}, {"name": "Walker Peak", "latitude": 45.4742863, "longitude": -122.1309192, "elevation": 736.0, "source": "osm", "_tags": {"ele": "736", "gnis:feature_id": "1151835", "name": "Walker Peak", "natural": "peak"}}, {"name": "Wanderers Peak", "latitude": 45.1087323, "longitude": -122.1970255, "elevation": 1306.0, "source": "osm", "_tags": {"ele": "1306", "gnis:feature_id": "1151874", "name": "Wanderers Peak", "natural": "peak"}}, {"name": "Wauneka Point", "latitude": 45.6153406, "longitude": -121.9791859, "elevation": null, "source": "osm", "_tags": {"gnis:feature_id": "1151976", "name": "Wauneka Point", "natural": "peak"}}, {"name": "West Zigzag Mountain", "latitude": 45.3429205, "longitude": -121.8843177, "elevation": 1361.0, "source": "osm", "_tags": {"ele": "1361", "gnis:feature_id": "1152148", "name": "West Zigzag Mountain", "natural": "peak"}}, {"name": "Wests Butte", "latitude": 45.0653954, "longitude": -121.6920185, "elevation": 1454.0, "source": "osm", "_tags": {"ele": "1454", "gnis:feature_id": "1152158", "name": "Wests Butte", "natural": "peak"}}, {"name": "Whale Head", "latitude": 45.1062323, "longitude": -122.1189695, "elevation": 1431.0, "source": "osm", "_tags": {"ele": "1431", "gnis:feature_id": "1152168", "name": "Whale Head", "natural": "peak"}}, {"name": "Mount Wilson", "latitude": 45.0667839, "longitude": -121.6581284, "elevation": 1680.0, "source": "osm", "_tags": {"ele": "1680", "gnis:feature_id": "1152466", "name": "Mount Wilson", "natural": "peak"}}, {"name": "Wolf Camp Butte", "latitude": 45.241396, "longitude": -121.8181221, "elevation": 1452.0, "source": "osm", "_tags": {"ele": "1452", "gnis:feature_id": "1152573", "name": "Wolf Camp Butte", "natural": "peak"}}, {"name": "Wolf Peak", "latitude": 45.1654852, "longitude": -121.8734909, "elevation": 1494.739, "source": "osm", "_tags": {"ele": "1494.739", "gnis:feature_id": "1152597", "name": "Wolf Peak", "natural": "peak"}}, {"name": "Yeon Mountain", "latitude": 45.5873399, "longitude": -122.0242503, "elevation": 1006.0, "source": "osm", "_tags": {"ele": "1006", "gnis:feature_id": "1152728", "name": "Yeon Mountain", "natural": "peak"}}, {"name": "Zigzag Mountain", "latitude": 45.34636, "longitude": -121.8377326, "elevation": 1526.0, "source": "osm", "_tags": {"ele": "1526", "gnis:feature_id": "1152776", "name": "Zigzag Mountain", "natural": "peak", "wikidata": "Q8071820"}}, {"name": "Van Horn Butte", "latitude": 45.6542848, "longitude": -121.5053513, "elevation": 258.0, "source": "osm", "_tags": {"ele": "258", "gnis:feature_id": "1157076", "name": "Van Horn Butte", "natural": "peak"}}, {"name": "Sunshine Rock", "latitude": 45.5337812, "longitude": -121.8283577, "elevation": 1120.0, "source": "osm", "_tags": {"ele": "1120", "gnis:feature_id": "1157093", "name": "Sunshine Rock", "natural": "peak"}}, {"name": "Sherrard Point", "latitude": 45.532767, "longitude": -122.0878582, "elevation": 1146.0, "source": "osm", "_tags": {"ele": "1146", "gnis:feature_id": "1158482", "name": "Sherrard Point", "natural": "peak"}}, {"name": "Huckleberry Mountain", "latitude": 45.302897, "longitude": -122.0045249, "elevation": 1307.0, "source": "osm", "_tags": {"ele": "1307", "gnis:feature_id": "1167856", "name": "Huckleberry Mountain", "natural": "peak"}}, {"name": "Old Baldy", "latitude": 45.2731088, "longitude": -122.0825812, "elevation": 1274.0, "source": "osm", "_tags": {"ele": "1274", "gnis:feature_id": "1167858", "name": "Old Baldy", "natural": "peak"}}, {"name": "Wildcat Mountain", "latitude": 45.2937138, "longitude": -122.0415801, "elevation": 1365.0, "source": "osm", "_tags": {"ele": "1365", "gnis:feature_id": "1167869", "name": "Wildcat Mountain", "natural": "peak"}}, {"name": "Githens Mountain", "latitude": 45.2526196, "longitude": -122.0636918, "elevation": 1363.0, "source": "osm", "_tags": {"ele": "1363", "gnis:feature_id": "1167871", "name": "Githens Mountain", "natural": "peak"}}, {"name": "Davidson Hill", "latitude": 45.6581736, "longitude": -121.5470182, "elevation": 171.0, "source": "osm", "_tags": {"ele": "171", "gnis:feature_id": "1851692", "name": "Davidson Hill", "natural": "peak"}}, {"name": "Ehrck Hill", "latitude": 45.6387291, "longitude": -121.5331293, "elevation": 260.0, "source": "osm", "_tags": {"ele": "260", "gnis:feature_id": "1851694", "name": "Ehrck Hill", "natural": "peak"}}, {"name": "Lenz Butte", "latitude": 45.6334512, "longitude": -121.5309072, "elevation": 301.0, "source": "osm", "_tags": {"ele": "301", "gnis:feature_id": "1851715", "name": "Lenz Butte", "natural": "peak"}}, {"name": "Palmateer Point", "latitude": 45.262976, "longitude": -121.6779823, "elevation": 1341.0, "source": "osm", "_tags": {"ele": "1341", "name": "Palmateer Point", "natural": "peak"}}, {"name": "", "latitude": 45.5774543, "longitude": -122.0322401, "elevation": null, "source": "osm", "_tags": {"historic": "monument", "natural": "peak"}}, {"name": "Mill Creek Buttes", "latitude": 45.4465451, "longitude": -121.5230871, "elevation": 1497.48, "source": "osm", "_tags": {"ele": "1497.48", "name": "Mill Creek Buttes", "natural": "peak"}}, {"name": "Beacon Rock", "latitude": 45.6278394, "longitude": -122.021119, "elevation": 258.0, "source": "osm", "_tags": {"ele": "258", "name": "Beacon Rock", "natural": "peak"}}, {"name": "", "latitude": 45.5157987, "longitude": -121.874406, "elevation": 1312.2, "source": "osm", "_tags": {"ele": "1312.2", "natural": "peak"}}, {"name": "Four Corner Mountain", "latitude": 45.7134274, "longitude": -122.3505251, "elevation": null, "source": "osm", "_tags": {"name": "Four Corner Mountain", "natural": "peak"}}, {"name": "Flag Point", "latitude": 45.3176641, "longitude": -121.4670091, "elevation": 1722.0, "source": "osm", "_tags": {"ele": "1722", "name": "Flag Point", "natural": "peak"}}, {"name": "Bulo Point", "latitude": 45.3730271, "longitude": -121.47347, "elevation": 1456.0, "source": "osm", "_tags": {"ele": "1456", "name": "Bulo Point", "natural": "peak", "sport": "climbing"}}, {"name": "Soda Peaks", "latitude": 45.8810036, "longitude": -122.0450176, "elevation": null, "source": "osm", "_tags": {"name": "Soda Peaks", "natural": "peak", "source": "USGS"}}, {"name": "Soda Peaks", "latitude": 45.8829078, "longitude": -122.0564825, "elevation": 1351.0, "source": "osm", "_tags": {"ele": "1351", "gnis:feature_id": "1526080", "name": "Soda Peaks", "natural": "peak", "source": "USGS", "wikidata": "Q49075433"}}, {"name": "Little Beacon Rock", "latitude": 45.6337152, "longitude": -122.0216316, "elevation": 221.0, "source": "osm", "_tags": {"ele": "221", "name": "Little Beacon Rock", "natural": "peak"}}, {"name": "Barrett Spur", "latitude": 45.3925645, "longitude": -121.6994278, "elevation": 2392.0, "source": "osm", "_tags": {"ele": "2392", "name": "Barrett Spur", "natural": "peak"}}, {"name": "The Pinnacle", "latitude": 45.4257587, "longitude": -121.7056982, "elevation": 1593.0, "source": "osm", "_tags": {"ele": "1593", "name": "The Pinnacle", "natural": "peak"}}, {"name": "Three Corner Rock", "latitude": 45.7324794, "longitude": -122.049617, "elevation": 1082.0, "source": "osm", "_tags": {"ele": "1082", "name": "Three Corner Rock", "natural": "peak"}}, {"name": "Illumination Rock", "latitude": 45.3678572, "longitude": -121.7103366, "elevation": 2909.0, "source": "osm", "_tags": {"ele": "2909", "name": "Illumination Rock", "natural": "peak"}}, {"name": "Dog Mountain", "latitude": 45.7169545, "longitude": -121.700449, "elevation": 898.0, "source": "osm", "_tags": {"ele": "898", "name": "Dog Mountain", "natural": "peak", "wikidata": "Q5288207", "wikipedia": "en:Dog Mountain"}}, {"name": "Augspurger Mountain", "latitude": 45.7532267, "longitude": -121.7101061, "elevation": 1118.0, "source": "osm", "_tags": {"ele": "1118", "name": "Augspurger Mountain", "natural": "peak"}}, {"name": "Crater Rock", "latitude": 45.3699762, "longitude": -121.7002985, "elevation": null, "source": "osm", "_tags": {"name": "Crater Rock", "natural": "peak"}}, {"name": "", "latitude": 45.3500701, "longitude": -121.8507886, "elevation": 1486.0, "source": "osm", "_tags": {"ele": "1486", "natural": "peak"}}, {"name": "East Zigzag Mountain", "latitude": 45.3507047, "longitude": -121.8153823, "elevation": 1515.0, "source": "osm", "_tags": {"ele": "1515", "name": "East Zigzag Mountain", "natural": "peak"}}, {"name": "Barrett Spur", "latitude": 45.3946598, "longitude": -121.699953, "elevation": 2393.0, "source": "osm", "_tags": {"ele": "2393", "name": "Barrett Spur", "natural": "peak"}}, {"name": "Ghost Ridge", "latitude": 45.262324, "longitude": -121.6966952, "elevation": 1501.0, "source": "osm", "_tags": {"alt_name": "Tri-County Ridge", "ele": "1501", "name": "Ghost Ridge", "natural": "peak"}}, {"name": "Barlow Ridge", "latitude": 45.2671896, "longitude": -121.6542971, "elevation": 1580.0, "source": "osm", "_tags": {"ele": "1580", "name": "Barlow Ridge", "natural": "peak"}}, {"name": "Langille Crags", "latitude": 45.3924956, "longitude": -121.6743118, "elevation": 2205.0, "source": "osm", "_tags": {"ele": "2205", "name": "Langille Crags", "natural": "peak"}}, {"name": "Little Hamilton Mountain", "latitude": 45.6447476, "longitude": -122.0087827, "elevation": null, "source": "osm", "_tags": {"name": "Little Hamilton Mountain", "natural": "peak"}}, {"name": "Tatoosh Hills", "latitude": 45.855168, "longitude": -122.1911645, "elevation": 1186.0, "source": "osm", "_tags": {"ele": "1186", "is_in:country": "USA", "is_in:county": "Skamania", "is_in:state_code": "WA", "name": "Tatoosh Hills", "natural": "peak", "source": "USGS"}}, {"name": "Aschoff Buttes", "latitude": 45.4276875, "longitude": -121.9823599, "elevation": 1096.0, "source": "osm", "_tags": {"ele": "1096", "name": "Aschoff Buttes", "natural": "peak"}}, {"name": "", "latitude": 45.9752236, "longitude": -121.9891191, "elevation": null, "source": "osm", "_tags": {"natural": "peak"}}, {"name": "Paradise Hills", "latitude": 45.9776692, "longitude": -121.9914365, "elevation": null, "source": "osm", "_tags": {"name": "Paradise Hills", "natural": "peak"}}, {"name": "", "latitude": 45.9807111, "longitude": -122.00032, "elevation": null, "source": "osm", "_tags": {"natural": "peak"}}, {"name": "Indian Point", "latitude": 45.6836059, "longitude": -121.7980465, "elevation": null, "source": "osm", "_tags": {"name": "Indian Point", "natural": "peak"}}, {"name": "Middle Mountain", "latitude": 45.5874494, "longitude": -121.5982609, "elevation": 805.28, "source": "osm", "_tags": {"ele": "805.28", "name": "Middle Mountain", "natural": "peak"}}, {"name": "Mill Creek Buttes", "latitude": 45.4467341, "longitude": -121.5020782, "elevation": null, "source": "osm", "_tags": {"name": "Mill Creek Buttes", "natural": "peak"}}, {"name": "Mitchell Point", "latitude": 45.7004398, "longitude": -121.6144305, "elevation": 359.05, "source": "osm", "_tags": {"ele": "359.05", "name": "Mitchell Point", "natural": "peak"}}, {"name": "Rim Rock", "latitude": 45.169951, "longitude": -121.5832472, "elevation": null, "source": "osm", "_tags": {"name": "Rim Rock", "natural": "peak"}}, {"name": "Wygant Peak", "latitude": 45.688858, "longitude": -121.6493905, "elevation": 674.8, "source": "osm", "_tags": {"ele": "674.8", "name": "Wygant Peak", "natural": "peak"}}, {"name": "Booth Hill", "latitude": 45.5917291, "longitude": -121.5298605, "elevation": 607.8, "source": "osm", "_tags": {"ele": "607.8", "name": "Booth Hill", "natural": "peak"}}, {"name": "", "latitude": 45.5667379, "longitude": -121.5149474, "elevation": 868.7, "source": "osm", "_tags": {"ele": "868.7", "natural": "peak"}}, {"name": "", "latitude": 45.655853, "longitude": -121.4714742, "elevation": 613.9, "source": "osm", "_tags": {"ele": "613.9", "natural": "peak"}}, {"name": "Hood River Mountain", "latitude": 45.6662983, "longitude": -121.4720321, "elevation": 624.2, "source": "osm", "_tags": {"ele": "624.2", "name": "Hood River Mountain", "natural": "peak"}}, {"name": "Mill Creek Ridge", "latitude": 45.5080857, "longitude": -121.4240983, "elevation": 1040.6, "source": "osm", "_tags": {"ele": "1040.6", "name": "Mill Creek Ridge", "natural": "peak"}}, {"name": "Saint Peter's Dome", "latitude": 45.592919, "longitude": -122.0409179, "elevation": null, "source": "osm", "_tags": {"name": "Saint Peter's Dome", "natural": "peak"}}, {"name": "Rock of Ages", "latitude": 45.5910984, "longitude": -122.0448554, "elevation": null, "source": "osm", "_tags": {"name": "Rock of Ages", "natural": "peak"}}, {"name": "", "latitude": 45.2885389, "longitude": -121.7830288, "elevation": 1532.2, "source": "osm", "_tags": {"ele": "1532.2", "natural": "peak"}}, {"name": "Wauna Point", "latitude": 45.6326085, "longitude": -121.9287586, "elevation": null, "source": "osm", "_tags": {"name": "Wauna Point", "natural": "peak"}}, {"name": "", "latitude": 45.6591675, "longitude": -121.7850995, "elevation": 1237.5, "source": "osm", "_tags": {"ele": "1237.5", "natural": "peak"}}, {"name": "", "latitude": 45.6768147, "longitude": -121.8026412, "elevation": 960.7, "source": "osm", "_tags": {"ele": "960.7", "natural": "peak"}}, {"name": "", "latitude": 45.6009777, "longitude": -121.7796922, "elevation": 1349.0, "source": "osm", "_tags": {"ele": "1349", "natural": "peak"}}, {"name": "", "latitude": 45.5878624, "longitude": -121.788007, "elevation": 1368.6, "source": "osm", "_tags": {"ele": "1368.6", "natural": "peak"}}, {"name": "", "latitude": 45.5718602, "longitude": -121.802094, "elevation": 1406.7, "source": "osm", "_tags": {"ele": "1406.7", "natural": "peak"}}, {"name": "", "latitude": 45.5601729, "longitude": -121.8027163, "elevation": 1397.5, "source": "osm", "_tags": {"ele": "1397.5", "natural": "peak"}}, {"name": "", "latitude": 45.5595118, "longitude": -121.8189383, "elevation": 1357.9, "source": "osm", "_tags": {"ele": "1357.9", "natural": "peak"}}, {"name": "", "latitude": 45.5366182, "longitude": -121.8453097, "elevation": 1318.0, "source": "osm", "_tags": {"ele": "1318", "natural": "peak"}}, {"name": "", "latitude": 45.7201733, "longitude": -121.7050409, "elevation": 859.0, "source": "osm", "_tags": {"ele": "859", "natural": "peak"}}, {"name": "", "latitude": 45.7461423, "longitude": -122.2387402, "elevation": 1328.4, "source": "osm", "_tags": {"ele": "1328.4", "natural": "peak"}}, {"name": "", "latitude": 45.938124, "longitude": -122.2311831, "elevation": 731.8, "source": "osm", "_tags": {"ele": "731.8", "natural": "peak"}}, {"name": "", "latitude": 45.9322442, "longitude": -122.1831179, "elevation": 863.5, "source": "osm", "_tags": {"ele": "863.5", "natural": "peak"}}, {"name": "", "latitude": 45.9726138, "longitude": -122.173698, "elevation": 1222.0, "source": "osm", "_tags": {"ele": "1222", "natural": "peak"}}, {"name": "", "latitude": 45.9790634, "longitude": -122.1113635, "elevation": 908.0, "source": "osm", "_tags": {"ele": "908", "natural": "peak"}}, {"name": "", "latitude": 45.967215, "longitude": -122.0711947, "elevation": 1192.4, "source": "osm", "_tags": {"ele": "1192.4", "natural": "peak"}}, {"name": "", "latitude": 45.9631134, "longitude": -122.0627833, "elevation": 1187.5, "source": "osm", "_tags": {"ele": "1187.5", "natural": "peak"}}, {"name": "", "latitude": 45.9784595, "longitude": -122.1805644, "elevation": 1186.6, "source": "osm", "_tags": {"ele": "1186.6", "natural": "peak"}}, {"name": "", "latitude": 45.9735385, "longitude": -122.2086525, "elevation": 890.3, "source": "osm", "_tags": {"ele": "890.3", "natural": "peak"}}, {"name": "", "latitude": 45.9490759, "longitude": -122.1228433, "elevation": 1039.0, "source": "osm", "_tags": {"ele": "1039", "natural": "peak"}}, {"name": "", "latitude": 45.9833521, "longitude": -122.1523771, "elevation": 1185.4, "source": "osm", "_tags": {"ele": "1185.4", "natural": "peak"}}, {"name": "", "latitude": 45.7537327, "longitude": -122.2408229, "elevation": 1286.9, "source": "osm", "_tags": {"ele": "1286.9", "natural": "peak"}}, {"name": "", "latitude": 45.7306908, "longitude": -122.2548656, "elevation": 1070.0, "source": "osm", "_tags": {"ele": "1070", "natural": "peak"}}, {"name": "", "latitude": 45.9060166, "longitude": -122.070272, "elevation": 1293.0, "source": "osm", "_tags": {"ele": "1293", "natural": "peak", "source": "USGS"}}, {"name": "", "latitude": 45.9107047, "longitude": -122.075336, "elevation": 1315.0, "source": "osm", "_tags": {"ele": "1315", "natural": "peak", "source": "USGS"}}, {"name": "", "latitude": 45.8859755, "longitude": -122.0865155, "elevation": 1270.0, "source": "osm", "_tags": {"ele": "1270", "natural": "peak"}}, {"name": "", "latitude": 45.892129, "longitude": -122.1014929, "elevation": 1102.0, "source": "osm", "_tags": {"ele": "1102", "natural": "peak"}}, {"name": "", "latitude": 45.8929952, "longitude": -122.1112776, "elevation": 1044.0, "source": "osm", "_tags": {"ele": "1044", "natural": "peak"}}, {"name": "Twin Rocks", "latitude": 45.8728149, "longitude": -122.0919442, "elevation": 1295.0, "source": "osm", "_tags": {"ele": "1295", "name": "Twin Rocks", "natural": "peak", "source": "USGS"}}, {"name": "", "latitude": 45.915706, "longitude": -122.0888972, "elevation": 1211.6, "source": "osm", "_tags": {"ele": "1211.6", "natural": "peak"}}, {"name": "", "latitude": 45.9096148, "longitude": -122.1054626, "elevation": 1204.3, "source": "osm", "_tags": {"ele": "1204.3", "natural": "peak"}}, {"name": "", "latitude": 45.9209978, "longitude": -122.1417368, "elevation": 1174.4, "source": "osm", "_tags": {"ele": "1174.4", "natural": "peak"}}, {"name": "", "latitude": 45.9497622, "longitude": -122.2054339, "elevation": 577.6, "source": "osm", "_tags": {"ele": "577.6", "natural": "peak"}}, {"name": "Laurel Hill", "latitude": 45.3107901, "longitude": -121.8086332, "elevation": null, "source": "osm", "_tags": {"name": "Laurel Hill", "natural": "peak"}}, {"name": "Frog Lake Buttes", "latitude": 45.2228586, "longitude": -121.6625548, "elevation": 1623.0, "source": "osm", "_tags": {"ele": "1623", "name": "Frog Lake Buttes", "natural": "peak"}}, {"name": "", "latitude": 45.2595882, "longitude": -121.650002, "elevation": 1541.0, "source": "osm", "_tags": {"ele": "1541", "natural": "peak"}}, {"name": "Phlox Point", "latitude": 45.6695877, "longitude": -122.0302266, "elevation": 897.6, "source": "osm", "_tags": {"ele": "897.6", "name": "Phlox Point", "natural": "peak"}}, {"name": "Whistling Ridge", "latitude": 45.7939058, "longitude": -121.6029668, "elevation": 848.9, "source": "osm", "_tags": {"ele": "848.9", "name": "Whistling Ridge", "natural": "peak"}}, {"name": "", "latitude": 45.8278424, "longitude": -121.6214419, "elevation": 1076.0, "source": "osm", "_tags": {"ele": "1076", "natural": "peak"}}, {"name": "Felt Tip", "latitude": 45.3156717, "longitude": -121.419096, "elevation": 1410.6, "source": "osm", "_tags": {"ele": "1410.6", "name": "Felt Tip", "natural": "peak"}}, {"name": "Devil's Tooth", "latitude": 45.2592219, "longitude": -121.8646538, "elevation": null, "source": "osm", "_tags": {"name": "Devil's Tooth", "natural": "peak"}}, {"name": "Indian Ridge", "latitude": 45.1710175, "longitude": -121.9853962, "elevation": 1530.1, "source": "osm", "_tags": {"ele": "1530.1", "name": "Indian Ridge", "natural": "peak"}}, {"name": "", "latitude": 45.1776959, "longitude": -121.935904, "elevation": 1571.9, "source": "osm", "_tags": {"ele": "1571.9", "natural": "peak"}}, {"name": "Signal Buttes", "latitude": 45.1699662, "longitude": -121.932106, "elevation": 1579.2, "source": "osm", "_tags": {"ele": "1579.2", "name": "Signal Buttes", "natural": "peak"}}, {"name": "", "latitude": 45.4978196, "longitude": -121.4490563, "elevation": 1027.2, "source": "osm", "_tags": {"ele": "1027.2", "natural": "peak"}}, {"name": "", "latitude": 45.4513641, "longitude": -122.3948756, "elevation": 304.0, "source": "osm", "_tags": {"ele": "304", "natural": "peak"}}, {"name": "Zion Hill", "latitude": 45.4357569, "longitude": -122.3966995, "elevation": 305.0, "source": "osm", "_tags": {"ele": "305", "name": "Zion Hill", "natural": "peak"}}, {"name": "Salmon Mountain", "latitude": 45.2652322, "longitude": -121.9712234, "elevation": null, "source": "osm", "_tags": {"name": "Salmon Mountain", "natural": "peak"}}, {"name": "Picnic Rock", "latitude": 45.3314057, "longitude": -121.6444677, "elevation": 1652.0, "source": "osm", "_tags": {"ele": "1652", "name": "Picnic Rock", "natural": "peak", "note": "\"Point 5495\" on the USGS topo maps is misplaced and 70 feet too high; ignore it."}}, {"name": "Bus Point", "latitude": 45.2110813, "longitude": -121.4726196, "elevation": null, "source": "osm", "_tags": {"gnis:feature_id": "1158150", "name": "Bus Point", "natural": "peak"}}, {"name": "Cape Horn", "latitude": 45.382458, "longitude": -121.8474633, "elevation": null, "source": "osm", "_tags": {"gnis:feature_id": "1139347", "name": "Cape Horn", "natural": "peak"}}, {"name": "Newton Pinnacle", "latitude": 45.3306966, "longitude": -121.643099, "elevation": 1629.5, "source": "osm", "_tags": {"ele": "1629.5", "name": "Newton Pinnacle", "natural": "peak"}}, {"name": "Cougar Rock", "latitude": 45.5771867, "longitude": -122.0941605, "elevation": null, "source": "osm", "_tags": {"name": "Cougar Rock", "natural": "peak"}}, {"name": "Cedar Mountain", "latitude": 45.6667884, "longitude": -121.987047, "elevation": 530.5, "source": "osm", "_tags": {"ele": "530.5", "name": "Cedar Mountain", "natural": "peak"}}, {"name": "Viento West Bluff", "latitude": 45.6949368, "longitude": -121.6695251, "elevation": null, "source": "osm", "_tags": {"name": "Viento West Bluff", "natural": "peak"}}, {"name": "", "latitude": 45.7588678, "longitude": -122.2441522, "elevation": 1226.6, "source": "osm", "_tags": {"ele": "1226.6", "natural": "peak"}}, {"name": "", "latitude": 45.7611648, "longitude": -122.2448764, "elevation": 1207.0, "source": "osm", "_tags": {"ele": "1207", "natural": "peak"}}]