[{"name": "Badger Mountain", "latitude": 46.2336571, "longitude": -119.3191835, "elevation": 481.3, "source": "osm", "_tags": {"ele": "481.3", "name": "Badger Mountain", "natural": "peak"}}, {"name": "Candy Mountain", "latitude": 46.2590235, "longitude": -119.3664092, "elevation": 424.0, "source": "osm", "_tags": {"ele": "424", "gnis:feature_id": "1503769", "name": "Candy Mountain", "natural": "peak", "wikidata": "Q24193085", "wikipedia": "en:Candy Mountain (Washington)"}}, {"name": "Jackass Mountain", "latitude": 46.428748, "longitude": -119.0763982, "elevation": 279.0, "source": "osm", "_tags": {"ele": "279", "gnis:feature_id": "1505774", "name": "Jackass Mountain", "natural": "peak"}}, {"name": "Johnson Butte", "latitude": 46.0973559, "longitude": -119.1916799, "elevation": 620.0, "source": "osm", "_tags": {"ele": "620", "gnis:feature_id": "1505836", "name": "Johnson Butte", "natural": "peak"}}, {"name": "The Butte", "latitude": 46.1151341, "longitude": -119.0261175, "elevation": 348.0, "source": "osm", "_tags": {"ele": "348", "gnis:feature_id": "1508963", "name": "The Butte", "natural": "peak"}}, {"name": "Monumental Rock", "latitude": 46.5923638, "longitude": -118.467204, "elevation": 216.0, "source": "osm", "_tags": {"ele": "216", "gnis:feature_id": "1510537", "name": "Monumental Rock", "natural": "peak"}}, {"name": "Clover Hill", "latitude": 46.0450929, "longitude": -118.9069479, "elevation": 308.2, "source": "osm", "_tags": {"ele": "308.2", "gnis:feature_id": "1512100", "name": "Clover Hill", "natural": "peak"}}, {"name": "Jackass Mountain", "latitude": 46.9123639, "longitude": -119.1561245, "elevation": 356.0, "source": "osm", "_tags": {"ele": "356", "gnis:feature_id": "1512328", "name": "Jackass Mountain", "natural": "peak"}}, {"name": "Jump Off Joe", "latitude": 46.1034672, "longitude": -119.1300107, "elevation": 670.0, "source": "osm", "_tags": {"ele": "670", "gnis:feature_id": "1513139", "name": "Jump Off Joe", "natural": "peak"}}, {"name": "Flat Top Hill", "latitude": 46.2995793, "longitude": -119.3561312, "elevation": 231.0, "source": "osm", "_tags": {"ele": "231", "gnis:feature_id": "1513366", "name": "Flat Top Hill", "natural": "peak"}}, {"name": "Rice Hill", "latitude": 46.3631933, "longitude": -118.6099873, "elevation": 412.0, "source": "osm", "_tags": {"ele": "412", "gnis:feature_id": "1513394", "name": "Rice Hill", "natural": "peak"}}, {"name": "Twin Sisters", "latitude": 46.0439873, "longitude": -118.9390185, "elevation": 185.0, "source": "osm", "_tags": {"ele": "185", "name": "Twin Sisters", "natural": "peak"}}, {"name": "Thompson Hill", "latitude": 46.1871478, "longitude": -119.207227, "elevation": null, "source": "osm", "_tags": {"name": "Thompson Hill", "natural": "peak"}}, {"name": "Perry Monument", "latitude": 46.1616116, "longitude": -119.1531998, "elevation": 363.0, "source": "osm", "_tags": {"NHD:Elevation": "340", "ele": "363", "name": "Perry Monument", "natural": "peak"}}, {"name": "Little Badger Mountain", "latitude": 46.2190646, "longitude": -119.2866515, "elevation": 367.0, "source": "osm", "_tags": {"ele": "367", "name": "Little Badger Mountain", "natural": "peak"}}, {"name": "Dallas Hill", "latitude": 46.196092, "longitude": -119.3354033, "elevation": 396.0, "source": "osm", "_tags": {"alt_name": "Eagle Butte", "ele": "396", "name": "Dallas Hill", "natural": "peak"}}, {"name": "", "latitude": 46.2416588, "longitude": -119.2781855, "elevation": 227.0, "source": "osm", "_tags": {"ele": "227", "natural": "peak"}}, {"name": "Coyote Ridge", "latitude": 46.6922035, "longitude": -118.8401819, "elevation": 351.0, "source": "osm", "_tags": {"ele": "351", "name": "Coyote Ridge", "natural": "peak"}}, {"name": "", "latitude": 46.659272, "longitude": -118.5064647, "elevation": 390.0, "source": "osm", "_tags": {"ele": "390", "natural": "peak"}}, {"name": "Sand Hill", "latitude": 46.3217839, "longitude": -119.3843946, "elevation": 220.0, "source": "osm", "_tags": {"ele": "220", "name": "Sand Hill", "natural": "peak"}}, {"name": "Rome", "latitude": 46.1832283, "longitude": -119.3918991, "elevation": 479.0, "source": "osm", "_tags": {"ele": "479", "name": "Rome", "natural": "peak"}}, {"name": "Mobly", "latitude": 46.8738667, "longitude": -118.8430873, "elevation": 496.0, "source": "osm", "_tags": {"ele": "496", "name": "Mobly", "natural": "peak"}}, {"name": "Mobley", "latitude": 46.8734434, "longitude": -118.8455474, "elevation": 494.0, "source": "osm", "_tags": {"ele": "494", "name": "Mobley", "natural": "peak"}}, {"name": "", "latitude": 46.0353625, "longitude": -118.9300221, "elevation": 357.5, "source": "osm", "_tags": {"ele": "357.5", "natural": "peak"}}, {"name": "Twin Sisters", "latitude": 46.0438043, "longitude": -118.9389659, "elevation": 185.0, "source": "osm", "_tags": {"ele": "185", "name": "Twin Sisters", "natural": "peak"}}]