[{"name": "Belt Butte", "latitude": 47.3810769, "longitude": -110.8843984, "elevation": 1415.0, "source": "osm", "_tags": {"ele": "1415", "gnis:feature_id": "768693", "name": "Belt Butte", "natural": "peak"}}, {"name": "Black Butte", "latitude": 47.1293987, "longitude": -111.2202328, "elevation": 1934.0, "source": "osm", "_tags": {"ele": "1934", "gnis:feature_id": "768918", "name": "Black Butte", "natural": "peak"}}, {"name": "Blankenbaker Hill", "latitude": 47.2644047, "longitude": -111.0732895, "elevation": 1322.0, "source": "osm", "_tags": {"ele": "1322", "gnis:feature_id": "769023", "name": "Blankenbaker Hill", "natural": "peak"}}, {"name": "Chinaman Hill", "latitude": 47.8646911, "longitude": -110.7393841, "elevation": 942.0, "source": "osm", "_tags": {"ele": "942", "gnis:feature_id": "769846", "name": "Chinaman Hill", "natural": "peak"}}, {"name": "Dunbar Hill", "latitude": 47.5752457, "longitude": -110.8035582, "elevation": 1060.0, "source": "osm", "_tags": {"ele": "1060", "gnis:feature_id": "770894", "name": "Dunbar Hill", "natural": "peak"}}, {"name": "East Knee", "latitude": 48.0094103, "longitude": -111.2774757, "elevation": 1127.0, "source": "osm", "_tags": {"ele": "1127", "gnis:feature_id": "771093", "name": "East Knee", "natural": "peak"}}, {"name": "Forest Hill", "latitude": 47.2821822, "longitude": -111.0971799, "elevation": 1287.0, "source": "osm", "_tags": {"ele": "1287", "gnis:feature_id": "771491", "name": "Forest Hill", "natural": "peak"}}, {"name": "Harris Mountain", "latitude": 47.5299679, "longitude": -110.7343872, "elevation": 1544.0, "source": "osm", "_tags": {"ele": "1544", "gnis:feature_id": "772174", "name": "Harris Mountain", "natural": "peak"}}, {"name": "Iverson Hill", "latitude": 47.3410666, "longitude": -111.3266324, "elevation": 1223.0, "source": "osm", "_tags": {"ele": "1223", "gnis:feature_id": "772746", "name": "Iverson Hill", "natural": "peak"}}, {"name": "Mahoney Hill", "latitude": 47.279683, "longitude": -111.0707905, "elevation": 1308.0, "source": "osm", "_tags": {"ele": "1308", "gnis:feature_id": "773818", "name": "Mahoney Hill", "natural": "peak"}}, {"name": "Powderhouse Hill", "latitude": 47.3457923, "longitude": -111.1671854, "elevation": 1169.0, "source": "osm", "_tags": {"ele": "1169", "gnis:feature_id": "775414", "name": "Powderhouse Hill", "natural": "peak"}}, {"name": "Rattlesnake Hill", "latitude": 47.5049687, "longitude": -110.933297, "elevation": 1124.0, "source": "osm", "_tags": {"ele": "1124", "gnis:feature_id": "775592", "name": "Rattlesnake Hill", "natural": "peak"}}, {"name": "Red Butte", "latitude": 47.3605128, "longitude": -111.2249651, "elevation": 1271.0, "source": "osm", "_tags": {"ele": "1271", "gnis:feature_id": "775620", "name": "Red Butte", "natural": "peak"}}, {"name": "Shepherd Butte", "latitude": 47.582468, "longitude": -110.9405145, "elevation": 1113.0, "source": "osm", "_tags": {"ele": "1113", "gnis:feature_id": "776472", "name": "Shepherd Butte", "natural": "peak"}}, {"name": "West Knee", "latitude": 48.0113548, "longitude": -111.3460903, "elevation": 1179.0, "source": "osm", "_tags": {"ele": "1179", "gnis:feature_id": "778296", "name": "West Knee", "natural": "peak"}}, {"name": "Big Horn Mountain", "latitude": 47.0546829, "longitude": -110.8977226, "elevation": 2338.0, "source": "osm", "_tags": {"ele": "2338", "gnis:feature_id": "779828", "name": "Big Horn Mountain", "natural": "peak"}}, {"name": "Crown Butte", "latitude": 47.1371827, "longitude": -110.991895, "elevation": 2035.0, "source": "osm", "_tags": {"ele": "2035", "gnis:feature_id": "781938", "name": "Crown Butte", "natural": "peak"}}, {"name": "Deer Butte", "latitude": 47.1043992, "longitude": -111.1899541, "elevation": 1922.0, "source": "osm", "_tags": {"ele": "1922", "gnis:feature_id": "782224", "name": "Deer Butte", "natural": "peak"}}, {"name": "Millegan Hill", "latitude": 47.0471721, "longitude": -111.3702384, "elevation": 1511.0, "source": "osm", "_tags": {"ele": "1511", "gnis:feature_id": "787397", "name": "Millegan Hill", "natural": "peak"}}, {"name": "Monarch Mountain", "latitude": 47.0610727, "longitude": -110.8321649, "elevation": 1844.0, "source": "osm", "_tags": {"ele": "1844", "gnis:feature_id": "787552", "name": "Monarch Mountain", "natural": "peak"}}, {"name": "Rattlesnake Butte", "latitude": 47.188018, "longitude": -110.8638353, "elevation": 1760.0, "source": "osm", "_tags": {"ele": "1760", "gnis:feature_id": "789400", "name": "Rattlesnake Butte", "natural": "peak"}}, {"name": "Servoss Mountain", "latitude": 47.0499627, "longitude": -110.7343838, "elevation": 2198.0, "source": "osm", "_tags": {"ele": "2198", "gnis:feature_id": "790239", "name": "Servoss Mountain", "natural": "peak"}}, {"name": "Sun Mountain", "latitude": 47.0563511, "longitude": -110.7766072, "elevation": 1991.0, "source": "osm", "_tags": {"ele": "1991", "gnis:feature_id": "791677", "name": "Sun Mountain", "natural": "peak"}}, {"name": "Thunder Mountain", "latitude": 47.0274603, "longitude": -110.9077223, "elevation": 2476.0, "source": "osm", "_tags": {"ele": "2476", "gnis:feature_id": "792146", "name": "Thunder Mountain", "natural": "peak"}}, {"name": "Tiger Butte", "latitude": 47.1593903, "longitude": -111.0116047, "elevation": 2131.0, "source": "osm", "_tags": {"ele": "2131", "gnis:feature_id": "792168", "name": "Tiger Butte", "natural": "peak"}}, {"name": "Gobbler Knob", "latitude": 47.4105171, "longitude": -111.1283006, "elevation": 1147.0, "source": "osm", "_tags": {"ele": "1147", "gnis:feature_id": "802109", "name": "Gobbler Knob", "natural": "peak"}}, {"name": "Hill Fifty-seven", "latitude": 47.5246802, "longitude": -111.3355291, "elevation": 1094.0, "source": "osm", "_tags": {"ele": "1094", "gnis:feature_id": "802117", "name": "Hill Fifty-seven", "natural": "peak"}}, {"name": "Indian Butte", "latitude": 47.5266247, "longitude": -111.262752, "elevation": 1088.0, "source": "osm", "_tags": {"ele": "1088", "gnis:feature_id": "802125", "name": "Indian Butte", "natural": "peak"}}, {"name": "Smelter Hill", "latitude": 47.521069, "longitude": -111.2691411, "elevation": 1040.0, "source": "osm", "_tags": {"ele": "1040", "gnis:feature_id": "802195", "name": "Smelter Hill", "natural": "peak"}}, {"name": "Wilson Butte", "latitude": 47.3994004, "longitude": -111.3819139, "elevation": 1174.0, "source": "osm", "_tags": {"ele": "1174", "gnis:feature_id": "802240", "name": "Wilson Butte", "natural": "peak"}}, {"name": "Hay Stack Coulee", "latitude": 48.0002442, "longitude": -111.1688568, "elevation": 1081.0, "source": "osm", "_tags": {"ele": "1081", "gnis:feature_id": "806778", "name": "Hay Stack Coulee", "natural": "peak"}}, {"name": "Creamery Hill", "latitude": 47.2455136, "longitude": -111.1469003, "elevation": 1341.0, "source": "osm", "_tags": {"ele": "1341", "gnis:feature_id": "806944", "name": "Creamery Hill", "natural": "peak"}}]