[{"name": "Basin Mountain", "latitude": 48.551081, "longitude": -113.3634331, "elevation": 2111.0, "source": "osm", "_tags": {"ele": "2111", "gnis:feature_id": "768546", "name": "Basin Mountain", "natural": "peak", "wikidata": "Q49010987"}}, {"name": "Bear Peak", "latitude": 48.1160664, "longitude": -113.0706263, "elevation": 2107.0, "source": "osm", "_tags": {"ele": "2107", "gnis:feature_id": "768605", "name": "Bear Peak", "natural": "peak", "wikidata": "Q49011494"}}, {"name": "Cap Mountain", "latitude": 48.1116219, "longitude": -113.0484025, "elevation": 2274.0, "source": "osm", "_tags": {"ele": "2274", "gnis:feature_id": "769581", "name": "Cap Mountain", "natural": "peak", "wikidata": "Q49017975"}}, {"name": "Divide Mountain", "latitude": 48.6652519, "longitude": -113.4009346, "elevation": 2641.0, "source": "osm", "_tags": {"ele": "2641", "gnis:feature_id": "770671", "name": "Divide Mountain", "natural": "peak", "wikidata": "Q5284003", "wikipedia": "en:Divide Mountain"}}, {"name": "Eagle Point", "latitude": 48.8963757, "longitude": -112.7478558, "elevation": 1320.0, "source": "osm", "_tags": {"ele": "1320", "gnis:feature_id": "770965", "name": "Eagle Point", "natural": "peak"}}, {"name": "Flag Butte", "latitude": 48.4355337, "longitude": -112.4992202, "elevation": 1277.0, "source": "osm", "_tags": {"ele": "1277", "gnis:feature_id": "771423", "name": "Flag Butte", "natural": "peak"}}, {"name": "Hoodoo Hill", "latitude": 48.781924, "longitude": -113.0237014, "elevation": 1494.0, "source": "osm", "_tags": {"ele": "1494", "gnis:feature_id": "772512", "name": "Hoodoo Hill", "natural": "peak"}}, {"name": "Houseman Hill", "latitude": 48.7063655, "longitude": -113.099537, "elevation": 1558.0, "source": "osm", "_tags": {"ele": "1558", "gnis:feature_id": "772584", "name": "Houseman Hill", "natural": "peak"}}, {"name": "Landslide Butte", "latitude": 48.9108214, "longitude": -112.6420173, "elevation": 1420.0, "source": "osm", "_tags": {"ele": "1420", "gnis:feature_id": "773210", "name": "Landslide Butte", "natural": "peak"}}, {"name": "Looking Glass Hill", "latitude": 48.5274696, "longitude": -113.305098, "elevation": 1854.0, "source": "osm", "_tags": {"ele": "1854", "gnis:feature_id": "773666", "name": "Looking Glass Hill", "natural": "peak"}}, {"name": "Love Rock", "latitude": 48.9060999, "longitude": -112.5481236, "elevation": 1304.0, "source": "osm", "_tags": {"ele": "1304", "gnis:feature_id": "773718", "name": "Love Rock", "natural": "peak"}}, {"name": "Mad Wolf Mountain", "latitude": 48.5677483, "longitude": -113.3687112, "elevation": 2538.0, "source": "osm", "_tags": {"ele": "2538", "gnis:feature_id": "773794", "name": "Mad Wolf Mountain", "natural": "peak", "wikidata": "Q6726076", "wikipedia": "en:Mad Wolf Mountain"}}, {"name": "Never Laughs Mountain", "latitude": 48.4455221, "longitude": -113.3817655, "elevation": 2320.0, "source": "osm", "_tags": {"ele": "2320", "gnis:feature_id": "774594", "name": "Never Laughs Mountain", "natural": "peak", "wikidata": "Q38251591", "wikipedia": "en:Never Laughs Mountain"}}, {"name": "Red Blanket Butte", "latitude": 48.5921941, "longitude": -113.2553755, "elevation": 1723.0, "source": "osm", "_tags": {"ele": "1723", "gnis:feature_id": "775615", "name": "Red Blanket Butte", "natural": "peak"}}, {"name": "Red Buttes", "latitude": 48.82526, "longitude": -112.918419, "elevation": 1452.0, "source": "osm", "_tags": {"ele": "1452", "gnis:feature_id": "775626", "name": "Red Buttes", "natural": "peak"}}, {"name": "Rimrock Butte", "latitude": 48.7099804, "longitude": -112.7747994, "elevation": 1317.0, "source": "osm", "_tags": {"ele": "1317", "gnis:feature_id": "775772", "name": "Rimrock Butte", "natural": "peak"}}, {"name": "Rocky Buttes", "latitude": 48.8347088, "longitude": -112.5397891, "elevation": 1276.0, "source": "osm", "_tags": {"ele": "1276", "gnis:feature_id": "775881", "name": "Rocky Buttes", "natural": "peak"}}, {"name": "Scoffin Butte", "latitude": 48.1452406, "longitude": -112.6961628, "elevation": 1558.0, "source": "osm", "_tags": {"ele": "1558", "gnis:feature_id": "776299", "name": "Scoffin Butte", "natural": "peak"}}, {"name": "Slideout Peak", "latitude": 48.0168945, "longitude": -113.0592325, "elevation": 2166.0, "source": "osm", "_tags": {"ele": "2166", "gnis:feature_id": "776643", "name": "Slideout Peak", "natural": "peak", "wikidata": "Q49074621"}}, {"name": "Spot Mountain", "latitude": 48.5338583, "longitude": -113.3553772, "elevation": 2386.0, "source": "osm", "_tags": {"ele": "2386", "gnis:feature_id": "776941", "name": "Spot Mountain", "natural": "peak", "wikidata": "Q49076598"}}, {"name": "Spring Hill", "latitude": 48.0310675, "longitude": -112.4167015, "elevation": 1400.0, "source": "osm", "_tags": {"ele": "1400", "gnis:feature_id": "777084", "name": "Spring Hill", "natural": "peak"}}, {"name": "Square Butte", "latitude": 48.7452585, "longitude": -112.8214696, "elevation": 1392.0, "source": "osm", "_tags": {"ele": "1392", "gnis:feature_id": "777108", "name": "Square Butte", "natural": "peak"}}, {"name": "Duckhead Buttes", "latitude": 48.5341667, "longitude": -112.5080556, "elevation": 1270.0, "source": "osm", "_tags": {"ele": "1270", "gnis:feature_id": "777118", "name": "Duckhead Buttes", "natural": "peak"}}, {"name": "Twin Buttes", "latitude": 48.916095, "longitude": -113.0373133, "elevation": 1495.0, "source": "osm", "_tags": {"ele": "1495", "gnis:feature_id": "777844", "name": "Twin Buttes", "natural": "peak"}}, {"name": "Winter Points", "latitude": 48.0591191, "longitude": -113.0536785, "elevation": 2182.0, "source": "osm", "_tags": {"ele": "2182", "gnis:feature_id": "778609", "name": "Winter Points", "natural": "peak", "wikidata": "Q49090611"}}, {"name": "Appistoki Peak", "latitude": 48.4677451, "longitude": -113.354265, "elevation": 2482.0, "source": "osm", "_tags": {"ele": "2482", "gnis:feature_id": "779104", "name": "Appistoki Peak", "natural": "peak", "wikidata": "Q4781091", "wikipedia": "en:Appistoki Peak"}}, {"name": "Arrowhead Mountain", "latitude": 48.1074545, "longitude": -113.1836887, "elevation": 2072.0, "source": "osm", "_tags": {"ele": "2072", "gnis:feature_id": "779151", "name": "Arrowhead Mountain", "natural": "peak", "wikidata": "Q49009093"}}, {"name": "Bald Hill", "latitude": 48.4608012, "longitude": -113.2703731, "elevation": 1703.0, "source": "osm", "_tags": {"ele": "1703", "gnis:feature_id": "779281", "name": "Bald Hill", "natural": "peak"}}, {"name": "Baldhead Mountain", "latitude": 48.2310717, "longitude": -113.3728711, "elevation": 2374.0, "source": "osm", "_tags": {"ele": "2374", "gnis:feature_id": "779293", "name": "Baldhead Mountain", "natural": "peak"}}, {"name": "Mount Baldy", "latitude": 48.3185755, "longitude": -113.1539732, "elevation": 2344.0, "source": "osm", "_tags": {"ele": "2344", "gnis:feature_id": "779308", "name": "Mount Baldy", "natural": "peak"}}, {"name": "Bearhead Mountain", "latitude": 48.4241329, "longitude": -113.3559308, "elevation": 2563.0, "source": "osm", "_tags": {"ele": "2563", "gnis:feature_id": "779570", "name": "Bearhead Mountain", "natural": "peak", "wikidata": "Q4876733", "wikipedia": "en:Bearhead Mountain (Montana)"}}, {"name": "Bennie Hill", "latitude": 48.0788454, "longitude": -112.8292225, "elevation": 2333.0, "source": "osm", "_tags": {"ele": "2333", "gnis:feature_id": "779700", "name": "Bennie Hill", "natural": "peak", "wikidata": "Q49012097"}}, {"name": "Big Lodge Mountain", "latitude": 48.1644019, "longitude": -113.2084151, "elevation": 2317.0, "source": "osm", "_tags": {"ele": "2317", "gnis:feature_id": "779839", "name": "Big Lodge Mountain", "natural": "peak"}}, {"name": "Bighorn Mountain", "latitude": 48.031063, "longitude": -112.9464491, "elevation": 2471.0, "source": "osm", "_tags": {"ele": "2471", "gnis:feature_id": "779902", "name": "Bighorn Mountain", "natural": "peak", "wikidata": "Q49012842"}}, {"name": "Bison Mountain", "latitude": 48.4652455, "longitude": -113.3106524, "elevation": 2385.0, "source": "osm", "_tags": {"ele": "2385", "gnis:feature_id": "779951", "name": "Bison Mountain", "natural": "peak", "wikidata": "Q49013079"}}, {"name": "Bloody Hill", "latitude": 48.0396757, "longitude": -112.8686676, "elevation": 2440.0, "source": "osm", "_tags": {"ele": "2440", "gnis:feature_id": "780128", "name": "Bloody Hill", "natural": "peak", "wikidata": "Q49014273"}}, {"name": "Bruin Peaks", "latitude": 48.1988484, "longitude": -113.1514685, "elevation": 2348.0, "source": "osm", "_tags": {"ele": "2348", "gnis:feature_id": "780480", "name": "Bruin Peaks", "natural": "peak"}}, {"name": "Bullshoe Mountain", "latitude": 48.2252386, "longitude": -113.2256412, "elevation": 2441.0, "source": "osm", "_tags": {"ele": "2441", "gnis:feature_id": "780592", "name": "Bullshoe Mountain", "natural": "peak"}}, {"name": "Bum Shot Mountain", "latitude": 48.0746779, "longitude": -112.8614463, "elevation": 2290.0, "source": "osm", "_tags": {"ele": "2290", "gnis:feature_id": "780593", "name": "Bum Shot Mountain", "natural": "peak", "wikidata": "Q49016694"}}, {"name": "Calf Robe Mountain", "latitude": 48.3874654, "longitude": -113.3325957, "elevation": 2401.0, "source": "osm", "_tags": {"ele": "2401", "gnis:feature_id": "780781", "name": "Calf Robe Mountain", "natural": "peak", "wikidata": "Q49017627"}}, {"name": "Capitol Mountain", "latitude": 48.0463398, "longitude": -113.3159154, "elevation": 2393.0, "source": "osm", "_tags": {"ele": "2393", "gnis:feature_id": "780926", "name": "Capitol Mountain", "natural": "peak"}}, {"name": "Chair Mountain", "latitude": 48.0488401, "longitude": -113.1995203, "elevation": 2155.0, "source": "osm", "_tags": {"ele": "2155", "gnis:feature_id": "781142", "name": "Chair Mountain", "natural": "peak"}}, {"name": "Chalk Butte", "latitude": 48.8516529, "longitude": -112.6392389, "elevation": 1316.0, "source": "osm", "_tags": {"ele": "1316", "gnis:feature_id": "781146", "name": "Chalk Butte", "natural": "peak"}}, {"name": "Crooked Mountain", "latitude": 48.1069013, "longitude": -112.9050609, "elevation": 2200.0, "source": "osm", "_tags": {"ele": "2200", "gnis:feature_id": "781914", "name": "Crooked Mountain", "natural": "peak", "wikidata": "Q49023032"}}, {"name": "Curly Bear Mountain", "latitude": 48.196904, "longitude": -113.0806303, "elevation": 2409.0, "source": "osm", "_tags": {"ele": "2409", "gnis:feature_id": "781994", "name": "Curly Bear Mountain", "natural": "peak"}}, {"name": "Elbow Mountain", "latitude": 48.1769028, "longitude": -113.1150762, "elevation": 2176.0, "source": "osm", "_tags": {"ele": "2176", "gnis:feature_id": "783029", "name": "Elbow Mountain", "natural": "peak"}}, {"name": "Elkcalf Mountain", "latitude": 48.284685, "longitude": -113.2978694, "elevation": 2307.0, "source": "osm", "_tags": {"ele": "2307", "gnis:feature_id": "783126", "name": "Elkcalf Mountain", "natural": "peak"}}, {"name": "Mount Ellsworth", "latitude": 48.4363553, "longitude": -113.3689871, "elevation": 2613.0, "source": "osm", "_tags": {"ele": "2613", "gnis:feature_id": "783163", "name": "Mount Ellsworth", "natural": "peak", "wikidata": "Q8532673"}}, {"name": "Family Peak", "latitude": 48.1485683, "longitude": -113.0236802, "elevation": 2467.0, "source": "osm", "_tags": {"ele": "2467", "gnis:feature_id": "783301", "name": "Family Peak", "natural": "peak"}}, {"name": "Feather Woman Mountain", "latitude": 48.2277402, "longitude": -112.9597908, "elevation": 2314.0, "source": "osm", "_tags": {"ele": "2314", "gnis:feature_id": "783336", "name": "Feather Woman Mountain", "natural": "peak"}}, {"name": "Mount Field", "latitude": 48.1180116, "longitude": -112.9833988, "elevation": 2600.0, "source": "osm", "_tags": {"ele": "2600", "gnis:feature_id": "783371", "name": "Mount Field", "natural": "peak", "wikidata": "Q49052703"}}, {"name": "Flattop Mountain", "latitude": 48.2952407, "longitude": -113.3300934, "elevation": 2016.0, "source": "osm", "_tags": {"ele": "2016", "gnis:feature_id": "783529", "name": "Flattop Mountain", "natural": "peak"}}, {"name": "Mount Frazier", "latitude": 48.0180094, "longitude": -112.7517162, "elevation": 2508.0, "source": "osm", "_tags": {"ele": "2508", "gnis:feature_id": "783701", "name": "Mount Frazier", "natural": "peak"}}, {"name": "Gable Peaks", "latitude": 48.0402286, "longitude": -113.1756296, "elevation": 2347.0, "source": "osm", "_tags": {"ele": "2347", "gnis:feature_id": "783795", "name": "Gable Peaks", "natural": "peak"}}, {"name": "Gateway Points", "latitude": 48.0296735, "longitude": -112.9864511, "elevation": 2091.0, "source": "osm", "_tags": {"ele": "2091", "gnis:feature_id": "783868", "name": "Gateway Points", "natural": "peak", "wikidata": "Q49031195"}}, {"name": "Goat Mountain", "latitude": 48.2188495, "longitude": -113.1417464, "elevation": 2494.0, "source": "osm", "_tags": {"ele": "2494", "gnis:feature_id": "784021", "name": "Goat Mountain", "natural": "peak"}}, {"name": "Half Dome Crag", "latitude": 48.2707964, "longitude": -113.0795222, "elevation": 2452.0, "source": "osm", "_tags": {"ele": "2452", "gnis:feature_id": "784462", "name": "Half Dome Crag", "natural": "peak"}}, {"name": "Heart Butte", "latitude": 48.2419086, "longitude": -112.921456, "elevation": 2079.0, "source": "osm", "_tags": {"ele": "2079", "gnis:feature_id": "784690", "name": "Heart Butte", "natural": "peak"}}, {"name": "Helmet Point", "latitude": 48.0877309, "longitude": -113.3028611, "elevation": 1710.0, "source": "osm", "_tags": {"ele": "1710", "gnis:feature_id": "784752", "name": "Helmet Point", "natural": "peak"}}, {"name": "Mount Henry", "latitude": 48.4533003, "longitude": -113.343431, "elevation": 2682.0, "source": "osm", "_tags": {"ele": "2682", "gnis:feature_id": "784786", "name": "Mount Henry", "natural": "peak", "wikidata": "Q8532688"}}, {"name": "Hurricane Mountain", "latitude": 48.1057909, "longitude": -112.8614475, "elevation": 2211.0, "source": "osm", "_tags": {"ele": "2211", "gnis:feature_id": "785179", "name": "Hurricane Mountain", "natural": "peak", "wikidata": "Q49038135"}}, {"name": "Kiyo Crag", "latitude": 48.2935749, "longitude": -113.108136, "elevation": 2360.0, "source": "osm", "_tags": {"ele": "2360", "gnis:feature_id": "785783", "name": "Kiyo Crag", "natural": "peak"}}, {"name": "Little Crown Butte", "latitude": 48.7702603, "longitude": -112.7392436, "elevation": 1390.0, "source": "osm", "_tags": {"ele": "1390", "gnis:feature_id": "786281", "name": "Little Crown Butte", "natural": "peak"}}, {"name": "Little Dog Mountain", "latitude": 48.3430195, "longitude": -113.3870413, "elevation": 2613.0, "source": "osm", "_tags": {"ele": "2613", "gnis:feature_id": "786285", "name": "Little Dog Mountain", "natural": "peak", "wikidata": "Q6649806", "wikipedia": "en:Little Dog Mountain"}}, {"name": "Little Plume Peak", "latitude": 48.275519, "longitude": -113.0097955, "elevation": 2129.0, "source": "osm", "_tags": {"ele": "2129", "gnis:feature_id": "786344", "name": "Little Plume Peak", "natural": "peak"}}, {"name": "Lodgepole Mountain", "latitude": 48.0963427, "longitude": -113.2086898, "elevation": 2191.0, "source": "osm", "_tags": {"ele": "2191", "gnis:feature_id": "786438", "name": "Lodgepole Mountain", "natural": "peak"}}, {"name": "Morningstar Mountain", "latitude": 48.1902372, "longitude": -113.0306268, "elevation": 2553.0, "source": "osm", "_tags": {"ele": "2553", "gnis:feature_id": "787695", "name": "Morningstar Mountain", "natural": "peak"}}, {"name": "Mount Drouillard", "latitude": 48.0849553, "longitude": -112.9247833, "elevation": 2473.0, "source": "osm", "_tags": {"ele": "2473", "gnis:feature_id": "787740", "name": "Mount Drouillard", "natural": "peak", "wikidata": "Q49052510"}}, {"name": "Mount Patrick Gass", "latitude": 48.0327308, "longitude": -112.8764455, "elevation": 2544.0, "source": "osm", "_tags": {"ele": "2544", "gnis:feature_id": "787748", "name": "Mount Patrick Gass", "natural": "peak", "wikidata": "Q49053945"}}, {"name": "Old Man of the Hills", "latitude": 48.0530114, "longitude": -112.772552, "elevation": 2495.0, "source": "osm", "_tags": {"ele": "2495", "gnis:feature_id": "788421", "name": "Old Man of the Hills", "natural": "peak"}}, {"name": "Mount Pablo", "latitude": 48.3194087, "longitude": -113.1917534, "elevation": 2226.0, "source": "osm", "_tags": {"ele": "2226", "gnis:feature_id": "788553", "name": "Mount Pablo", "natural": "peak"}}, {"name": "Mount Poia", "latitude": 48.1824591, "longitude": -112.9989578, "elevation": 2521.0, "source": "osm", "_tags": {"ele": "2521", "gnis:feature_id": "789017", "name": "Mount Poia", "natural": "peak"}}, {"name": "Puzzle Hills", "latitude": 48.2330166, "longitude": -113.2937009, "elevation": 1996.0, "source": "osm", "_tags": {"ele": "1996", "gnis:feature_id": "789239", "name": "Puzzle Hills", "natural": "peak"}}, {"name": "Red Crow Mountain", "latitude": 48.4016323, "longitude": -113.34843, "elevation": 2401.0, "source": "osm", "_tags": {"ele": "2401", "gnis:feature_id": "789448", "name": "Red Crow Mountain", "natural": "peak", "wikidata": "Q49067195"}}, {"name": "Red Plume Mountain", "latitude": 48.1496786, "longitude": -113.3053641, "elevation": 2420.0, "source": "osm", "_tags": {"ele": "2420", "gnis:feature_id": "789470", "name": "Red Plume Mountain", "natural": "peak"}}, {"name": "Mount Richmond", "latitude": 48.1405138, "longitude": -112.9358972, "elevation": 2489.0, "source": "osm", "_tags": {"ele": "2489", "gnis:feature_id": "789578", "name": "Mount Richmond", "natural": "peak", "wikidata": "Q49054337"}}, {"name": "Ringer Mountain", "latitude": 48.0210612, "longitude": -113.119792, "elevation": 2325.0, "source": "osm", "_tags": {"ele": "2325", "gnis:feature_id": "789596", "name": "Ringer Mountain", "natural": "peak", "wikidata": "Q49068594"}}, {"name": "Running Crane Mountain", "latitude": 48.247462, "longitude": -113.2370319, "elevation": 2361.0, "source": "osm", "_tags": {"ele": "2361", "gnis:feature_id": "789856", "name": "Running Crane Mountain", "natural": "peak"}}, {"name": "Running Owl Mountain", "latitude": 48.2244052, "longitude": -113.1950836, "elevation": 2386.0, "source": "osm", "_tags": {"ele": "2386", "gnis:feature_id": "789858", "name": "Running Owl Mountain", "natural": "peak"}}, {"name": "Scarface Mountain", "latitude": 48.1799588, "longitude": -113.0200702, "elevation": 2523.0, "source": "osm", "_tags": {"ele": "2523", "gnis:feature_id": "790104", "name": "Scarface Mountain", "natural": "peak"}}, {"name": "Scenic Point", "latitude": 48.4849979, "longitude": -113.3225486, "elevation": 2228.0, "source": "osm", "_tags": {"ele": "2228", "gnis:feature_id": "790109", "name": "Scenic Point", "natural": "peak", "wikidata": "Q49071745"}}, {"name": "Mount Sentinel", "latitude": 48.1257908, "longitude": -112.9258961, "elevation": 2321.0, "source": "osm", "_tags": {"ele": "2321", "gnis:feature_id": "790232", "name": "Mount Sentinel", "natural": "peak", "wikidata": "Q49054527"}}, {"name": "Skeleton Mountain", "latitude": 48.3716315, "longitude": -113.3620409, "elevation": 2277.0, "source": "osm", "_tags": {"ele": "2277", "gnis:feature_id": "790582", "name": "Skeleton Mountain", "natural": "peak", "wikidata": "Q49074248"}}, {"name": "Slippery Bill Mountain", "latitude": 48.1905143, "longitude": -113.2661976, "elevation": 2262.0, "source": "osm", "_tags": {"ele": "2262", "gnis:feature_id": "790679", "name": "Slippery Bill Mountain", "natural": "peak"}}, {"name": "Soakem Mountain", "latitude": 48.0243941, "longitude": -113.335082, "elevation": 2282.0, "source": "osm", "_tags": {"ele": "2282", "gnis:feature_id": "790823", "name": "Soakem Mountain", "natural": "peak"}}, {"name": "Split Mountain", "latitude": 48.1405162, "longitude": -112.814224, "elevation": 1867.0, "source": "osm", "_tags": {"ele": "1867", "gnis:feature_id": "791165", "name": "Split Mountain", "natural": "peak"}}, {"name": "Spotted Eagle Mountain", "latitude": 48.1877369, "longitude": -113.0725739, "elevation": 2450.0, "source": "osm", "_tags": {"ele": "2450", "gnis:feature_id": "791183", "name": "Spotted Eagle Mountain", "natural": "peak"}}, {"name": "Square Mountain", "latitude": 48.212182, "longitude": -113.3095339, "elevation": 2130.0, "source": "osm", "_tags": {"ele": "2130", "gnis:feature_id": "791366", "name": "Square Mountain", "natural": "peak"}}, {"name": "Dancing Lady Mountain", "latitude": 48.4246887, "longitude": -113.31204, "elevation": 2235.0, "source": "osm", "_tags": {"ele": "2235", "gnis:feature_id": "791386", "name": "Dancing Lady Mountain", "natural": "peak", "wikidata": "Q19601576", "wikipedia": "en:Dancing Lady Mountain"}}, {"name": "Summit Mountain", "latitude": 48.3538531, "longitude": -113.3698187, "elevation": 2673.0, "source": "osm", "_tags": {"ele": "2673", "gnis:feature_id": "791670", "name": "Summit Mountain", "natural": "peak", "wikidata": "Q7637843"}}, {"name": "Tent Mountain", "latitude": 48.1557903, "longitude": -113.20397, "elevation": 2191.0, "source": "osm", "_tags": {"ele": "2191", "gnis:feature_id": "791969", "name": "Tent Mountain", "natural": "peak"}}, {"name": "Trinity Mountain", "latitude": 48.1171768, "longitude": -113.3912001, "elevation": 2310.0, "source": "osm", "_tags": {"ele": "2310", "gnis:feature_id": "792382", "name": "Trinity Mountain", "natural": "peak"}}, {"name": "Union Mountain", "latitude": 48.0557847, "longitude": -113.2781362, "elevation": 2321.0, "source": "osm", "_tags": {"ele": "2321", "gnis:feature_id": "792592", "name": "Union Mountain", "natural": "peak"}}, {"name": "Wildrose Mountain", "latitude": 48.0910643, "longitude": -113.3473079, "elevation": 2209.0, "source": "osm", "_tags": {"ele": "2209", "gnis:feature_id": "793306", "name": "Wildrose Mountain", "natural": "peak"}}, {"name": "Antelope Butte", "latitude": 48.7530381, "longitude": -112.6856295, "elevation": 1364.0, "source": "osm", "_tags": {"ele": "1364", "gnis:feature_id": "801994", "name": "Antelope Butte", "natural": "peak"}}, {"name": "Bushnell Hill", "latitude": 48.9983208, "longitude": -112.9436987, "elevation": 1417.0, "source": "osm", "_tags": {"ele": "1417", "gnis:feature_id": "802067", "name": "Bushnell Hill", "natural": "peak"}}, {"name": "Horsethief Ridge", "latitude": 48.7860945, "longitude": -112.7031307, "elevation": 1403.0, "source": "osm", "_tags": {"ele": "1403", "gnis:feature_id": "802122", "name": "Horsethief Ridge", "natural": "peak"}}, {"name": "5529ft", "latitude": 48.5402889, "longitude": -113.276104, "elevation": null, "source": "osm", "_tags": {"name": "5529ft", "natural": "peak"}}, {"name": "6288ft", "latitude": 48.5368134, "longitude": -113.3013291, "elevation": null, "source": "osm", "_tags": {"name": "6288ft", "natural": "peak"}}, {"name": "5786ft", "latitude": 48.5196707, "longitude": -113.2479609, "elevation": null, "source": "osm", "_tags": {"name": "5786ft", "natural": "peak"}}, {"name": "5726ft", "latitude": 48.516144, "longitude": -113.2584812, "elevation": null, "source": "osm", "_tags": {"name": "5726ft", "natural": "peak"}}, {"name": "5881 ft", "latitude": 48.5195662, "longitude": -113.2697706, "elevation": null, "source": "osm", "_tags": {"name": "5881 ft", "natural": "peak"}}, {"name": "7277 ft", "latitude": 48.4812903, "longitude": -113.3384982, "elevation": null, "source": "osm", "_tags": {"name": "7277 ft", "natural": "peak"}}, {"name": "7643 ft", "latitude": 48.4775256, "longitude": -113.3296297, "elevation": null, "source": "osm", "_tags": {"name": "7643 ft", "natural": "peak"}}, {"name": "6427 ft", "latitude": 48.4823073, "longitude": -113.3018303, "elevation": null, "source": "osm", "_tags": {"name": "6427 ft", "natural": "peak"}}, {"name": "The Head", "latitude": 48.4703963, "longitude": -113.2993172, "elevation": 2223.0, "source": "osm", "_tags": {"ele": "2223", "gnis:feature_id": "792034", "name": "The Head", "natural": "peak", "wikidata": "Q49082433"}}, {"name": "Medicine", "latitude": 48.4605253, "longitude": -113.3277961, "elevation": 2574.0, "source": "osm", "_tags": {"ele": "2574", "name": "Medicine", "natural": "peak"}}, {"name": "", "latitude": 48.4521427, "longitude": -113.3173974, "elevation": 2293.0, "source": "osm", "_tags": {"ele": "2293", "natural": "peak"}}, {"name": "", "latitude": 48.4537998, "longitude": -113.2990461, "elevation": 1817.0, "source": "osm", "_tags": {"ele": "1817", "natural": "peak"}}, {"name": "", "latitude": 48.444957, "longitude": -113.2827937, "elevation": 1735.0, "source": "osm", "_tags": {"ele": "1735", "natural": "peak"}}, {"name": "", "latitude": 48.4336255, "longitude": -113.285766, "elevation": 1833.0, "source": "osm", "_tags": {"ele": "1833", "natural": "peak"}}, {"name": "", "latitude": 48.422318, "longitude": -113.322535, "elevation": 2190.0, "source": "osm", "_tags": {"ele": "2190", "natural": "peak"}}, {"name": "", "latitude": 48.417632, "longitude": -113.331148, "elevation": 2342.0, "source": "osm", "_tags": {"ele": "2342", "natural": "peak"}}, {"name": "", "latitude": 48.4066352, "longitude": -113.309957, "elevation": 1708.0, "source": "osm", "_tags": {"ele": "1708", "natural": "peak"}}, {"name": "", "latitude": 48.3952942, "longitude": -113.2862189, "elevation": 1586.0, "source": "osm", "_tags": {"ele": "1586", "natural": "peak"}}, {"name": "", "latitude": 48.3933342, "longitude": -113.2663196, "elevation": 1550.0, "source": "osm", "_tags": {"ele": "1550", "natural": "peak"}}, {"name": "", "latitude": 48.3879325, "longitude": -113.2769697, "elevation": 1537.0, "source": "osm", "_tags": {"ele": "1537", "natural": "peak"}}, {"name": "", "latitude": 48.4032277, "longitude": -113.2770352, "elevation": 1632.0, "source": "osm", "_tags": {"ele": "1632", "natural": "peak"}}, {"name": "", "latitude": 48.4127793, "longitude": -113.2548901, "elevation": 1539.0, "source": "osm", "_tags": {"ele": "1539", "natural": "peak"}}, {"name": "", "latitude": 48.4136845, "longitude": -113.2668579, "elevation": 1686.0, "source": "osm", "_tags": {"ele": "1686", "natural": "peak"}}, {"name": "", "latitude": 48.4289601, "longitude": -113.252835, "elevation": 1543.0, "source": "osm", "_tags": {"ele": "1543", "natural": "peak"}}, {"name": "", "latitude": 48.43901, "longitude": -113.2677671, "elevation": 1609.0, "source": "osm", "_tags": {"ele": "1609", "natural": "peak"}}, {"name": "5897 ft", "latitude": 48.4925294, "longitude": -113.3041483, "elevation": null, "source": "osm", "_tags": {"name": "5897 ft", "natural": "peak"}}, {"name": "5402 ft", "latitude": 48.4928646, "longitude": -113.3301888, "elevation": null, "source": "osm", "_tags": {"name": "5402 ft", "natural": "peak"}}, {"name": "2825", "latitude": 48.4979616, "longitude": -113.3917564, "elevation": 2825.0, "source": "osm", "_tags": {"ele": "2825", "name": "2825", "natural": "peak"}}, {"name": "2601", "latitude": 48.5018536, "longitude": -113.3869518, "elevation": 2601.0, "source": "osm", "_tags": {"ele": "2601", "name": "2601", "natural": "peak"}}, {"name": "2530", "latitude": 48.5639951, "longitude": -113.385506, "elevation": null, "source": "osm", "_tags": {"name": "2530", "natural": "peak"}}]