[{"name": "Ski Peak", "latitude": 48.0843053, "longitude": -120.239806, "elevation": 1769.0, "source": "osm", "_tags": {"ele": "1769", "gnis:feature_id": "1525862", "name": "Ski Peak", "natural": "peak", "source": "USGS", "wikidata": "Q49074262"}}, {"name": "Nelson Butte", "latitude": 48.0920821, "longitude": -120.336477, "elevation": 1906.0, "source": "osm", "_tags": {"ele": "1906", "gnis:feature_id": "1523612", "name": "Nelson Butte", "natural": "peak", "source": "USGS", "wikidata": "Q49056703"}}, {"name": "Red Butte", "latitude": 48.0523601, "longitude": -120.231472, "elevation": 1683.0, "source": "osm", "_tags": {"ele": "1683", "gnis:feature_id": "1524925", "name": "Red Butte", "natural": "peak", "source": "USGS", "wikidata": "Q49067125"}}, {"name": "Pearl Hill", "latitude": 48.0209797, "longitude": -119.5175442, "elevation": 708.0, "source": "osm", "_tags": {"ele": "708", "gnis:feature_id": "1507347", "name": "Pearl Hill", "natural": "peak"}}, {"name": "Salt Hill", "latitude": 48.2257055, "longitude": -119.5594951, "elevation": 893.0, "source": "osm", "_tags": {"ele": "893", "gnis:feature_id": "1508060", "name": "Salt Hill", "natural": "peak", "wikidata": "Q49070966"}}, {"name": "Pearl Hill", "latitude": 48.0209797, "longitude": -119.5180997, "elevation": 709.0, "source": "osm", "_tags": {"ele": "709", "gnis:feature_id": "1509845", "name": "Pearl Hill", "natural": "peak"}}, {"name": "Castle Rock", "latitude": 48.0501449, "longitude": -119.7100561, "elevation": 771.0, "source": "osm", "_tags": {"ele": "771", "gnis:feature_id": "1510271", "name": "Castle Rock", "natural": "peak"}}, {"name": "Rattlesnake Point", "latitude": 48.0512562, "longitude": -119.6914439, "elevation": 320.0, "source": "osm", "_tags": {"ele": "320", "gnis:feature_id": "1510272", "name": "Rattlesnake Point", "natural": "peak"}}, {"name": "Timber Peak", "latitude": 48.0557001, "longitude": -119.7497807, "elevation": 900.0, "source": "osm", "_tags": {"ele": "900", "gnis:feature_id": "1513033", "name": "Timber Peak", "natural": "peak"}}, {"name": "American Butte", "latitude": 48.9929346, "longitude": -119.6345215, "elevation": 722.0, "source": "osm", "_tags": {"ele": "722", "gnis:feature_id": "1515848", "name": "American Butte", "natural": "peak", "wikidata": "Q49008700"}}, {"name": "Amphitheater Mountain", "latitude": 48.9753642, "longitude": -120.1922766, "elevation": 2548.0, "source": "osm", "_tags": {"ele": "2548", "gnis:feature_id": "1515857", "name": "Amphitheater Mountain", "natural": "peak", "wikidata": "Q49008722"}}, {"name": "Andrew Peak", "latitude": 48.9204242, "longitude": -120.228152, "elevation": 2518.0, "source": "osm", "_tags": {"ele": "2518", "gnis:feature_id": "1515889", "name": "Andrew Peak", "natural": "peak", "wikidata": "Q49008772"}}, {"name": "Apex Mountain", "latitude": 48.9615383, "longitude": -120.145093, "elevation": 2529.0, "source": "osm", "_tags": {"ele": "2529", "fixme": "The peak is incorrectly shown on the map.  Correct coordinates are 48.96164, -120.14510", "gnis:feature_id": "1515929", "name": "Apex Mountain", "natural": "peak", "wikidata": "Q49008980"}}, {"name": "Arnold Peak", "latitude": 48.9887358, "longitude": -119.9220489, "elevation": 2462.0, "source": "osm", "_tags": {"ele": "2462", "gnis:feature_id": "1515953", "name": "Arnold Peak", "natural": "peak", "wikidata": "Q49009069"}}, {"name": "Ashnola Mountain", "latitude": 48.9215312, "longitude": -120.400659, "elevation": 2369.0, "source": "osm", "_tags": {"ele": "2369", "gnis:feature_id": "1515971", "name": "Ashnola Mountain", "natural": "peak", "wikidata": "Q4805702", "wikipedia": "en:Ashnola Mountain"}}, {"name": "Bald Butte", "latitude": 48.6599219, "longitude": -119.7371214, "elevation": 1528.0, "source": "osm", "_tags": {"ele": "1528", "gnis:feature_id": "1516064", "name": "Bald Butte", "natural": "peak", "wikidata": "Q49009702", "wikipedia": "ceb:Bald Butte (bukid sa Tinipong Bansa, Washington, Okanogan County)"}}, {"name": "Bald Knob", "latitude": 48.1529233, "longitude": -119.8542328, "elevation": 1054.0, "source": "osm", "_tags": {"ele": "1054", "gnis:feature_id": "1516075", "name": "Bald Knob", "natural": "peak", "wikidata": "Q49009921"}}, {"name": "Bald Mountain", "latitude": 48.9534793, "longitude": -120.2595429, "elevation": 2419.0, "source": "osm", "_tags": {"ele": "2419", "gnis:feature_id": "1516087", "name": "Bald Mountain", "natural": "peak", "wikidata": "Q49010228"}}, {"name": "Barber Mountain", "latitude": 49.0010137, "longitude": -119.69046, "elevation": 902.0, "source": "osm", "_tags": {"ele": "902", "gnis:feature_id": "1516126", "name": "Barber Mountain", "natural": "peak"}}, {"name": "Mount Barney", "latitude": 48.7815332, "longitude": -120.2467608, "elevation": 2379.0, "source": "osm", "_tags": {"ele": "2379", "gnis:feature_id": "1516154", "name": "Mount Barney", "natural": "peak", "wikidata": "Q49052025"}}, {"name": "Bear Mountain", "latitude": 48.4129245, "longitude": -119.9231281, "elevation": 1660.0, "source": "osm", "_tags": {"ele": "1660", "gnis:feature_id": "1516281", "name": "Bear Mountain", "natural": "peak", "wikidata": "Q49011463"}}, {"name": "Beaver Mountain", "latitude": 48.4565363, "longitude": -119.8681258, "elevation": 1916.0, "source": "osm", "_tags": {"ele": "1916", "gnis:feature_id": "1516344", "name": "Beaver Mountain", "natural": "peak", "wikidata": "Q49011711"}}, {"name": "Big Craggy Peak", "latitude": 48.7629204, "longitude": -120.3275966, "elevation": 2575.0, "source": "osm", "_tags": {"ele": "2575", "gnis:feature_id": "1516478", "name": "Big Craggy Peak", "natural": "peak", "wikidata": "Q49012377"}}, {"name": "Mount Bigelow", "latitude": 48.2184744, "longitude": -120.3537002, "elevation": 2574.0, "source": "osm", "_tags": {"ele": "2574", "gnis:feature_id": "1516551", "name": "Mount Bigelow", "natural": "peak", "wikidata": "Q49052077", "wikipedia": "en:Mount Bigelow (Washington)"}}, {"name": "Billy Goat Mountain", "latitude": 48.8126427, "longitude": -120.3434318, "elevation": 2292.0, "source": "osm", "_tags": {"ele": "2292", "gnis:feature_id": "1516560", "name": "Billy Goat Mountain", "natural": "peak", "wikidata": "Q49012903"}}, {"name": "Block Mountain", "latitude": 48.3309771, "longitude": -120.2723089, "elevation": 1407.0, "source": "osm", "_tags": {"ele": "1407", "gnis:feature_id": "1516657", "name": "Block Mountain", "natural": "peak", "wikidata": "Q49014258"}}, {"name": "Blue Buck Mountain", "latitude": 48.4901456, "longitude": -120.0514682, "elevation": 1894.0, "source": "osm", "_tags": {"ele": "1894", "gnis:feature_id": "1516667", "name": "Blue Buck Mountain", "natural": "peak", "wikidata": "Q49014312", "wikipedia": "ceb:Blue Buck Mountain (bukid sa Tinipong Bansa, Washington)"}}, {"name": "Blue Goat Mountain", "latitude": 48.6684822, "longitude": -119.7195148, "elevation": 1541.0, "source": "osm", "_tags": {"ele": "1541", "gnis:feature_id": "1516679", "name": "Blue Goat Mountain", "natural": "peak", "wikidata": "Q49014332", "wikipedia": "ceb:Blue Goat Mountain"}}, {"name": "Bobcat Mountain", "latitude": 48.4568136, "longitude": -119.8975718, "elevation": 1759.0, "source": "osm", "_tags": {"ele": "1759", "gnis:feature_id": "1516740", "name": "Bobcat Mountain", "natural": "peak", "wikidata": "Q49014645"}}, {"name": "Bowen Mountain", "latitude": 48.4676455, "longitude": -120.105359, "elevation": 1134.0, "source": "osm", "_tags": {"ele": "1134", "gnis:feature_id": "1516885", "name": "Bowen Mountain", "natural": "peak", "wikidata": "Q49015124", "wikipedia": "ceb:Bowen Mountain (bukid sa Tinipong Bansa, Washington, Okanogan County)"}}, {"name": "Bryan Butte", "latitude": 48.1295837, "longitude": -120.2981419, "elevation": 2385.0, "source": "osm", "_tags": {"ele": "2385", "gnis:feature_id": "1517013", "name": "Bryan Butte", "natural": "peak", "wikidata": "Q49015918"}}, {"name": "Buck Mountain", "latitude": 48.4362591, "longitude": -119.8220123, "elevation": 1815.0, "source": "osm", "_tags": {"ele": "1815", "gnis:feature_id": "1517043", "name": "Buck Mountain", "natural": "peak", "wikidata": "Q49016175"}}, {"name": "Buck Mountain", "latitude": 48.6043116, "longitude": -120.2200887, "elevation": 1368.0, "source": "osm", "_tags": {"ele": "1368", "gnis:feature_id": "1517044", "name": "Buck Mountain", "natural": "peak", "wikidata": "Q49016176"}}, {"name": "Buckhorn Mountain", "latitude": 48.1381996, "longitude": -119.9278476, "elevation": 992.0, "source": "osm", "_tags": {"ele": "992", "gnis:feature_id": "1517056", "name": "Buckhorn Mountain", "natural": "peak", "wikidata": "Q49016315"}}, {"name": "Bullfrog Mountain", "latitude": 48.9126549, "longitude": -119.5717397, "elevation": 1312.0, "source": "osm", "_tags": {"ele": "1312", "gnis:feature_id": "1517082", "name": "Bullfrog Mountain", "natural": "peak", "wikidata": "Q49016661"}}, {"name": "Burch Mountain", "latitude": 48.7969578, "longitude": -120.3051803, "elevation": 2361.0, "source": "osm", "_tags": {"ele": "2361", "gnis:feature_id": "1517105", "name": "Burch Mountain", "natural": "peak", "wikidata": "Q49016829"}}, {"name": "Burgett Peak", "latitude": 48.718754, "longitude": -120.3142618, "elevation": 2222.0, "source": "osm", "_tags": {"ele": "2222", "gnis:feature_id": "1517110", "name": "Burgett Peak", "natural": "peak", "wikidata": "Q49016853"}}, {"name": "Buttermilk Butte", "latitude": 48.3011405, "longitude": -120.3102811, "elevation": 1662.0, "source": "osm", "_tags": {"ele": "1662", "gnis:feature_id": "1517166", "name": "Buttermilk Butte", "natural": "peak", "wikidata": "Q49017281"}}, {"name": "Cal Peak", "latitude": 48.9076489, "longitude": -120.1259254, "elevation": 2274.0, "source": "osm", "_tags": {"ele": "2274", "gnis:feature_id": "1517213", "name": "Cal Peak", "natural": "peak", "wikidata": "Q49017586"}}, {"name": "Carter Mountain", "latitude": 48.6270956, "longitude": -119.5636718, "elevation": 909.0, "source": "osm", "_tags": {"ele": "909", "gnis:feature_id": "1517434", "name": "Carter Mountain", "natural": "peak", "wikidata": "Q49018293", "wikipedia": "ceb:Carter Mountain (bukid sa Tinipong Bansa, Washington)"}}, {"name": "Cathedral Peak", "latitude": 48.98912, "longitude": -120.18897, "elevation": 2622.0, "source": "osm", "_tags": {"ele": "2622", "gnis:feature_id": "1517498", "name": "Cathedral Peak", "natural": "peak", "wikidata": "Q49018710"}}, {"name": "Cave Mountain", "latitude": 48.5293178, "longitude": -119.6058909, "elevation": 864.0, "source": "osm", "_tags": {"ele": "864", "gnis:feature_id": "1517514", "name": "Cave Mountain", "natural": "peak", "wikidata": "Q49018805"}}, {"name": "Cayuse Mountain", "latitude": 48.7545952, "longitude": -119.5434004, "elevation": 470.0, "source": "osm", "_tags": {"ele": "470", "gnis:feature_id": "1517521", "name": "Cayuse Mountain", "natural": "peak", "wikidata": "Q49018831"}}, {"name": "", "latitude": 48.2992314, "longitude": -119.7388227, "elevation": 936.0, "source": "osm", "_tags": {"ele": "936", "natural": "peak"}}, {"name": "Chopaka Mountain", "latitude": 48.957377, "longitude": -119.7850808, "elevation": 2403.0, "source": "osm", "_tags": {"ele": "2403", "gnis:feature_id": "1517744", "name": "Chopaka Mountain", "natural": "peak", "wikidata": "Q5104813", "wikipedia": "en:Chopaka Mountain"}}, {"name": "Clark Peak", "latitude": 48.6499467, "longitude": -119.9203798, "elevation": 2404.9, "source": "osm", "_tags": {"ele": "2404.9", "gnis:feature_id": "1517810", "name": "Clark Peak", "natural": "peak", "wikidata": "Q49020859"}}, {"name": "Coleman Butte", "latitude": 48.4340555, "longitude": -119.502958, "elevation": 442.0, "source": "osm", "_tags": {"ele": "442", "gnis:feature_id": "1517948", "name": "Coleman Butte", "natural": "peak", "wikidata": "Q49021436", "wikipedia": "ceb:Coleman Butte (bukid sa Tinipong Bansa, Washington)"}}, {"name": "Coleman Peak", "latitude": 48.8543151, "longitude": -120.0914786, "elevation": 2320.0, "source": "osm", "_tags": {"ele": "2320", "gnis:feature_id": "1517954", "name": "Coleman Peak", "natural": "peak", "wikidata": "Q49021451"}}, {"name": "Cook Mountain", "latitude": 48.3559819, "longitude": -119.7867321, "elevation": 1185.0, "source": "osm", "_tags": {"ele": "1185", "gnis:feature_id": "1518040", "name": "Cook Mountain", "natural": "peak", "wikidata": "Q49021814"}}, {"name": "Corral Butte", "latitude": 48.8229276, "longitude": -119.9423057, "elevation": 2047.0, "source": "osm", "_tags": {"ele": "2047", "gnis:feature_id": "1518116", "name": "Corral Butte", "natural": "peak", "wikidata": "Q49022175"}}, {"name": "Cougar Mountain", "latitude": 48.6759813, "longitude": -119.8264641, "elevation": 1697.0, "source": "osm", "_tags": {"ele": "1697", "gnis:feature_id": "1518185", "name": "Cougar Mountain", "natural": "peak", "wikidata": "Q49022322", "wikipedia": "ceb:Cougar Mountain (bukid sa Tinipong Bansa, Washington, Okanogan County)"}}, {"name": "Coxit Mountain", "latitude": 48.6901479, "longitude": -119.8442432, "elevation": 1955.0, "source": "osm", "_tags": {"ele": "1955", "gnis:feature_id": "1518238", "name": "Coxit Mountain", "natural": "peak", "wikidata": "Q49022535", "wikipedia": "ceb:Coxit Mountain"}}, {"name": "Dent Mountain", "latitude": 48.2465373, "longitude": -119.8028429, "elevation": 948.0, "source": "osm", "_tags": {"ele": "948", "gnis:feature_id": "1518679", "name": "Dent Mountain", "natural": "peak", "wikidata": "Q49024315"}}, {"name": "Doe Mountain", "latitude": 48.7248671, "longitude": -120.1873128, "elevation": 2174.0, "source": "osm", "_tags": {"ele": "2174", "gnis:feature_id": "1518833", "name": "Doe Mountain", "natural": "peak", "wikidata": "Q49025171"}}, {"name": "Dunn Mountain", "latitude": 48.5645947, "longitude": -119.6467285, "elevation": 1064.0, "source": "osm", "_tags": {"ele": "1064", "gnis:feature_id": "1519015", "name": "Dunn Mountain", "natural": "peak", "wikidata": "Q49026259", "wikipedia": "ceb:Dunn Mountain (bukid sa Tinipong Bansa, Washington, Okanogan County)"}}, {"name": "Eightmile Peak", "latitude": 48.7806978, "longitude": -120.3517647, "elevation": 2331.0, "source": "osm", "_tags": {"ele": "2331", "gnis:feature_id": "1519215", "name": "Eightmile Peak", "natural": "peak", "wikidata": "Q49027350"}}, {"name": "Ellemeham Mountain", "latitude": 48.9426554, "longitude": -119.6242422, "elevation": 1324.0, "source": "osm", "_tags": {"ele": "1324", "gnis:feature_id": "1519303", "name": "Ellemeham Mountain", "natural": "peak", "wikidata": "Q49027909"}}, {"name": "End Mountain", "latitude": 48.1190282, "longitude": -120.273696, "elevation": 2199.0, "source": "osm", "_tags": {"ele": "2199", "gnis:feature_id": "1519347", "name": "End Mountain", "natural": "peak", "source": "USGS", "wikidata": "Q49028083"}}, {"name": "Farewell Peak", "latitude": 48.7409778, "longitude": -120.2164809, "elevation": 2260.0, "source": "osm", "_tags": {"ele": "2260", "gnis:feature_id": "1519477", "name": "Farewell Peak", "natural": "peak", "wikidata": "Q49028569"}}, {"name": "Fawn Peak", "latitude": 48.6179212, "longitude": -120.3295377, "elevation": 1978.0, "source": "osm", "_tags": {"ele": "1978", "gnis:feature_id": "1519485", "name": "Fawn Peak", "natural": "peak", "wikidata": "Q49028660"}}, {"name": "Finley Mountain", "latitude": 48.3154241, "longitude": -119.9628512, "elevation": 1396.0, "source": "osm", "_tags": {"ele": "1396", "gnis:feature_id": "1519531", "name": "Finley Mountain", "natural": "peak", "wikidata": "Q49028891"}}, {"name": "First Butte", "latitude": 48.61917, "longitude": -120.108806, "elevation": 1674.0, "source": "osm", "_tags": {"ele": "1674", "gnis:feature_id": "1519561", "name": "First Butte", "natural": "peak", "wikidata": "Q49028960"}}, {"name": "Flagg Mountain", "latitude": 48.5990075, "longitude": -120.3851751, "elevation": 1193.0, "source": "osm", "_tags": {"ele": "1193", "gnis:feature_id": "1519630", "name": "Flagg Mountain", "natural": "peak", "wikidata": "Q49029248"}}, {"name": "Flatiron", "latitude": 48.6740398, "longitude": -119.5608966, "elevation": 809.0, "source": "osm", "_tags": {"ele": "809", "gnis:feature_id": "1519645", "name": "Flatiron", "natural": "peak", "wikidata": "Q49029564"}}, {"name": "Fox Mountain", "latitude": 48.3370939, "longitude": -119.7131167, "elevation": 893.0, "source": "osm", "_tags": {"ele": "893", "gnis:feature_id": "1519759", "name": "Fox Mountain", "natural": "peak", "wikidata": "Q49030367"}}, {"name": "Fox Peak", "latitude": 48.0881944, "longitude": -120.2323055, "elevation": 1876.0, "source": "osm", "_tags": {"ele": "1876", "gnis:feature_id": "1519760", "name": "Fox Peak", "natural": "peak", "wikidata": "Q49030379"}}, {"name": "Freds Mountain", "latitude": 48.9168122, "longitude": -120.2603755, "elevation": 2432.0, "source": "osm", "_tags": {"ele": "2432", "gnis:feature_id": "1519777", "name": "Freds Mountain", "natural": "peak", "wikidata": "Q49030482"}}, {"name": "Funk Mountain", "latitude": 48.5998709, "longitude": -119.7447909, "elevation": 1562.0, "source": "osm", "_tags": {"ele": "1562", "gnis:feature_id": "1519851", "name": "Funk Mountain", "natural": "peak", "wikidata": "Q49030790"}}, {"name": "Gobblers Knob", "latitude": 48.4604224, "longitude": -120.2850883, "elevation": 1299.0, "source": "osm", "_tags": {"ele": "1299", "gnis:feature_id": "1520067", "name": "Gobblers Knob", "natural": "peak", "wikidata": "Q49031980"}}, {"name": "Gold Hill", "latitude": 48.8090395, "longitude": -119.7109083, "elevation": 1288.0, "source": "osm", "_tags": {"ele": "1288", "gnis:feature_id": "1520093", "name": "Gold Hill", "natural": "peak", "wikidata": "Q49032152"}}, {"name": "Goodenough Peak", "latitude": 48.9754326, "longitude": -119.8761952, "elevation": 2254.0, "source": "osm", "_tags": {"ele": "2254", "gnis:feature_id": "1520134", "name": "Goodenough Peak", "natural": "peak", "wikidata": "Q49032280", "wikipedia": "ceb:Goodenough Peak"}}, {"name": "Grandview Mountain", "latitude": 48.894598, "longitude": -119.6703534, "elevation": 1032.0, "source": "osm", "_tags": {"ele": "1032", "gnis:feature_id": "1520202", "name": "Grandview Mountain", "natural": "peak", "wikidata": "Q49032672"}}, {"name": "Granite Mountain", "latitude": 48.4962581, "longitude": -119.8967389, "elevation": 2235.0, "source": "osm", "_tags": {"ele": "2235", "gnis:feature_id": "1520234", "name": "Granite Mountain", "natural": "peak", "wikidata": "Q49032798"}}, {"name": "Grizzly Mountain", "latitude": 48.5498664, "longitude": -120.3089797, "elevation": 1303.0, "source": "osm", "_tags": {"ele": "1303", "gnis:feature_id": "1520370", "name": "Grizzly Mountain", "natural": "peak", "wikidata": "Q49033995"}}, {"name": "Haig Mountain", "latitude": 48.9815428, "longitude": -120.0084219, "elevation": 2392.0, "source": "osm", "_tags": {"ele": "2392", "gnis:feature_id": "1520447", "name": "Haig Mountain", "natural": "peak", "wikidata": "Q49034504"}}, {"name": "Happy Hill", "latitude": 48.5148718, "longitude": -119.7058962, "elevation": 921.0, "source": "osm", "_tags": {"ele": "921", "gnis:feature_id": "1520524", "name": "Happy Hill", "natural": "peak", "wikidata": "Q49034894", "wikipedia": "ceb:Happy Hill (bukid sa Tinipong Bansa, Washington, Okanogan County)"}}, {"name": "Harmony Heights", "latitude": 48.1451456, "longitude": -119.8275646, "elevation": 876.0, "source": "osm", "_tags": {"ele": "876", "gnis:feature_id": "1520557", "name": "Harmony Heights", "natural": "peak", "wikidata": "Q49035010"}}, {"name": "Hickey Hump", "latitude": 48.8795959, "longitude": -119.9448068, "elevation": 2034.0, "source": "osm", "_tags": {"ele": "2034", "gnis:feature_id": "1520741", "name": "Hickey Hump", "natural": "peak", "wikidata": "Q49036141"}}, {"name": "Hoodoo Peak", "latitude": 48.2518088, "longitude": -120.3425888, "elevation": 2571.0, "source": "osm", "_tags": {"ele": "2571", "gnis:feature_id": "1520896", "name": "Hoodoo Peak", "natural": "peak", "wikidata": "Q49036987"}}, {"name": "Horse Mountain", "latitude": 48.713487, "longitude": -119.4053362, "elevation": 454.0, "source": "osm", "_tags": {"ele": "454", "gnis:feature_id": "1520936", "name": "Horse Mountain", "natural": "peak", "wikidata": "Q49037383"}}, {"name": "Horseshoe Mountain", "latitude": 48.9700276, "longitude": -119.9249566, "elevation": 2108.0, "source": "osm", "_tags": {"ele": "2108", "gnis:feature_id": "1520965", "name": "Horseshoe Mountain", "natural": "peak", "wikidata": "Q49037510", "wikipedia": "ceb:Horseshoe Mountain (bukid sa Tinipong Bansa, Washington, Okanogan County, lat 48,96, long -119,91)"}}, {"name": "Hungry Mountain", "latitude": 48.1412824, "longitude": -120.1469471, "elevation": 1409.395, "source": "osm", "_tags": {"ele": "1409.395", "gnis:feature_id": "1521071", "name": "Hungry Mountain", "natural": "peak", "wikidata": "Q49037994"}}, {"name": "Hunter Mountain", "latitude": 48.1098639, "longitude": -120.054798, "elevation": 1041.0, "source": "osm", "_tags": {"ele": "1041", "gnis:feature_id": "1521081", "name": "Hunter Mountain", "natural": "peak", "wikidata": "Q49038044"}}, {"name": "Hurley Peak", "latitude": 48.9709886, "longitude": -119.7767475, "elevation": 2379.0, "source": "osm", "_tags": {"ele": "2379", "gnis:feature_id": "1521090", "name": "Hurley Peak", "natural": "peak", "wikidata": "Q49038114", "wikipedia": "ceb:Hurley Peak"}}, {"name": "Ike Mountain", "latitude": 48.7315338, "longitude": -120.1887019, "elevation": 2186.0, "source": "osm", "_tags": {"ele": "2186", "gnis:feature_id": "1521137", "name": "Ike Mountain", "natural": "peak", "wikidata": "Q49038289"}}, {"name": "Island Mountain", "latitude": 48.6570886, "longitude": -120.2656473, "elevation": 1317.0, "source": "osm", "_tags": {"ele": "1317", "gnis:feature_id": "1521270", "name": "Island Mountain", "natural": "peak", "wikidata": "Q49039242"}}, {"name": "Jackass Butte", "latitude": 48.3537199, "longitude": -119.5635607, "elevation": 526.0, "source": "osm", "_tags": {"ele": "526", "gnis:feature_id": "1521298", "name": "Jackass Butte", "natural": "peak", "wikidata": "Q49039365"}}, {"name": "Joe Mills Mountain", "latitude": 48.9668216, "longitude": -119.7970258, "elevation": 2354.0, "source": "osm", "_tags": {"ele": "2354", "gnis:feature_id": "1521395", "name": "Joe Mills Mountain", "natural": "peak", "wikidata": "Q49039907", "wikipedia": "ceb:Joe Mills Mountain (bukid sa Tinipong Bansa, Washington)"}}, {"name": "Kay Peak", "latitude": 48.8434818, "longitude": -120.0839781, "elevation": 2298.0, "source": "osm", "_tags": {"ele": "2298", "gnis:feature_id": "1521582", "name": "Kay Peak", "natural": "peak", "wikidata": "Q49040912"}}, {"name": "Knowlton Knob", "latitude": 48.1645895, "longitude": -119.900902, "elevation": 1161.0, "source": "osm", "_tags": {"ele": "1161", "gnis:feature_id": "1521755", "name": "Knowlton Knob", "natural": "peak", "wikidata": "Q49042202"}}, {"name": "Kruger Mountain", "latitude": 48.9879359, "longitude": -119.4942392, "elevation": 836.0, "source": "osm", "_tags": {"ele": "836", "gnis:feature_id": "1521776", "name": "Kruger Mountain", "natural": "peak", "wikidata": "Q49042484"}}, {"name": "Lamb Butte", "latitude": 48.6615338, "longitude": -120.2117565, "elevation": 1685.0, "source": "osm", "_tags": {"ele": "1685", "gnis:feature_id": "1521873", "name": "Lamb Butte", "natural": "peak", "wikidata": "Q49043334"}}, {"name": "Leader Mountain", "latitude": 48.3656776, "longitude": -119.6583562, "elevation": 976.0, "source": "osm", "_tags": {"ele": "976", "gnis:feature_id": "1521974", "name": "Leader Mountain", "natural": "peak", "wikidata": "Q49043798", "wikipedia": "ceb:Leader Mountain (bukid sa Tinipong Bansa, Washington)"}}, {"name": "Mount Leecher", "latitude": 48.2507013, "longitude": -120.0020189, "elevation": 1525.0, "source": "osm", "_tags": {"ele": "1525", "gnis:feature_id": "1521992", "name": "Mount Leecher", "natural": "peak", "wikidata": "Q49053390"}}, {"name": "Lewis Butte", "latitude": 48.5191551, "longitude": -120.2232388, "elevation": 1015.0, "source": "osm", "_tags": {"ele": "1015", "gnis:feature_id": "1522039", "name": "Lewis Butte", "natural": "peak", "wikidata": "Q49044041"}}, {"name": "Little Buck Mountain", "latitude": 48.3876467, "longitude": -119.9267392, "elevation": 1630.0, "source": "osm", "_tags": {"ele": "1630", "gnis:feature_id": "1522174", "name": "Little Buck Mountain", "natural": "peak", "wikidata": "Q49044724"}}, {"name": "Little Chopaka Mountain", "latitude": 48.973767, "longitude": -119.6948006, "elevation": 973.0, "source": "osm", "_tags": {"ele": "973", "gnis:feature_id": "1522185", "name": "Little Chopaka Mountain", "natural": "peak", "wikidata": "Q49044799", "wikipedia": "ceb:Little Chopaka Mountain"}}, {"name": "Little Granite Mountain", "latitude": 48.5209807, "longitude": -119.8686826, "elevation": 1614.0, "source": "osm", "_tags": {"ele": "1614", "gnis:feature_id": "1522227", "name": "Little Granite Mountain", "natural": "peak", "wikidata": "Q49044938"}}, {"name": "Little Peacock Mountain", "latitude": 48.5232041, "longitude": -119.7706224, "elevation": 1261.0, "source": "osm", "_tags": {"ele": "1261", "gnis:feature_id": "1522283", "name": "Little Peacock Mountain", "natural": "peak", "wikidata": "Q49045352"}}, {"name": "Little Whisky Mountain", "latitude": 48.7995994, "longitude": -119.440341, "elevation": 624.0, "source": "osm", "_tags": {"ele": "624", "gnis:feature_id": "1522321", "name": "Little Whisky Mountain", "natural": "peak", "wikidata": "Q49045685"}}, {"name": "Lookout Mountain", "latitude": 48.3134777, "longitude": -120.1867497, "elevation": 1672.0, "source": "osm", "_tags": {"ele": "1672", "gnis:feature_id": "1522434", "name": "Lookout Mountain", "natural": "peak", "wikidata": "Q49046692"}}, {"name": "Martin Peak", "latitude": 48.1884736, "longitude": -120.3509221, "elevation": 2545.0, "source": "osm", "_tags": {"ele": "2545", "gnis:feature_id": "1522771", "name": "Martin Peak", "natural": "peak", "wikidata": "Q49048107", "wikipedia": "en:Martin Peak (Methow Mountains)"}}, {"name": "Mount McCay", "latitude": 48.6162583, "longitude": -119.9195215, "elevation": 2272.0, "source": "osm", "_tags": {"ele": "2272", "gnis:feature_id": "1522863", "name": "Mount McCay", "natural": "peak", "wikidata": "Q49053585"}}, {"name": "McClure Mountain", "latitude": 48.3173671, "longitude": -120.1153578, "elevation": 1390.0, "source": "osm", "_tags": {"ele": "1390", "gnis:feature_id": "1522871", "name": "McClure Mountain", "natural": "peak", "wikidata": "Q49048646"}}, {"name": "McDaniel Mountain", "latitude": 48.4876474, "longitude": -119.8672928, "elevation": 1865.0, "source": "osm", "_tags": {"ele": "1865", "gnis:feature_id": "1522884", "name": "McDaniel Mountain", "natural": "peak", "wikidata": "Q49048724"}}, {"name": "McLeod Mountain", "latitude": 48.7040306, "longitude": -120.3839862, "elevation": 2457.0, "source": "osm", "_tags": {"ele": "2457", "gnis:feature_id": "1522925", "name": "McLeod Mountain", "natural": "peak", "wikidata": "Q49048952"}}, {"name": "Middle Mountain", "latitude": 48.6318149, "longitude": -119.7803494, "elevation": 1443.0, "source": "osm", "_tags": {"ele": "1443", "gnis:feature_id": "1523098", "name": "Middle Mountain", "natural": "peak", "wikidata": "Q49049990"}}, {"name": "Middle Tiffany Mountain", "latitude": 48.6795464, "longitude": -119.9099106, "elevation": 2428.3, "source": "osm", "_tags": {"ele": "2428.3", "gnis:feature_id": "1523108", "name": "Middle Tiffany Mountain", "natural": "peak", "wikidata": "Q49050034"}}, {"name": "Mineral Hill", "latitude": 48.5773704, "longitude": -119.8011815, "elevation": 1674.0, "source": "osm", "_tags": {"ele": "1674", "gnis:feature_id": "1523215", "name": "Mineral Hill", "natural": "peak", "wikidata": "Q49050487"}}, {"name": "Mission Peak", "latitude": 48.2854209, "longitude": -120.291476, "elevation": 1745.0, "source": "osm", "_tags": {"ele": "1745", "gnis:feature_id": "1523278", "name": "Mission Peak", "natural": "peak", "wikidata": "Q49050693"}}, {"name": "Muckamuck Hill", "latitude": 48.6023704, "longitude": -119.7995157, "elevation": 1402.0, "source": "osm", "_tags": {"ele": "1402", "gnis:feature_id": "1523459", "name": "Muckamuck Hill", "natural": "peak", "wikidata": "Q49055473"}}, {"name": "Muckamuck Mountain", "latitude": 48.6110377, "longitude": -119.8566132, "elevation": 1941.6, "source": "osm", "_tags": {"ele": "1941.6", "gnis:feature_id": "1523460", "name": "Muckamuck Mountain", "natural": "peak", "wikidata": "Q49055476"}}, {"name": "Nanny Goat Mountain", "latitude": 48.8356977, "longitude": -120.3787116, "elevation": 2342.0, "source": "osm", "_tags": {"ele": "2342", "gnis:feature_id": "1523572", "name": "Nanny Goat Mountain", "natural": "peak", "wikidata": "Q49056370"}}, {"name": "North Navarre Peak", "latitude": 48.1315278, "longitude": -120.326199, "elevation": 2433.0, "source": "osm", "_tags": {"ele": "2433", "gnis:feature_id": "1523898", "name": "North Navarre Peak", "natural": "peak", "source": "USGS", "wikidata": "Q49057413"}}, {"name": "North Twentymile Peak", "latitude": 48.751814, "longitude": -120.0681571, "elevation": 2259.0, "source": "osm", "_tags": {"ele": "2259", "gnis:feature_id": "1523914", "name": "North Twentymile Peak", "natural": "peak", "wikidata": "Q49057584"}}, {"name": "Obstruction Peak", "latitude": 48.8056999, "longitude": -120.2592618, "elevation": 2419.0, "source": "osm", "_tags": {"ele": "2419", "gnis:feature_id": "1523968", "name": "Obstruction Peak", "natural": "peak", "wikidata": "Q49058171"}}, {"name": "Old Baldy", "latitude": 48.5898689, "longitude": -119.956189, "elevation": 2391.0, "source": "osm", "_tags": {"ele": "2391", "gnis:feature_id": "1523993", "name": "Old Baldy", "natural": "peak", "wikidata": "Q49058372"}}, {"name": "Old Maid Mountain", "latitude": 48.179306, "longitude": -120.398702, "elevation": 2407.0, "source": "osm", "_tags": {"ele": "2407", "gnis:feature_id": "1524007", "name": "Old Maid Mountain", "natural": "peak", "source": "USGS", "wikidata": "Q49058468"}}, {"name": "Oss Peak", "latitude": 48.047916, "longitude": -120.198137, "elevation": 1627.0, "source": "osm", "_tags": {"ele": "1627", "gnis:feature_id": "1524094", "name": "Oss Peak", "natural": "peak", "source": "USGS", "wikidata": "Q49059007"}}, {"name": "Palmer Mountain", "latitude": 48.8707091, "longitude": -119.5861833, "elevation": 1308.0, "source": "osm", "_tags": {"ele": "1308", "gnis:feature_id": "1524156", "name": "Palmer Mountain", "natural": "peak", "wikidata": "Q49059544"}}, {"name": "Parrish Peak", "latitude": 48.0523612, "longitude": -120.1484128, "elevation": 1667.0, "source": "osm", "_tags": {"ele": "1667", "gnis:feature_id": "1524222", "name": "Parrish Peak", "natural": "peak", "wikidata": "Q49060033"}}, {"name": "Patterson Mountain", "latitude": 48.4532007, "longitude": -120.2270303, "elevation": 1064.0, "source": "osm", "_tags": {"ele": "1064", "gnis:feature_id": "1524255", "name": "Patterson Mountain", "natural": "peak", "wikidata": "Q49060195"}}, {"name": "Paul Mountain", "latitude": 48.6287563, "longitude": -120.181199, "elevation": 1273.0, "source": "osm", "_tags": {"ele": "1273", "gnis:feature_id": "1524258", "name": "Paul Mountain", "natural": "peak", "wikidata": "Q49060229"}}, {"name": "Peacock Mountain", "latitude": 48.514871, "longitude": -119.7575659, "elevation": 1354.0, "source": "osm", "_tags": {"ele": "1354", "gnis:feature_id": "1524269", "name": "Peacock Mountain", "natural": "peak", "wikidata": "Q28056282", "wikipedia": "en:Peacock Mountain"}}, {"name": "Pearrygin Peak", "latitude": 48.5312569, "longitude": -120.0273015, "elevation": 2023.0, "source": "osm", "_tags": {"ele": "2023", "gnis:feature_id": "1524284", "name": "Pearrygin Peak", "natural": "peak", "wikidata": "Q49060402", "wikipedia": "ceb:Pearrygin Peak"}}, {"name": "Peepsight Mountain", "latitude": 48.8970903, "longitude": -120.2387075, "elevation": 2459.0, "source": "osm", "_tags": {"ele": "2459", "gnis:feature_id": "1524301", "name": "Peepsight Mountain", "natural": "peak", "wikidata": "Q49060526"}}, {"name": "Pick Peak", "latitude": 48.9560178, "longitude": -119.9411525, "elevation": 2325.0, "source": "osm", "_tags": {"ele": "2325", "gnis:feature_id": "1524399", "name": "Pick Peak", "natural": "peak", "wikidata": "Q49061026", "wikipedia": "ceb:Pick Peak"}}, {"name": "Pogue Mountain", "latitude": 48.4329287, "longitude": -119.6128337, "elevation": 863.0, "source": "osm", "_tags": {"ele": "863", "gnis:feature_id": "1524529", "name": "Pogue Mountain", "natural": "peak", "wikidata": "Q49062801", "wikipedia": "ceb:Pogue Mountain (bukid sa Tinipong Bansa, Washington)"}}, {"name": "Pole Pick Mountain", "latitude": 48.3534798, "longitude": -119.9420172, "elevation": 1442.0, "source": "osm", "_tags": {"ele": "1442", "gnis:feature_id": "1524555", "name": "Pole Pick Mountain", "natural": "peak", "wikidata": "Q49063064"}}, {"name": "Quartz Mountain", "latitude": 48.8648746, "longitude": -119.7070205, "elevation": 1327.0, "source": "osm", "_tags": {"ele": "1327", "gnis:feature_id": "1524747", "name": "Quartz Mountain", "natural": "peak", "wikidata": "Q49066093"}}, {"name": "Ramsey Peak", "latitude": 48.560979, "longitude": -120.1114723, "elevation": 1612.0, "source": "osm", "_tags": {"ele": "1612", "gnis:feature_id": "1524862", "name": "Ramsey Peak", "natural": "peak", "wikidata": "Q49066545"}}, {"name": "Rattlesnake Mountain", "latitude": 48.8429298, "longitude": -119.6734077, "elevation": 812.0, "source": "osm", "_tags": {"ele": "812", "gnis:feature_id": "1524895", "name": "Rattlesnake Mountain", "natural": "peak", "wikidata": "Q49066862"}}, {"name": "Reed Mountain", "latitude": 48.3859831, "longitude": -119.6889491, "elevation": 1266.0, "source": "osm", "_tags": {"ele": "1266", "gnis:feature_id": "1524972", "name": "Reed Mountain", "natural": "peak", "wikidata": "Q49068128", "wikipedia": "ceb:Reed Mountain (bukid sa Tinipong Bansa, Washington)"}}, {"name": "Reed Peak", "latitude": 48.8484814, "longitude": -120.1042568, "elevation": 2289.0, "source": "osm", "_tags": {"ele": "2289", "gnis:feature_id": "1524973", "name": "Reed Peak", "natural": "peak", "wikidata": "Q49068130"}}, {"name": "Remmel Mountain", "latitude": 48.9232028, "longitude": -120.196762, "elevation": 2636.0, "source": "osm", "_tags": {"alt_name": "Mount Remmel", "ele": "2636", "gnis:feature_id": "1524996", "name": "Remmel Mountain", "natural": "peak", "prominence": "1337", "wikidata": "Q49068205", "wikipedia": "en:Remmel Mountain"}}, {"name": "Rendezvous Mountain", "latitude": 48.5829219, "longitude": -120.302591, "elevation": 1662.0, "source": "osm", "_tags": {"ele": "1662", "gnis:feature_id": "1524997", "name": "Rendezvous Mountain", "natural": "peak", "wikidata": "Q49068210"}}, {"name": "Rock Mountain", "latitude": 48.6904025, "longitude": -119.9172813, "elevation": 2429.6, "source": "osm", "_tags": {"ele": "2429.6", "gnis:feature_id": "1525144", "name": "Rock Mountain", "natural": "peak", "wikidata": "Q49068943"}}, {"name": "Rock Mountain", "latitude": 48.9833786, "longitude": -119.9551787, "elevation": 2322.0, "source": "osm", "_tags": {"ele": "2322", "gnis:feature_id": "1525145", "name": "Rock Mountain", "natural": "peak", "wikidata": "Q49068945"}}, {"name": "Ruby Hill", "latitude": 48.4637602, "longitude": -119.7378416, "elevation": 1511.0, "source": "osm", "_tags": {"ele": "1511", "gnis:feature_id": "1525276", "name": "Ruby Hill", "natural": "peak", "wikidata": "Q49070269", "wikipedia": "ceb:Ruby Hill (bukid sa Tinipong Bansa, Washington)"}}, {"name": "Saddle Peak", "latitude": 48.9426494, "longitude": -120.1312041, "elevation": 2320.0, "source": "osm", "_tags": {"ele": "2320", "gnis:feature_id": "1525335", "name": "Saddle Peak", "natural": "peak", "wikidata": "Q49070719"}}, {"name": "Scaffold Peak", "latitude": 48.3072638, "longitude": -120.3943852, "elevation": 2263.0, "source": "osm", "_tags": {"ele": "2263", "gnis:feature_id": "1525472", "name": "Scaffold Peak", "natural": "peak", "wikidata": "Q49071698"}}, {"name": "Schalow Mountain", "latitude": 48.583483, "longitude": -119.6850648, "elevation": 1157.0, "source": "osm", "_tags": {"ele": "1157", "gnis:feature_id": "1525494", "name": "Schalow Mountain", "natural": "peak", "wikidata": "Q49071754"}}, {"name": "Sheep Mountain", "latitude": 48.9768097, "longitude": -120.388716, "elevation": 2515.0, "source": "osm", "_tags": {"ele": "2515", "gnis:feature_id": "1525647", "name": "Sheep Mountain", "natural": "peak", "wikidata": "Q49072987"}}, {"name": "Sherman Peak", "latitude": 48.7343092, "longitude": -120.326207, "elevation": 2499.0, "source": "osm", "_tags": {"ele": "2499", "gnis:feature_id": "1525678", "name": "Sherman Peak", "natural": "peak", "wikidata": "Q49073286"}}, {"name": "Snowshoe Mountain", "latitude": 48.9890443, "longitude": -119.8498057, "elevation": 2383.0, "source": "osm", "_tags": {"ele": "2383", "gnis:feature_id": "1526055", "name": "Snowshoe Mountain", "natural": "peak", "wikidata": "Q49075250", "wikipedia": "ceb:Snowshoe Mountain (bukid sa Tinipong Bansa, Washington)"}}, {"name": "Soap Lake Mountain", "latitude": 48.2573719, "longitude": -119.6720025, "elevation": 770.0, "source": "osm", "_tags": {"ele": "770", "gnis:feature_id": "1526075", "name": "Soap Lake Mountain", "natural": "peak", "wikidata": "Q49075341"}}, {"name": "South Navarre Peak", "latitude": 48.1187496, "longitude": -120.330921, "elevation": 2342.0, "source": "osm", "_tags": {"ele": "2342", "gnis:feature_id": "1526298", "name": "South Navarre Peak", "natural": "peak", "wikidata": "Q49075983"}}, {"name": "South Twentymile Peak", "latitude": 48.6707019, "longitude": -120.0570287, "elevation": 2020.0, "source": "osm", "_tags": {"ele": "2020", "gnis:feature_id": "1526322", "name": "South Twentymile Peak", "natural": "peak", "wikidata": "Q49076133"}}, {"name": "Spirit Mountain", "latitude": 48.2656974, "longitude": -120.3784237, "elevation": 2396.0, "source": "osm", "_tags": {"ele": "2396", "gnis:feature_id": "1526381", "name": "Spirit Mountain", "natural": "peak", "wikidata": "Q49076438"}}, {"name": "Spur Peak", "latitude": 48.6501467, "longitude": -120.0050818, "elevation": 2096.0, "source": "osm", "_tags": {"ele": "2096", "gnis:feature_id": "1526444", "name": "Spur Peak", "natural": "peak", "wikidata": "Q49076973"}}, {"name": "Starvation Mountain", "latitude": 48.528202, "longitude": -119.9428532, "elevation": 2065.0, "source": "osm", "_tags": {"ele": "2065", "gnis:feature_id": "1526504", "name": "Starvation Mountain", "natural": "peak", "wikidata": "Q49077731"}}, {"name": "Sunrise Peak", "latitude": 48.7306972, "longitude": -120.3734308, "elevation": 2471.0, "source": "osm", "_tags": {"ele": "2471", "gnis:feature_id": "1526765", "name": "Sunrise Peak", "natural": "peak", "wikidata": "Q49080171"}}, {"name": "Sweetgrass Butte", "latitude": 48.6690324, "longitude": -120.3045379, "elevation": 1859.0, "source": "osm", "_tags": {"ele": "1859", "gnis:feature_id": "1526857", "name": "Sweetgrass Butte", "natural": "peak", "wikidata": "Q49080491"}}, {"name": "Teapot Dome", "latitude": 48.9715414, "longitude": -120.0434232, "elevation": 2320.0, "source": "osm", "_tags": {"ele": "2320", "gnis:feature_id": "1526967", "name": "Teapot Dome", "natural": "peak", "wikidata": "Q49081704"}}, {"name": "Tenas Mountain", "latitude": 48.0879214, "longitude": -119.8706215, "elevation": 745.0, "source": "osm", "_tags": {"ele": "745", "gnis:feature_id": "1526989", "name": "Tenas Mountain", "natural": "peak", "wikidata": "Q49081868"}}, {"name": "Thirtymile Peak", "latitude": 48.8482056, "longitude": -120.0095308, "elevation": 1823.0, "source": "osm", "_tags": {"ele": "1823", "gnis:feature_id": "1527097", "name": "Thirtymile Peak", "natural": "peak", "wikidata": "Q49083159"}}, {"name": "Thrapp Mountain", "latitude": 48.3070917, "longitude": -119.891181, "elevation": 1279.0, "source": "osm", "_tags": {"ele": "1279", "gnis:feature_id": "1527134", "name": "Thrapp Mountain", "natural": "peak", "wikidata": "Q49083321"}}, {"name": "Three Buttes", "latitude": 48.7054252, "longitude": -119.967304, "elevation": 2101.0, "source": "osm", "_tags": {"ele": "2101", "gnis:feature_id": "1527138", "name": "Three Buttes", "natural": "peak", "wikidata": "Q49083353"}}, {"name": "Thunder Mountain", "latitude": 48.7637593, "longitude": -119.9200817, "elevation": 2097.0, "source": "osm", "_tags": {"ele": "2097", "gnis:feature_id": "1527190", "name": "Thunder Mountain", "natural": "peak", "wikidata": "Q49083621", "wikipedia": "ceb:Thunder Mountain (bukid sa Tinipong Bansa, Washington, Okanogan County)"}}, {"name": "Tiffany Mountain", "latitude": 48.6695536, "longitude": -119.9325045, "elevation": 2512.2, "source": "osm", "_tags": {"ele": "2512.2", "gnis:feature_id": "1527211", "name": "Tiffany Mountain", "natural": "peak", "wikidata": "Q49083693"}}, {"name": "Tillman Mountain", "latitude": 48.8151504, "longitude": -119.7570212, "elevation": 1912.0, "source": "osm", "_tags": {"ele": "1912", "gnis:feature_id": "1527223", "name": "Tillman Mountain", "natural": "peak", "wikidata": "Q49083733", "wikipedia": "ceb:Tillman Mountain"}}, {"name": "Topaz Mountain", "latitude": 48.9370973, "longitude": -119.9898094, "elevation": 2373.0, "source": "osm", "_tags": {"ele": "2373", "gnis:feature_id": "1527311", "name": "Topaz Mountain", "natural": "peak", "wikidata": "Q49084335", "wikipedia": "ceb:Topaz Mountain (bukid sa Tinipong Bansa, Washington)"}}, {"name": "Tripod Peak", "latitude": 48.5429236, "longitude": -120.0536918, "elevation": 1907.0, "source": "osm", "_tags": {"ele": "1907", "gnis:feature_id": "1527380", "name": "Tripod Peak", "natural": "peak", "wikidata": "Q49084913"}}, {"name": "Twin Peaks", "latitude": 48.7170701, "longitude": -119.7518886, "elevation": 1654.0, "source": "osm", "_tags": {"ele": "1654", "gnis:feature_id": "1527554", "name": "Twin Peaks", "natural": "peak", "wikidata": "Q49086275"}}, {"name": "Two Point Mountain", "latitude": 48.9012537, "longitude": -120.3820469, "elevation": 2413.0, "source": "osm", "_tags": {"ele": "2413", "gnis:feature_id": "1527575", "name": "Two Point Mountain", "natural": "peak", "wikidata": "Q49086401"}}, {"name": "Uno Peak", "latitude": 48.1187489, "longitude": -120.387034, "elevation": 2330.0, "source": "osm", "_tags": {"ele": "2330", "gnis:feature_id": "1527618", "name": "Uno Peak", "natural": "peak", "source": "USGS", "wikidata": "Q49086677"}}, {"name": "Van Peak", "latitude": 48.9295896, "longitude": -120.2839879, "elevation": 2334.0, "source": "osm", "_tags": {"ele": "2334", "gnis:feature_id": "1527674", "name": "Van Peak", "natural": "peak", "wikidata": "Q49086877"}}, {"name": "Wellie Peak", "latitude": 48.8151471, "longitude": -120.1206455, "elevation": 2015.0, "source": "osm", "_tags": {"ele": "2015", "gnis:feature_id": "1527887", "name": "Wellie Peak", "natural": "peak", "wikidata": "Q49088066"}}, {"name": "Whitestone Mountain", "latitude": 48.772097, "longitude": -119.4747867, "elevation": 861.0, "source": "osm", "_tags": {"ele": "861", "gnis:feature_id": "1528102", "name": "Whitestone Mountain", "natural": "peak", "wikidata": "Q49089642"}}, {"name": "Windy Peak", "latitude": 48.9282725, "longitude": -119.9706135, "elevation": 2540.0, "source": "osm", "_tags": {"ele": "2540", "gnis:feature_id": "1528234", "name": "Windy Peak", "natural": "peak", "wikidata": "Q49090509", "wikipedia": "en:Windy Peak (Washington)"}}, {"name": "Wolframite Mountain", "latitude": 48.9865392, "longitude": -120.1289827, "elevation": 2440.0, "source": "osm", "_tags": {"ele": "2440", "gnis:feature_id": "1528286", "name": "Wolframite Mountain", "natural": "peak", "wikidata": "Q49090812"}}, {"name": "Woody Mountain", "latitude": 48.3626478, "longitude": -119.8420125, "elevation": 1394.0, "source": "osm", "_tags": {"ele": "1394", "gnis:feature_id": "1528311", "name": "Woody Mountain", "natural": "peak", "wikidata": "Q49090998"}}, {"name": "Rattlesnake Point", "latitude": 48.2555842, "longitude": -119.749158, "elevation": 670.0, "source": "osm", "_tags": {"ele": "670", "gnis:feature_id": "1528645", "name": "Rattlesnake Point", "natural": "peak"}}, {"name": "Timerick Mountain", "latitude": 48.3534832, "longitude": -119.6714478, "elevation": 856.0, "source": "osm", "_tags": {"ele": "856", "gnis:feature_id": "1528647", "name": "Timerick Mountain", "natural": "peak", "wikidata": "Q49083881", "wikipedia": "ceb:Timerick Mountain"}}, {"name": "Stowe Mountain", "latitude": 48.6026536, "longitude": -119.4272753, "elevation": 1026.0, "source": "osm", "_tags": {"ele": "1026", "gnis:feature_id": "1528675", "name": "Stowe Mountain", "natural": "peak", "wikidata": "Q49078687"}}, {"name": "Jones Hill", "latitude": 48.8032071, "longitude": -119.5906258, "elevation": 634.0, "source": "osm", "_tags": {"ele": "634", "gnis:feature_id": "1528695", "name": "Jones Hill", "natural": "peak", "wikidata": "Q49040166"}}, {"name": "White Rock", "latitude": 48.8343197, "longitude": -119.5306246, "elevation": 945.0, "source": "osm", "_tags": {"ele": "945", "gnis:feature_id": "1528696", "name": "White Rock", "natural": "peak", "wikidata": "Q49089494"}}, {"name": "Chilson Mountain", "latitude": 48.5587622, "longitude": -119.6028368, "elevation": 931.0, "source": "osm", "_tags": {"ele": "931", "gnis:feature_id": "1528745", "name": "Chilson Mountain", "natural": "peak", "wikidata": "Q49020209"}}, {"name": "Aeneas Mountain", "latitude": 48.743193, "longitude": -119.622389, "elevation": 1568.0, "source": "osm", "_tags": {"alt_name": "Lemanasky Mountain", "ele": "1568", "gnis:feature_id": "1515743", "name": "Aeneas Mountain", "natural": "peak", "note": "This summit has at least three obsolete GNIS entries: 1515742, 1528850, and 1522008 (in addition to the current entry: 1515743)"}}, {"name": "Lime Belt", "latitude": 48.5484845, "longitude": -119.5956136, "elevation": 771.0, "source": "osm", "_tags": {"ele": "771", "gnis:feature_id": "1528887", "name": "Lime Belt", "natural": "peak", "wikidata": "Q49044221"}}, {"name": "Disappointment", "latitude": 48.9618213, "longitude": -119.8164708, "elevation": 2175.0, "source": "osm", "_tags": {"ele": "2175", "gnis:feature_id": "1528908", "name": "Disappointment", "natural": "peak", "wikidata": "Q49024976", "wikipedia": "ceb:Disappointment"}}, {"name": "Wright Mountain", "latitude": 48.4326498, "longitude": -119.6947831, "elevation": 1313.0, "source": "osm", "_tags": {"ele": "1313", "gnis:feature_id": "1529119", "name": "Wright Mountain", "natural": "peak", "wikidata": "Q49091067", "wikipedia": "ceb:Wright Mountain (bukid sa Tinipong Bansa, Washington, Okanogan County)"}}, {"name": "Three Buttes", "latitude": 48.4384636, "longitude": -119.5604796, "elevation": 443.0, "source": "osm", "_tags": {"ele": "443", "gnis:feature_id": "1529122", "name": "Three Buttes", "natural": "peak", "wikidata": "Q49083352", "wikipedia": "ceb:Three Buttes (bukid sa Tinipong Bansa, Washington, Okanogan County, lat 48,44, long -119,56)"}}, {"name": "Mount Olive", "latitude": 48.4957083, "longitude": -119.5158838, "elevation": 473.0, "source": "osm", "_tags": {"ele": "473", "gnis:feature_id": "1529125", "name": "Mount Olive", "natural": "peak", "wikidata": "Q49053873"}}, {"name": "Glover Mountain", "latitude": 48.3882066, "longitude": -119.5800536, "elevation": 483.0, "source": "osm", "_tags": {"ele": "483", "gnis:feature_id": "1529137", "name": "Glover Mountain", "natural": "peak", "wikidata": "Q49031702", "wikipedia": "ceb:Glover Mountain (bukid sa Tinipong Bansa, Washington)"}}, {"name": "Rattlesnake Point", "latitude": 48.2548713, "longitude": -119.753674, "elevation": 736.0, "source": "osm", "_tags": {"ele": "736", "gnis:feature_id": "1529351", "name": "Rattlesnake Point", "natural": "peak"}}, {"name": "Harris Mountain", "latitude": 48.344039, "longitude": -119.6522798, "elevation": 727.0, "source": "osm", "_tags": {"ele": "727", "gnis:feature_id": "1529671", "name": "Harris Mountain", "natural": "peak", "wikidata": "Q49035087", "wikipedia": "ceb:Harris Mountain (bukid sa Tinipong Bansa, Washington)"}}, {"name": "Mulcahy Mountain", "latitude": 48.9132104, "longitude": -119.5706284, "elevation": 1315.0, "source": "osm", "_tags": {"ele": "1315", "gnis:feature_id": "1529746", "name": "Mulcahy Mountain", "natural": "peak", "wikidata": "Q49055629"}}, {"name": "Juniper Point", "latitude": 48.8687632, "longitude": -119.7603559, "elevation": 1251.0, "source": "osm", "_tags": {"ele": "1251", "gnis:feature_id": "1529971", "name": "Juniper Point", "natural": "peak", "wikidata": "Q49040481"}}, {"name": "Spirit Peak", "latitude": 48.2656974, "longitude": -120.3784237, "elevation": 2396.0, "source": "osm", "_tags": {"ele": "2396", "gnis:feature_id": "1529980", "name": "Spirit Peak", "natural": "peak", "wikidata": "Q49076445"}}, {"name": "Douglas Mountain", "latitude": 48.7618157, "longitude": -119.7106293, "elevation": 1615.0, "source": "osm", "_tags": {"ele": "1615", "gnis:feature_id": "1531440", "name": "Douglas Mountain", "natural": "peak", "wikidata": "Q28056260", "wikipedia": "en:Douglas Mountain (Washington)"}}, {"name": "Short Mountain", "latitude": 48.5545969, "longitude": -119.5097757, "elevation": 613.0, "source": "osm", "_tags": {"ele": "613", "gnis:feature_id": "1531511", "name": "Short Mountain", "natural": "peak", "wikidata": "Q49073503"}}, {"name": "Silver Hill", "latitude": 48.5512604, "longitude": -119.7192319, "elevation": 968.0, "source": "osm", "_tags": {"ele": "968", "gnis:feature_id": "1531523", "name": "Silver Hill", "natural": "peak", "wikidata": "Q49073916", "wikipedia": "ceb:Silver Hill (bukid sa Tinipong Bansa, Washington, Okanogan County)"}}, {"name": "Whisky Mountain", "latitude": 48.8279329, "longitude": -119.4647876, "elevation": 869.0, "source": "osm", "_tags": {"ele": "869", "gnis:feature_id": "1533516", "name": "Whisky Mountain", "natural": "peak", "wikidata": "Q49089077"}}, {"name": "Mount Ewart", "latitude": 49.0075963, "longitude": -120.1692789, "elevation": 2411.0, "source": "osm", "_tags": {"ele": "2411", "name": "Mount Ewart", "natural": "peak", "source": "NRCan-CanVec-7.0"}}, {"name": "The Deacon", "latitude": 49.0063164, "longitude": -120.1891764, "elevation": 2553.0, "source": "osm", "_tags": {"ele": "2553", "name": "The Deacon", "natural": "peak", "source": "NRCan-CanVec-7.0", "wikidata": "Q22701207"}}, {"name": "Orthodox Mountain", "latitude": 49.0102963, "longitude": -120.2057086, "elevation": 2496.0, "source": "osm", "_tags": {"ele": "2496", "name": "Orthodox Mountain", "natural": "peak", "source": "NRCan-CanVec-7.0"}}, {"name": "Coyote Point", "latitude": 48.5252591, "longitude": -119.5379193, "elevation": 637.0, "source": "osm", "_tags": {"ele": "637", "name": "Coyote Point", "natural": "peak"}}, {"name": "Rambo", "latitude": 48.9892976, "longitude": -120.2222309, "elevation": 2143.0, "source": "osm", "_tags": {"ele": "2143", "name": "Rambo", "natural": "peak"}}, {"name": "", "latitude": 48.9748183, "longitude": -120.0327386, "elevation": 2166.0, "source": "osm", "_tags": {"ele": "2166", "natural": "peak"}}, {"name": "Horsethief Basin", "latitude": 48.1504807, "longitude": -120.3692176, "elevation": null, "source": "osm", "_tags": {"name": "Horsethief Basin", "natural": "peak"}}, {"name": "Copper Mountain", "latitude": 48.9513958, "longitude": -119.451217, "elevation": null, "source": "osm", "_tags": {"name": "Copper Mountain", "natural": "peak", "source": "USGS"}}, {"name": "Lightning Creek Ridge", "latitude": 48.4396205, "longitude": -120.0094167, "elevation": null, "source": "osm", "_tags": {"name": "Lightning Creek Ridge", "natural": "peak"}}, {"name": "", "latitude": 48.9694255, "longitude": -120.1920733, "elevation": 2520.0, "source": "osm", "_tags": {"ele": "2520", "natural": "peak"}}, {"name": "", "latitude": 48.9777216, "longitude": -120.2028665, "elevation": 2515.0, "source": "osm", "_tags": {"ele": "2515", "natural": "peak"}}, {"name": "The Pope", "latitude": 48.996662, "longitude": -120.1811669, "elevation": 2519.0, "source": "osm", "_tags": {"alt_name": "Monument 95 Peak", "ele": "2519", "name": "The Pope", "natural": "peak"}}, {"name": "", "latitude": 48.663105, "longitude": -119.8900867, "elevation": 1961.4, "source": "osm", "_tags": {"ele": "1961.4", "natural": "peak"}}, {"name": "", "latitude": 48.6364254, "longitude": -119.9252343, "elevation": 2315.9, "source": "osm", "_tags": {"ele": "2315.9", "natural": "peak"}}, {"name": "Chiliwist Butte", "latitude": 48.3150252, "longitude": -119.7538948, "elevation": 958.0, "source": "osm", "_tags": {"ele": "958", "gnis:feature_id": "1517703", "name": "Chiliwist Butte", "natural": "peak", "wikidata": "Q49020201", "wikipedia": "ceb:Chiliwist Butte"}}, {"name": "", "latitude": 48.2941366, "longitude": -119.750011, "elevation": 848.0, "source": "osm", "_tags": {"ele": "848", "natural": "peak"}}, {"name": "", "latitude": 48.2980409, "longitude": -119.7452689, "elevation": 900.0, "source": "osm", "_tags": {"ele": "900", "natural": "peak"}}, {"name": "", "latitude": 48.3029512, "longitude": -119.7485733, "elevation": 938.0, "source": "osm", "_tags": {"ele": "938", "natural": "peak"}}, {"name": "", "latitude": 48.4334932, "longitude": -119.5566666, "elevation": 442.0, "source": "osm", "_tags": {"ele": "442", "natural": "peak"}}, {"name": "", "latitude": 48.4350379, "longitude": -119.5547676, "elevation": 433.0, "source": "osm", "_tags": {"ele": "433", "natural": "peak"}}, {"name": "Twin Peaks (East Peak)", "latitude": 48.7155017, "longitude": -119.7438741, "elevation": 1614.0, "source": "osm", "_tags": {"ele": "1614", "name": "Twin Peaks (East Peak)", "natural": "peak"}}, {"name": "", "latitude": 48.6124839, "longitude": -119.8678136, "elevation": 1896.8, "source": "osm", "_tags": {"ele": "1896.8", "natural": "peak"}}, {"name": "", "latitude": 48.0577292, "longitude": -120.1308786, "elevation": 1665.732, "source": "osm", "_tags": {"ele": "1665.732", "natural": "peak"}}, {"name": "Switchback Mountain", "latitude": 48.1756163, "longitude": -120.3582058, "elevation": 2536.0, "source": "osm", "_tags": {"ele": "2536", "name": "Switchback Mountain", "natural": "peak", "wikidata": "Q96407232", "wikipedia": "en:Switchback Peak"}}, {"name": "Raven Ridge", "latitude": 48.2379056, "longitude": -120.3318487, "elevation": null, "source": "osm", "_tags": {"name": "Raven Ridge", "natural": "peak", "wikidata": "Q49695913", "wikipedia": "en:Raven Ridge (Washington)"}}, {"name": "Armstrong Mountain Northwest", "latitude": 49.0010406, "longitude": -119.945249, "elevation": 2425.0, "source": "osm", "_tags": {"ele": "2425", "name": "Armstrong Mountain Northwest", "natural": "peak"}}, {"name": "", "latitude": 49.0027787, "longitude": -119.9798411, "elevation": 2323.0, "source": "osm", "_tags": {"ele": "2323", "natural": "peak"}}, {"name": "", "latitude": 48.9963508, "longitude": -119.9729166, "elevation": 2395.0, "source": "osm", "_tags": {"ele": "2395", "natural": "peak"}}, {"name": "Armstrong Mountain", "latitude": 48.9979112, "longitude": -119.9390986, "elevation": 2481.0, "source": "osm", "_tags": {"ele": "2481", "name": "Armstrong Mountain", "natural": "peak"}}, {"name": "", "latitude": 48.9813676, "longitude": -120.0254651, "elevation": 2197.0, "source": "osm", "_tags": {"ele": "2197", "natural": "peak"}}, {"name": "", "latitude": 48.981361, "longitude": -119.9888514, "elevation": 2152.0, "source": "osm", "_tags": {"ele": "2152", "natural": "peak"}}, {"name": "", "latitude": 48.9929393, "longitude": -120.0404693, "elevation": 2133.0, "source": "osm", "_tags": {"ele": "2133", "natural": "peak"}}, {"name": "", "latitude": 48.9889633, "longitude": -120.0653545, "elevation": 2195.0, "source": "osm", "_tags": {"ele": "2195", "natural": "peak"}}, {"name": "", "latitude": 48.9842598, "longitude": -120.0528706, "elevation": 2263.0, "source": "osm", "_tags": {"ele": "2263", "natural": "peak"}}, {"name": "", "latitude": 48.9708085, "longitude": -120.0595048, "elevation": 2416.0, "source": "osm", "_tags": {"ele": "2416", "natural": "peak"}}, {"name": "", "latitude": 48.9790324, "longitude": -120.0835846, "elevation": 2183.0, "source": "osm", "_tags": {"ele": "2183", "natural": "peak"}}, {"name": "", "latitude": 48.9771147, "longitude": -120.0667058, "elevation": 2452.0, "source": "osm", "_tags": {"ele": "2452", "natural": "peak"}}]