[{"name": "Canis Peak", "latitude": 50.0645256, "longitude": -115.4201316, "elevation": 2720.0, "source": "osm", "_tags": {"ele": "2720", "name": "Canis Peak", "natural": "peak"}}, {"name": "Lussier Peak", "latitude": 50.0852966, "longitude": -115.7138442, "elevation": 1888.0, "source": "osm", "_tags": {"ele": "1888", "name": "Lussier Peak", "natural": "peak"}}, {"name": "McLean Peak", "latitude": 50.0439, "longitude": -115.5636, "elevation": 2499.0, "source": "osm", "_tags": {"ele": "2499", "name": "McLean Peak", "natural": "peak"}}, {"name": "Melvin Peak", "latitude": 50.0789418, "longitude": -115.4344225, "elevation": 2667.0, "source": "osm", "_tags": {"ele": "2667", "name": "Melvin Peak", "natural": "peak"}}, {"name": "Shark Tooth Mountain", "latitude": 50.0806, "longitude": -115.5833, "elevation": 2423.0, "source": "osm", "_tags": {"ele": "2423", "name": "Shark Tooth Mountain", "natural": "peak"}}, {"name": "Blue Knight Peak", "latitude": 50.1740455, "longitude": -115.5475044, "elevation": 2623.0, "source": "osm", "_tags": {"ele": "2623", "name": "Blue Knight Peak", "natural": "peak"}}, {"name": "Edwards Peak", "latitude": 50.2056312, "longitude": -115.5746269, "elevation": 2532.0, "source": "osm", "_tags": {"ele": "2532", "name": "Edwards Peak", "natural": "peak"}}, {"name": "Fairmont Mountain", "latitude": 50.305424, "longitude": -115.7823559, "elevation": 2620.0, "source": "osm", "_tags": {"ele": "2620", "name": "Fairmont Mountain", "natural": "peak"}}, {"name": "Fairmont Ridge", "latitude": 50.3434753, "longitude": -115.7816505, "elevation": 2650.0, "source": "osm", "_tags": {"ele": "2650", "name": "Fairmont Ridge", "natural": "peak"}}, {"name": "Franklin Peaks", "latitude": 50.3791412, "longitude": -115.408772, "elevation": 2892.0, "source": "osm", "_tags": {"ele": "2892", "name": "Franklin Peaks", "natural": "peak"}}, {"name": "Indian Head Mountain", "latitude": 50.3970153, "longitude": -115.7838469, "elevation": 2697.0, "source": "osm", "_tags": {"ele": "2697", "name": "Indian Head Mountain", "natural": "peak"}}, {"name": "Mount De Smet", "latitude": 50.215, "longitude": -115.7536, "elevation": 2149.0, "source": "osm", "_tags": {"ele": "2149", "name": "Mount De Smet", "natural": "peak"}}, {"name": "Mount Dorman", "latitude": 50.2846163, "longitude": -115.4262445, "elevation": 2798.0, "source": "osm", "_tags": {"ele": "2798", "name": "Mount Dorman", "natural": "peak"}}, {"name": "Mount Glenn", "latitude": 50.2189, "longitude": -115.6478, "elevation": 2240.0, "source": "osm", "_tags": {"ele": "2240", "name": "Mount Glenn", "natural": "peak"}}, {"name": "Mount Grainger", "latitude": 50.1731, "longitude": -115.7236, "elevation": 1804.0, "source": "osm", "_tags": {"ele": "1804", "name": "Mount Grainger", "natural": "peak"}}, {"name": "Mount Pedley", "latitude": 50.3986, "longitude": -115.7308, "elevation": 2545.0, "source": "osm", "_tags": {"ele": "2545", "name": "Mount Pedley", "natural": "peak"}}, {"name": "Mount Sabine", "latitude": 50.1756, "longitude": -115.7917, "elevation": 1600.0, "source": "osm", "_tags": {"ele": "1600", "name": "Mount Sabine", "natural": "peak"}}, {"name": "Mount Stuart", "latitude": 50.4011, "longitude": -115.5031, "elevation": 2671.0, "source": "osm", "_tags": {"ele": "2671", "name": "Mount Stuart", "natural": "peak"}}, {"name": "Nappe Mountain", "latitude": 50.3786659, "longitude": -115.6975364, "elevation": 2451.0, "source": "osm", "_tags": {"ele": "2451", "name": "Nappe Mountain", "natural": "peak"}}, {"name": "White Knight Peak", "latitude": 50.1697, "longitude": -115.54117, "elevation": 2623.0, "source": "osm", "_tags": {"ele": "2623", "name": "White Knight Peak", "natural": "peak"}}, {"name": "Mount Aeneas", "latitude": 50.4269027, "longitude": -115.7835388, "elevation": 2675.0, "source": "osm", "_tags": {"ele": "2675", "name": "Mount Aeneas", "natural": "peak"}}, {"name": "Mount Goldie", "latitude": 50.4148698, "longitude": -116.1725887, "elevation": 2646.0, "source": "osm", "_tags": {"ele": "2646", "name": "Mount Goldie", "natural": "peak"}}, {"name": "Coppercrown Mountain", "latitude": 50.293173, "longitude": -116.3565086, "elevation": 3137.0, "source": "osm", "_tags": {"ele": "3137", "name": "Coppercrown Mountain", "natural": "peak", "source": "NRCan-CanVec-10.0"}}, {"name": "", "latitude": 50.0466764, "longitude": -116.2080351, "elevation": 2870.0, "source": "osm", "_tags": {"ele": "2870", "natural": "peak"}}, {"name": "", "latitude": 50.0772337, "longitude": -116.2093044, "elevation": 2719.0, "source": "osm", "_tags": {"ele": "2719", "natural": "peak"}}, {"name": "", "latitude": 50.1200486, "longitude": -116.3416078, "elevation": 2571.0, "source": "osm", "_tags": {"ele": "2571", "natural": "peak"}}, {"name": "", "latitude": 50.1241071, "longitude": -116.3680651, "elevation": 2632.0, "source": "osm", "_tags": {"ele": "2632", "natural": "peak"}}, {"name": "", "latitude": 50.1279191, "longitude": -116.3913155, "elevation": 2731.0, "source": "osm", "_tags": {"ele": "2731", "natural": "peak"}}, {"name": "Mount Brewer", "latitude": 50.3805489, "longitude": -116.233549, "elevation": 2797.0, "source": "osm", "_tags": {"ele": "2797", "name": "Mount Brewer", "natural": "peak", "source": "NRCan-CanVec-10.0"}}, {"name": "Mount Abel", "latitude": 50.2954012, "longitude": -116.2054752, "elevation": 2743.0, "source": "osm", "_tags": {"ele": "2743", "name": "Mount Abel", "natural": "peak", "source": "NRCan-CanVec-10.0"}}, {"name": "", "latitude": 50.3665298, "longitude": -116.2326479, "elevation": 2628.0, "source": "osm", "_tags": {"ele": "2628", "natural": "peak"}}, {"name": "", "latitude": 50.3549764, "longitude": -116.2281203, "elevation": 2580.0, "source": "osm", "_tags": {"ele": "2580", "natural": "peak"}}, {"name": "Franklin NW5.9", "latitude": 50.4262241, "longitude": -115.4311979, "elevation": 2720.0, "source": "osm", "_tags": {"ele": "2720", "name": "Franklin NW5.9", "natural": "peak", "source": "Rockies South - David Jones"}}, {"name": "Franklin NW3.6", "latitude": 50.4081035, "longitude": -115.4288717, "elevation": 2837.0, "source": "osm", "_tags": {"ele": "2837", "name": "Franklin NW3.6", "natural": "peak", "source": "Rockies South - David Jones"}}, {"name": "Mount Dorman NW1.5", "latitude": 50.2944089, "longitude": -115.4415074, "elevation": 2654.0, "source": "osm", "_tags": {"ele": "2654", "name": "Mount Dorman NW1.5", "natural": "peak", "source": "Rockies South - David Jones"}}, {"name": "Mount Dorman NW0.6", "latitude": 50.2901591, "longitude": -115.4354088, "elevation": 2760.0, "source": "osm", "_tags": {"ele": "2760", "name": "Mount Dorman NW0.6", "natural": "peak", "source": "Rockies South - David Jones"}}]