[{"name": "Soum de Layens", "latitude": 43.024758, "longitude": -0.6559539, "elevation": 1625.0, "source": "osm", "_tags": {"ele": "1625", "name": "Soum de Layens", "name:oc": "Lo Laiens", "natural": "peak", "source:name:oc": "Lo Congrès", "summit:cross": "no", "summit:register": "no"}}, {"name": "Le Lurien", "latitude": 42.857275, "longitude": -0.3503721, "elevation": 2826.0, "source": "osm", "_tags": {"ele": "2826", "name": "Le Lurien", "name:oc": "Lo Lurien", "natural": "peak", "prominence": "574", "source:name:oc": "Lo Congrès", "source:prominence": "IGN map. Key col: Col d’Arrious 2252"}}, {"name": "Pic d'Anie", "latitude": 42.9442932, "longitude": -0.7206725, "elevation": 2504.0, "source": "osm", "_tags": {"ele": "2504", "name": "Pic d'Anie", "name:es": "Auñamendi", "name:eu": "Auñamendi", "name:fr": "Pic d'Anie", "name:oc": "Pic d'Ania", "natural": "peak", "prominence": "841", "source:name:oc": "Lo Congrès", "source:prominence": "CNIG map. Key col: Pas d’Escalé 1663m", "wikidata": "Q2030914", "wikipedia": "ca:Pic d'Anie"}}, {"name": "Pic du Moulle de Jaüt", "latitude": 43.0257512, "longitude": -0.3418939, "elevation": 2050.0, "source": "osm", "_tags": {"ele": "2050", "name": "Pic du Moulle de Jaüt", "name:oc": "Pic de la Mòla de Jaut", "natural": "peak", "source:name:oc": "Lo Congrès"}}, {"name": "Orhi", "latitude": 42.9885511, "longitude": -1.0061019, "elevation": 2017.0, "source": "osm", "_tags": {"description": "Borne en ciment gravée IGN et 1948, recouverte d'un socle et d'un pilier cylindrique en béton - Support en mauvais état, point exploitable en 2004", "ele": "2017", "man_made": "survey_point", "name": "Orhi", "name:es": "Monte Ori", "name:eu": "Orhi mendia", "name:fr": "Pic d'Orhy", "natural": "peak", "note": "Ne pas déplacer ce point, cf. - Do not move this node, see - http://wiki.openstreetmap.org/wiki/WikiProject_France/Repères_Géodésiques#Permanence_des_repères", "note:2": "Keep the bilingual name (es+fr) on this boundary node", "prominence": "601", "ref": "6431601 - 1", "source": "©IGN 2010 dans le cadre de la cartographie réglementaire", "url": "http://geodesie.ign.fr/fiches/index.php?module=e&action=fichepdf&source=carte&sit_no=6431601", "wikidata": "Q2030404"}}, {"name": "Trône du Roi", "latitude": 43.0626546, "longitude": -0.6323152, "elevation": 1266.0, "source": "osm", "_tags": {"ele": "1266", "name": "Trône du Roi", "name:oc": "Turon d'Aurey", "natural": "peak", "source:name:oc": "ieo-bdtopoc"}}, {"name": "Pic du Cabaliros", "latitude": 42.9300027, "longitude": -0.1259194, "elevation": 2334.0, "source": "osm", "_tags": {"ele": "2334", "name": "Pic du Cabaliros", "natural": "peak", "wikidata": "Q4206516"}}, {"name": "Punta dero Cuello", "latitude": 42.8379968, "longitude": -0.3459861, "elevation": 2611.0, "source": "osm", "_tags": {"ele": "2611", "name": "Punta dero Cuello", "name:oc": "Punta deu Còth", "natural": "peak", "source:name:oc": "Lo Congrès"}}, {"name": "Pic de Batcoubou ou de Batbielh", "latitude": 42.8682199, "longitude": -0.3067893, "elevation": 2650.0, "source": "osm", "_tags": {"ele": "2650", "name": "Pic de Batcoubou ou de Batbielh", "name:oc": "Pic de la Vath Bocau", "natural": "peak", "source:name:oc": "Lo Congrès"}}, {"name": "Géougue d'Arre", "latitude": 42.917093, "longitude": -0.3272334, "elevation": 2619.0, "source": "osm", "_tags": {"ele": "2619", "name": "Géougue d'Arre", "name:oc": "Gèuga d'Arra", "natural": "peak", "prominence": "266", "source:name:oc": "Lo Congrès", "source:prominence": "IGN map. Key col: Col d’Ausseilla 2353m"}}, {"name": "Marti Peyras", "latitude": 43.0632774, "longitude": -0.1980416, "elevation": 1464.0, "source": "osm", "_tags": {"ele": "1464", "name": "Marti Peyras", "name:oc": "Martin - Peiràs", "natural": "peak", "source:name:oc": "Lo Congrès"}}, {"name": "Les Toupiettes", "latitude": 43.0818462, "longitude": -0.189114, "elevation": 1357.0, "source": "osm", "_tags": {"ele": "1357", "name": "Les Toupiettes", "name:oc": "Las Topietas", "natural": "peak", "source:name:oc": "Lo Congrès"}}, {"name": "Pic du Balaïtous", "latitude": 42.8389387, "longitude": -0.290257, "elevation": 3146.0, "source": "osm", "_tags": {"alt_name:ca": "Baletous;Marmuré", "alt_name:es": "Gran Marmuré;Pico de los Morros", "alt_name:fr": "Casterrille;Balaïtous;Balétous;Bat-Laetouse;Batlaytouse;Pic des Baïletous;Badescure;Grand Pic;Pic Qui Marmure;Pic Qui Murmure;Murmuré;Mur-Muré;Montagne de La Bassa", "alt_name:la": "Bat-Laetouse", "alt_name:oc": "Maumuret;Costerilhon;Som de Seuba", "ele": "3146", "name": "Pic du Balaïtous", "name:an": "Pico Moros/Balaitús", "name:es": "Pico Balaitús", "name:eu": "Balaitus", "name:fr": "Pic du Balaïtous", "name:oc": "Pic de Vath Laitós", "name:pl": "Balaitus", "natural": "peak", "official_name": "Pico Moros / Balaitús", "prominence": "851", "source:name:oc": "ieo-bdtopoc", "source:prominence": "3146-2295 (Port de la Peyre Saint Martin)", "wikidata": "Q2298456", "wikipedia": "es:Pico Balaitús"}}, {"name": "Pic Palas", "latitude": 42.8494134, "longitude": -0.3132716, "elevation": 2974.0, "source": "osm", "_tags": {"ele": "2974", "name": "Pic Palas", "name:an": "Pico Palas", "name:oc": "Pic Palàs", "natural": "peak", "prominence": "401", "source:name:oc": "Lo Congrès", "source:prominence": "CNIG map. Key col: Pasos de la Barana 2573", "wikidata": "Q3382327", "wikipedia": "fr:Pic Palas"}}, {"name": "Petit Pic d'Arriel - Pequeño Arriel", "latitude": 42.8380917, "longitude": -0.3350993, "elevation": 2683.0, "source": "osm", "_tags": {"ele": "2683", "name": "Petit Pic d'Arriel - Pequeño Arriel", "name:es": "Pequeño Arriel", "name:fr": "Petit Pic d'Arriel", "name:oc": "Picòt d'Arriel - Pequeño Arriel", "natural": "peak", "source:name:oc": "Lo Congrès"}}, {"name": "Pic de la Lie", "latitude": 42.8660975, "longitude": -0.3096539, "elevation": 2676.0, "source": "osm", "_tags": {"ele": "2676", "name": "Pic de la Lie", "name:oc": "Pic de la Lia", "natural": "peak", "source:name:oc": "Lo Congrès"}}, {"name": "Pic de Pèneblangue d'Esque", "latitude": 42.9524166, "longitude": -0.6037206, "elevation": null, "source": "osm", "_tags": {"name": "Pic de Pèneblangue d'Esque", "name:oc": "Pic dera Pena Blanga d'Esca", "natural": "peak", "source:name:oc": "Lo Congrès"}}, {"name": "Pic d'Eltzarré", "latitude": 43.1303157, "longitude": -1.0126005, "elevation": 1153.0, "source": "osm", "_tags": {"comment": "IGN Elsarré avec erreur de sifflante", "ele": "1153", "name": "Pic d'Eltzarré", "name:eu": "Eltzarre", "natural": "peak", "note": "same radical as Eltzarruze", "old_name": "Elçarré"}}, {"name": "Céberi", "latitude": 43.0936661, "longitude": -0.2122265, "elevation": 891.0, "source": "osm", "_tags": {"ele": "891", "name": "Céberi", "name:oc": "Lo Ceberin", "natural": "peak", "source:name:oc": "Lo Congrès"}}, {"name": "Table de Souperret", "latitude": 42.8679747, "longitude": -0.6285492, "elevation": 2116.0, "source": "osm", "_tags": {"ele": "2116", "name": "Table de Souperret", "name:oc": "Taula deth Souperet", "natural": "peak", "source:name:oc": "Lo Congrès"}}, {"name": "Pic du Grand Jer", "latitude": 43.0800593, "longitude": -0.0310102, "elevation": 950.0, "source": "osm", "_tags": {"ele": "950", "name": "Pic du Grand Jer", "natural": "peak", "source": "cadastre-dgi-fr source : Direction Générale des Impôts - Cadastre ; mise à jour : 2009"}}, {"name": "", "latitude": 43.05405, "longitude": -0.5181559, "elevation": 1794.0, "source": "osm", "_tags": {"ele": "1794", "natural": "peak"}}, {"name": "Rocher d'Aran", "latitude": 43.0495699, "longitude": -0.5086227, "elevation": 1796.0, "source": "osm", "_tags": {"ele": "1796", "name": "Rocher d'Aran", "name:oc": "Pic d'Aran", "natural": "peak", "source:name:oc": "Lo Congrès"}}, {"name": "Sommet de l'Ourlenotte", "latitude": 43.0528743, "longitude": -0.5147291, "elevation": 1806.0, "source": "osm", "_tags": {"ele": "1806", "name": "Sommet de l'Ourlenotte", "name:oc": "Som der' Orlenòta", "natural": "peak", "source:name:oc": "Lo Congrès"}}, {"name": "Pic de l'Ourlène", "latitude": 43.05593, "longitude": -0.5235902, "elevation": 1813.0, "source": "osm", "_tags": {"ele": "1813", "name": "Pic de l'Ourlène", "name:oc": "Pic de l'Orlena", "natural": "peak", "source:name:oc": "Lo Congrès"}}, {"name": "Soum de Grum", "latitude": 42.8854283, "longitude": -0.1801805, "elevation": 2657.0, "source": "osm", "_tags": {"ele": "2657", "name": "Soum de Grum", "natural": "peak", "source": "cadastre-dgi-fr source : Direction Générale des Impôts - Cadastre. Mise à jour : 2009"}}, {"name": "Soum de Mauloc", "latitude": 42.8766758, "longitude": -0.1579843, "elevation": 2074.0, "source": "osm", "_tags": {"ele": "2074", "name": "Soum de Mauloc", "natural": "peak", "source": "cadastre-dgi-fr source : Direction Générale des Impôts - Cadastre. Mise à jour : 2009"}}, {"name": "Pic de Cattarabe", "latitude": 42.8960245, "longitude": -0.1622945, "elevation": 2637.0, "source": "osm", "_tags": {"ele": "2637", "name": "Pic de Cattarabe", "natural": "peak", "source": "cadastre-dgi-fr source : Direction Générale des Impôts - Cadastre. Mise à jour : 2009"}}, {"name": "Pic de Liou", "latitude": 42.8978674, "longitude": -0.1619023, "elevation": 2565.0, "source": "osm", "_tags": {"ele": "2565", "name": "Pic de Liou", "natural": "peak", "source": "cadastre-dgi-fr source : Direction Générale des Impôts - Cadastre. Mise à jour : 2009"}}, {"name": "Pic Wilson", "latitude": 42.9057739, "longitude": -0.1591856, "elevation": 2400.0, "source": "osm", "_tags": {"alt_name": "Soum de Coche", "ele": "2400", "name": "Pic Wilson", "natural": "peak", "source": "cadastre-dgi-fr source : Direction Générale des Impôts - Cadastre. Mise à jour : 2009"}}, {"name": "Soum de Coume Grane", "latitude": 42.9071376, "longitude": -0.1586115, "elevation": 2382.0, "source": "osm", "_tags": {"ele": "2382", "name": "Soum de Coume Grane", "natural": "peak", "source": "cadastre-dgi-fr source : Direction Générale des Impôts - Cadastre. Mise à jour : 2009"}}, {"name": "Soum d'Arraillérouy", "latitude": 42.9112438, "longitude": -0.1575406, "elevation": 2361.0, "source": "osm", "_tags": {"ele": "2361", "name": "Soum d'Arraillérouy", "natural": "peak", "source": "cadastre-dgi-fr source : Direction Générale des Impôts - Cadastre. Mise à jour : 2009"}}, {"name": "Soum d'Ech", "latitude": 43.0894545, "longitude": -0.0891986, "elevation": 913.0, "source": "osm", "_tags": {"ele": "913", "name": "Soum d'Ech", "natural": "peak"}}, {"name": "Béout", "latitude": 43.0859906, "longitude": -0.0680737, "elevation": 792.0, "source": "osm", "_tags": {"ele": "792", "name": "Béout", "natural": "peak"}}, {"name": "", "latitude": 43.0830866, "longitude": -0.0605708, "elevation": 719.0, "source": "osm", "_tags": {"ele": "719", "natural": "peak"}}, {"name": "Aguja Cadier", "latitude": 42.83432, "longitude": -0.2898718, "elevation": 3022.0, "source": "osm", "_tags": {"ele": "3022", "name": "Aguja Cadier", "name:an": "Punda dera Breca", "name:ca": "Agulla Cadier", "name:eu": "Cadier Orratza", "natural": "peak", "official_name": "Punda dera Breca", "wikidata": "Q11904357"}}, {"name": "Aiguille Lamathe", "latitude": 42.8411006, "longitude": -0.2915026, "elevation": 2931.0, "source": "osm", "_tags": {"ele": "2931", "name": "Aiguille Lamathe", "natural": "peak"}}, {"name": "Agulla d'Ussel", "latitude": 42.8376244, "longitude": -0.2841643, "elevation": 3022.0, "source": "osm", "_tags": {"ele": "3022", "name": "Agulla d'Ussel", "name:an": "Agulla d'Ussel", "name:es": "Aguja D'Ussel", "name:fr": "Aiguille d'Ussel", "natural": "peak", "official_name": "Agulla d'Ussel"}}, {"name": "Demeure Lagarat", "latitude": 42.8283763, "longitude": -0.2747656, "elevation": 2890.0, "source": "osm", "_tags": {"ele": "2890", "name": "Demeure Lagarat", "natural": "peak"}}, {"name": "Cuernos Del Diablo", "latitude": 42.8306078, "longitude": -0.2755381, "elevation": null, "source": "osm", "_tags": {"name": "Cuernos Del Diablo", "natural": "peak"}}, {"name": "Demeure Soulé", "latitude": 42.8344693, "longitude": -0.2760935, "elevation": 2931.0, "source": "osm", "_tags": {"ele": "2931", "name": "Demeure Soulé", "natural": "peak"}}, {"name": "Frondella SW", "latitude": 42.8285479, "longitude": -0.2975106, "elevation": 2992.0, "source": "osm", "_tags": {"ele": "2992", "name": "Frondella SW", "natural": "peak", "wikidata": "Q17584193"}}, {"name": "Frondella", "latitude": 42.8321527, "longitude": -0.2928759, "elevation": 3055.0, "source": "osm", "_tags": {"ele": "3055", "name": "Frondella", "natural": "peak"}}, {"name": "Peyregnets de Cambalès", "latitude": 42.8329467, "longitude": -0.2439308, "elevation": 2822.0, "source": "osm", "_tags": {"ele": "2822", "name": "Peyregnets de Cambalès", "natural": "peak"}}, {"name": "Pico d'Arriel / Punta dero Saldiecho", "latitude": 42.834117, "longitude": -0.3312968, "elevation": 2824.0, "source": "osm", "_tags": {"ele": "2824", "name": "Pico d'Arriel / Punta dero Saldiecho", "name:an": "Pico d'Arriel / Punta dero Saldiecho", "name:es": "Pico de Arriel", "name:fr": "Pic d'Arriel", "name:oc": "Pico d'Arriel", "natural": "peak", "prominence": "378", "source:name:oc": "Lo Congrès", "source:prominence": "CNIG map. Key col: Col d’Arrémoulit 2446", "wikidata": "Q3382351", "wikipedia": "fr:Pic d'Arriel"}}, {"name": "Punda Alta deras Frondiellas", "latitude": 42.8330662, "longitude": -0.2903135, "elevation": 3071.0, "source": "osm", "_tags": {"ele": "3071", "name": "Punda Alta deras Frondiellas", "name:an": "Punda Alta deras Frondiellas", "name:es": "Pico de la Frondella", "natural": "peak"}}, {"name": "Pico de Soba", "latitude": 42.8318671, "longitude": -0.3542003, "elevation": 2627.0, "source": "osm", "_tags": {"ele": "2627", "name": "Pico de Soba", "name:fr": "Pic de Sobe", "natural": "peak"}}, {"name": "Pico Soulano", "latitude": 42.8332685, "longitude": -0.2755381, "elevation": 2911.0, "source": "osm", "_tags": {"ele": "2911", "name": "Pico Soulano", "natural": "peak"}}, {"name": "Soum de Linsous", "latitude": 42.8402424, "longitude": -0.2482225, "elevation": 2562.0, "source": "osm", "_tags": {"ele": "2562", "name": "Soum de Linsous", "natural": "peak"}}, {"name": "Le Poey", "latitude": 42.9777987, "longitude": -0.5948477, "elevation": 630.0, "source": "osm", "_tags": {"ele": "630", "name": "Le Poey", "name:oc": "Eth Puei", "natural": "peak", "source:name:oc": "Lo Congrès"}}, {"name": "Mailh Agor", "latitude": 43.0084711, "longitude": -0.5792111, "elevation": null, "source": "osm", "_tags": {"name": "Mailh Agor", "name:oc": "Malh Agòr", "natural": "peak", "source:name:oc": "Lo Congrès"}}, {"name": "Pic des Taulères", "latitude": 43.0171045, "longitude": -0.5750718, "elevation": 1565.0, "source": "osm", "_tags": {"ele": "1565", "name": "Pic des Taulères", "name:oc": "Pic deras Taulèras", "natural": "peak", "source:name:oc": "Lo Congrès"}}, {"name": "Cap de la Coste", "latitude": 42.9847196, "longitude": -0.5528135, "elevation": null, "source": "osm", "_tags": {"name": "Cap de la Coste", "name:oc": "Cap dera Còsta", "natural": "peak", "source:name:oc": "Lo Congrès"}}, {"name": "Soum de Bergout", "latitude": 42.9814691, "longitude": -0.5711212, "elevation": 1220.0, "source": "osm", "_tags": {"ele": "1220", "name": "Soum de Bergout", "name:oc": "Som de Bergot", "natural": "peak", "source:name:oc": "Lo Congrès"}}, {"name": "Soum de Pétraube", "latitude": 43.0159916, "longitude": -0.5414032, "elevation": 1604.0, "source": "osm", "_tags": {"ele": "1604", "name": "Soum de Pétraube", "name:oc": "Som de Petrauba", "natural": "peak", "source:name:oc": "Lo Congrès"}}, {"name": "Mailh de la Cabille", "latitude": 43.0148145, "longitude": -0.540356, "elevation": null, "source": "osm", "_tags": {"name": "Mailh de la Cabille", "name:oc": "Malh dera Cavilha", "natural": "peak", "source:name:oc": "Lo Congrès"}}, {"name": "Cap de Leuba", "latitude": 43.0175787, "longitude": -0.6281431, "elevation": 1547.0, "source": "osm", "_tags": {"ele": "1547", "information": "guidepost", "name": "Cap de Leuba", "name:oc": "Cap de l'Aubar", "natural": "peak", "source": "survey", "source:name:oc": "Lo Congrès", "tourism": "information"}}, {"name": "Soum de Pirait", "latitude": 42.9971412, "longitude": -0.6477647, "elevation": 1126.0, "source": "osm", "_tags": {"ele": "1126", "name": "Soum de Pirait", "name:oc": "Som de Pirait", "natural": "peak", "source:name:oc": "Lo Congrès"}}, {"name": "Rocher des Chèvres", "latitude": 42.9907923, "longitude": -0.6228206, "elevation": null, "source": "osm", "_tags": {"name": "Rocher des Chèvres", "name:oc": "Malh deras Crapas", "natural": "peak", "source:name:oc": "Lo Congrès"}}, {"name": "Soum du Prat d'Aureilh", "latitude": 43.0425972, "longitude": -0.1348104, "elevation": 1526.0, "source": "osm", "_tags": {"ele": "1526", "name": "Soum du Prat d'Aureilh", "natural": "peak"}}, {"name": "Soum de Mont Né", "latitude": 43.0569202, "longitude": -0.132623, "elevation": 1387.0, "source": "osm", "_tags": {"ele": "1387", "name": "Soum de Mont Né", "natural": "peak"}}, {"name": "La Serre", "latitude": 43.0451695, "longitude": -0.1120244, "elevation": 1417.0, "source": "osm", "_tags": {"ele": "1417", "name": "La Serre", "natural": "peak"}}, {"name": "Soum d'Aserole", "latitude": 43.0598242, "longitude": -0.128199, "elevation": 1369.0, "source": "osm", "_tags": {"ele": "1369", "name": "Soum d'Aserole", "natural": "peak"}}, {"name": "Pène de Souquète", "latitude": 43.0481208, "longitude": -0.0955966, "elevation": 1420.0, "source": "osm", "_tags": {"ele": "1420", "name": "Pène de Souquète", "natural": "peak"}}, {"name": "Pic de Boun", "latitude": 43.052288, "longitude": -0.0894023, "elevation": 1371.0, "source": "osm", "_tags": {"ele": "1371", "name": "Pic de Boun", "natural": "peak"}}, {"name": "Mail d'Arréou", "latitude": 43.0586301, "longitude": -0.0779542, "elevation": 1128.0, "source": "osm", "_tags": {"ele": "1128", "name": "Mail d'Arréou", "natural": "peak"}}, {"name": "Petit Jer", "latitude": 43.0900792, "longitude": -0.0333303, "elevation": 709.0, "source": "osm", "_tags": {"ele": "709", "name": "Petit Jer", "natural": "peak"}}, {"name": "Mailh Nègre", "latitude": 43.0705073, "longitude": -0.1211787, "elevation": 1126.0, "source": "osm", "_tags": {"ele": "1126", "name": "Mailh Nègre", "natural": "peak"}}, {"name": "Mailh Rouy", "latitude": 43.0733773, "longitude": -0.1186214, "elevation": 1138.0, "source": "osm", "_tags": {"ele": "1138", "name": "Mailh Rouy", "natural": "peak"}}, {"name": "Pic de Taulemale", "latitude": 43.0784812, "longitude": -0.1133918, "elevation": 1112.0, "source": "osm", "_tags": {"ele": "1112", "name": "Pic de Taulemale", "natural": "peak"}}, {"name": "Pic du Coussau", "latitude": 43.0789015, "longitude": -0.1070615, "elevation": 1096.0, "source": "osm", "_tags": {"ele": "1096", "name": "Pic du Coussau", "natural": "peak"}}, {"name": "Pelade", "latitude": 43.0841292, "longitude": -0.1096512, "elevation": 973.0, "source": "osm", "_tags": {"ele": "973", "name": "Pelade", "natural": "peak"}}, {"name": "Castet Miu", "latitude": 43.0914841, "longitude": -0.0839704, "elevation": 833.0, "source": "osm", "_tags": {"ele": "833", "name": "Castet Miu", "natural": "peak"}}, {"name": "Turoum Esplat", "latitude": 43.0920882, "longitude": -0.0694036, "elevation": 631.0, "source": "osm", "_tags": {"ele": "631", "name": "Turoum Esplat", "natural": "peak"}}, {"name": "Pic de Monbula", "latitude": 43.0505992, "longitude": -0.2407546, "elevation": 1583.0, "source": "osm", "_tags": {"ele": "1583", "name": "Pic de Monbula", "name:oc": "Lo Mont Bula", "natural": "peak", "source:name:oc": "Lo Congrès"}}, {"name": "", "latitude": 43.0249758, "longitude": -0.2135361, "elevation": 1881.0, "source": "osm", "_tags": {"ele": "1881", "natural": "peak"}}, {"name": "Soum de Granquet", "latitude": 43.0289358, "longitude": -0.2068942, "elevation": 1871.0, "source": "osm", "_tags": {"ele": "1871", "name": "Soum de Granquet", "natural": "peak"}}, {"name": "Escures", "latitude": 43.0326142, "longitude": -0.1978465, "elevation": 1847.0, "source": "osm", "_tags": {"ele": "1847", "name": "Escures", "natural": "peak"}}, {"name": "Soum de Conques", "latitude": 43.0354825, "longitude": -0.1822439, "elevation": 1769.0, "source": "osm", "_tags": {"ele": "1769", "name": "Soum de Conques", "natural": "peak"}}, {"name": "Soum de Moulle", "latitude": 43.0545347, "longitude": -0.1982113, "elevation": 1544.0, "source": "osm", "_tags": {"ele": "1544", "name": "Soum de Moulle", "name:oc": "Som de Mola", "natural": "peak", "source:name:oc": "Lo Congrès"}}, {"name": "Génie Braque", "latitude": 43.0568516, "longitude": -0.1846245, "elevation": 1528.0, "source": "osm", "_tags": {"ele": "1528", "name": "Génie Braque", "natural": "peak"}}, {"name": "Soum d'Andorre", "latitude": 43.0349437, "longitude": -0.1686103, "elevation": 1683.0, "source": "osm", "_tags": {"ele": "1683", "name": "Soum d'Andorre", "natural": "peak"}}, {"name": "Pic de Larbastan", "latitude": 43.062974, "longitude": -0.1711734, "elevation": 1363.0, "source": "osm", "_tags": {"ele": "1363", "name": "Pic de Larbastan", "natural": "peak"}}, {"name": "Pic de Miqueu", "latitude": 43.06011, "longitude": -0.1723904, "elevation": 1464.0, "source": "osm", "_tags": {"ele": "1464", "name": "Pic de Miqueu", "natural": "peak"}}, {"name": "Camp Long", "latitude": 43.0724458, "longitude": -0.2298621, "elevation": 881.0, "source": "osm", "_tags": {"ele": "881", "name": "Camp Long", "name:oc": "Som de Camlong", "natural": "peak", "source:name:oc": "Lo Congrès"}}, {"name": "Castet Oussès", "latitude": 43.0822749, "longitude": -0.2342421, "elevation": 718.0, "source": "osm", "_tags": {"ele": "718", "name": "Castet Oussès", "name:oc": "Lo Castèth Ossés", "natural": "peak", "source:name:oc": "Lo Congrès"}}, {"name": "", "latitude": 43.0748372, "longitude": -0.1973446, "elevation": 1376.0, "source": "osm", "_tags": {"ele": "1376", "natural": "peak"}}, {"name": "Pène de Hèche", "latitude": 43.0780811, "longitude": -0.2089692, "elevation": 1326.0, "source": "osm", "_tags": {"ele": "1326", "name": "Pène de Hèche", "name:oc": "Pena dera Haisha", "natural": "peak", "source:name:oc": "Lo Congrès"}}, {"name": "Soum de Mont Agut", "latitude": 43.0567653, "longitude": -0.087842, "elevation": 1248.0, "source": "osm", "_tags": {"ele": "1248", "name": "Soum de Mont Agut", "natural": "peak"}}, {"name": "Pic de Labigouer", "latitude": 42.8808409, "longitude": -0.6203702, "elevation": 2175.0, "source": "osm", "_tags": {"ele": "2175", "name": "Pic de Labigouer", "name:oc": "Pic de Labigoèr", "natural": "peak", "source:name:oc": "Lo Congrès"}}, {"name": "Bugala", "latitude": 43.0822732, "longitude": -0.6024003, "elevation": null, "source": "osm", "_tags": {"name": "Bugala", "name:oc": "Pic deth Bugalar", "natural": "peak", "source:name:oc": "Lo Congrès"}}, {"name": "Picot de Langlatte", "latitude": 43.0021945, "longitude": -0.631698, "elevation": null, "source": "osm", "_tags": {"name": "Picot de Langlatte", "name:oc": "Picòt de L'Anglata", "natural": "peak", "source:name:oc": "Lo Congrès"}}, {"name": "Sommet de Lazaque", "latitude": 42.8298127, "longitude": -0.5390728, "elevation": null, "source": "osm", "_tags": {"name": "Sommet de Lazaque", "name:oc": "Som de Lasaca", "natural": "peak", "source:name:oc": "Lo Congrès"}}, {"name": "Mailh de l'Ousquère", "latitude": 42.9013898, "longitude": -0.5204546, "elevation": null, "source": "osm", "_tags": {"name": "Mailh de l'Ousquère", "name:oc": "Malh der' Osquèra", "natural": "peak", "source:name:oc": "Lo Congrès"}}, {"name": "Pic Sihigue / Zihiga", "latitude": 43.1155758, "longitude": -1.0204874, "elevation": 1193.0, "source": "osm", "_tags": {"ele": "1193", "name": "Pic Sihigue / Zihiga", "name:eu": "Zihiga", "name:fr": "Pic Sihigue", "natural": "peak"}}, {"name": "Pic de Bergon", "latitude": 42.9690186, "longitude": -0.5287533, "elevation": 2148.0, "source": "osm", "_tags": {"ele": "2148", "name": "Pic de Bergon", "name:oc": "Pic de Bergon", "natural": "peak", "source:name:oc": "Lo Congrès"}}, {"name": "Pic des Moines", "latitude": 42.8292005, "longitude": -0.500401, "elevation": 2349.0, "source": "osm", "_tags": {"ele": "2349", "name": "Pic des Moines", "name:oc": "Pic deths Monges", "natural": "peak", "source:name:oc": "Lo Congrès"}}, {"name": "Pic d'Ayous", "latitude": 42.8543548, "longitude": -0.4908047, "elevation": 2288.0, "source": "osm", "_tags": {"ele": "2288", "name": "Pic d'Ayous", "name:oc": "Pic d'Ayous", "natural": "peak", "source:name:oc": "Lo Congrès"}}, {"name": "Pic Mondragon", "latitude": 43.0282581, "longitude": -0.286082, "elevation": 1716.0, "source": "osm", "_tags": {"ele": "1716", "name": "Pic Mondragon", "name:oc": "Pic Mondragon", "natural": "peak", "source:name:oc": "Lo Congrès"}}, {"name": "Pic de Bareilles", "latitude": 43.000929, "longitude": -0.4729086, "elevation": 1834.0, "source": "osm", "_tags": {"ele": "1834", "name": "Pic de Bareilles", "name:oc": "Pic de Varelhas", "natural": "peak", "source:name:oc": "Lo Congrès"}}, {"name": "Pic de Cézy", "latitude": 42.9227096, "longitude": -0.4109074, "elevation": 2209.0, "source": "osm", "_tags": {"ele": "2209", "name": "Pic de Cézy", "name:oc": "Pic de Cézy", "natural": "peak", "source:name:oc": "Lo Congrès"}}, {"name": "Pic de la Gentiane", "latitude": 42.9702747, "longitude": -0.4593984, "elevation": 1713.0, "source": "osm", "_tags": {"ele": "1713", "name": "Pic de la Gentiane", "name:oc": "Pic de la Gençana", "natural": "peak", "source:name:oc": "Lo Congrès"}}, {"name": "Soum de Grum", "latitude": 42.9852922, "longitude": -0.3406418, "elevation": 1870.0, "source": "osm", "_tags": {"ele": "1870", "name": "Soum de Grum", "name:oc": "Som de Grum", "natural": "peak", "source:name:oc": "Lo Congrès"}}, {"name": "Pic des Taillades", "latitude": 42.9309037, "longitude": -0.2837859, "elevation": 2691.0, "source": "osm", "_tags": {"alt_name": "Grand Gabizos", "ele": "2691", "name": "Pic des Taillades", "natural": "peak", "prominence": "455", "source:prominence": "IGN map. Key col: Col d’Uzious 2236m"}}, {"name": "Pic d'Auzu", "latitude": 43.0063792, "longitude": -0.3898065, "elevation": 1514.0, "source": "osm", "_tags": {"ele": "1514", "name": "Pic d'Auzu", "name:oc": "Pic d'Ausun", "natural": "peak", "source:name:oc": "Lo Congrès"}}, {"name": "Géougue de Tortes", "latitude": 42.9633897, "longitude": -0.3189165, "elevation": 1945.0, "source": "osm", "_tags": {"ele": "1945", "name": "Géougue de Tortes", "name:oc": "Gèuga de Tòrtas", "natural": "peak", "source:name:oc": "Lo Congrès"}}, {"name": "Pic de Bouerzy", "latitude": 42.941188, "longitude": -0.4676841, "elevation": 1750.0, "source": "osm", "_tags": {"ele": "1750", "name": "Pic de Bouerzy", "name:oc": "Pic de Boercía", "natural": "peak", "source:name:oc": "Lo Congrès"}}, {"name": "Pic du Petit Lurien", "latitude": 42.8829216, "longitude": -0.3755373, "elevation": 2358.0, "source": "osm", "_tags": {"ele": "2358", "name": "Pic du Petit Lurien", "name:fr": "Pic du Petit Lurien", "name:oc": "Lo Luriendelh", "natural": "peak", "source:name:oc": "Lo Congrès"}}, {"name": "Le Courouaou", "latitude": 42.8709489, "longitude": -0.2993483, "elevation": 2691.0, "source": "osm", "_tags": {"ele": "2691", "name": "Le Courouaou", "natural": "peak", "prominence": "200", "source:prominence": "IGN map. Key col: Col des Alianes 2491"}}, {"name": "Signal du Gourzy", "latitude": 42.9505095, "longitude": -0.4103684, "elevation": 1826.0, "source": "osm", "_tags": {"ele": "1826", "name": "Signal du Gourzy", "name:oc": "Turon de Gorsin", "natural": "peak", "source:name:oc": "Lo Congrès"}}, {"name": "Pic des Tourettes", "latitude": 42.889453, "longitude": -0.3152519, "elevation": 2771.0, "source": "osm", "_tags": {"ele": "2771", "name": "Pic des Tourettes", "natural": "peak", "prominence": "302", "source:prominence": "IGN map. Key col: Col de la Lie 2469m"}}, {"name": "Pic de Ger", "latitude": 42.9366178, "longitude": -0.3542499, "elevation": 2613.0, "source": "osm", "_tags": {"ele": "2613", "name": "Pic de Ger", "name:oc": "Lo Ger", "natural": "peak", "prominence": "193", "source:name:oc": "Lo Congrès", "source:prominence": "IGN map. Key col: Col de la Pène Blanque 2420m", "wikidata": "Q3382373", "wikipedia": "fr:Pic de Ger"}}, {"name": "Turounet de Lauda", "latitude": 43.0453136, "longitude": -0.3841114, "elevation": 1507.0, "source": "osm", "_tags": {"ele": "1507", "name": "Turounet de Lauda", "name:oc": "Turonet de Laudà", "natural": "peak", "source:name:oc": "Lo Congrès"}}, {"name": "Plaa Dou Soum", "latitude": 43.0322104, "longitude": -0.4506766, "elevation": 1391.0, "source": "osm", "_tags": {"ele": "1391", "name": "Plaa Dou Soum", "name:oc": "Plan deu Som", "natural": "peak", "source:name:oc": "Lo Congrès"}}, {"name": "Pic de Chérue", "latitude": 42.8614406, "longitude": -0.4136371, "elevation": 2198.0, "source": "osm", "_tags": {"ele": "2198", "name": "Pic de Chérue", "name:oc": "Pic de Chérue", "natural": "peak", "source:name:oc": "Lo Congrès"}}, {"name": "Pic de la Sagette", "latitude": 42.8959387, "longitude": -0.4054562, "elevation": 2031.0, "source": "osm", "_tags": {"ele": "2031", "name": "Pic de la Sagette", "name:oc": "Pic de la Sageta", "natural": "peak", "source:name:oc": "Lo Congrès"}}, {"name": "Pic Peyreget", "latitude": 42.8309003, "longitude": -0.4413255, "elevation": 2487.0, "source": "osm", "_tags": {"ele": "2487", "name": "Pic Peyreget", "name:oc": "Pic Peiraget", "natural": "peak", "source:name:oc": "Lo Congrès", "wikidata": "Q31634110"}}, {"name": "Soum de Lagaube", "latitude": 42.8742628, "longitude": -0.5262842, "elevation": 1985.0, "source": "osm", "_tags": {"ele": "1985", "name": "Soum de Lagaube", "name:oc": "Som de La Gauba", "natural": "peak", "source:name:oc": "Lo Congrès"}}, {"name": "Soum d'Aas", "latitude": 42.8802209, "longitude": -0.4885322, "elevation": 2427.0, "source": "osm", "_tags": {"ele": "2427", "name": "Soum d'Aas", "name:oc": "Som d'Aas", "natural": "peak", "source:name:oc": "Lo Congrès"}}, {"name": "Pic Mardas", "latitude": 42.9653817, "longitude": -0.4987499, "elevation": 2188.0, "source": "osm", "_tags": {"ele": "2188", "name": "Pic Mardas", "name:oc": "Pic Mardàs", "natural": "peak", "source:name:oc": "Lo Congrès"}}, {"name": "Montagnon d'Iseye", "latitude": 42.969433, "longitude": -0.4978599, "elevation": 2173.0, "source": "osm", "_tags": {"ele": "2173", "name": "Montagnon d'Iseye", "name:oc": "Montanhon d'Iseia", "natural": "peak", "source:name:oc": "Lo Congrès"}}, {"name": "Pic d'Isabe", "latitude": 42.9285556, "longitude": -0.5079771, "elevation": 2463.0, "source": "osm", "_tags": {"ele": "2463", "name": "Pic d'Isabe", "name:oc": "Pic d'Isabe", "natural": "peak", "source:name:oc": "Lo Congrès"}}, {"name": "L'Escala", "latitude": 42.966127, "longitude": -0.4933608, "elevation": 2076.0, "source": "osm", "_tags": {"ele": "2076", "name": "L'Escala", "name:oc": "Er' Escala", "natural": "peak", "source:name:oc": "Lo Congrès"}}, {"name": "Pic Lasnères", "latitude": 42.9723099, "longitude": -0.4877532, "elevation": 2000.0, "source": "osm", "_tags": {"ele": "2000", "name": "Pic Lasnères", "name:oc": "Las Nèras", "natural": "peak", "source:name:oc": "Lo Congrès"}}, {"name": "L'Escarpu ou Pic de Sesques", "latitude": 42.9191814, "longitude": -0.5037737, "elevation": 2606.0, "source": "osm", "_tags": {"ele": "2606", "name": "L'Escarpu ou Pic de Sesques", "name:oc": "Er Escarpun o Pic deras Sescas", "natural": "peak", "prominence": "523", "source:name:oc": "Lo Congrès", "source:prominence": "IGN map. Key col: Col d’Anéou 2083m"}}, {"name": "Le Dec de Lhurs", "latitude": 42.9154203, "longitude": -0.701921, "elevation": 2176.0, "source": "osm", "_tags": {"ele": "2176", "name": "Le Dec de Lhurs", "name:oc": "Eth Dèc de Lhurs", "natural": "peak", "source:name:oc": "Lo Congrès"}}, {"name": "Arlas", "latitude": 42.9671622, "longitude": -0.7516765, "elevation": 2044.0, "source": "osm", "_tags": {"ele": "2044", "name": "Arlas", "name:eu": "Arlas", "name:fr": "Pic d'Arlas", "name:oc": "Pic d'Arlàs", "natural": "peak", "source:name:oc": "Lo Congrès", "wikidata": "Q2024489", "wikipedia": "eu:Arlas"}}, {"name": "Pic Bricoutou", "latitude": 42.892397, "longitude": -0.659298, "elevation": 1815.0, "source": "osm", "_tags": {"ele": "1815", "name": "Pic Bricoutou", "name:oc": "Pic Bricoton", "natural": "peak", "source:name:oc": "Lo Congrès"}}, {"name": "Pène de Latta", "latitude": 42.8890932, "longitude": -0.5742184, "elevation": 1459.0, "source": "osm", "_tags": {"ele": "1459", "name": "Pène de Latta", "name:oc": "Pena de Lattà", "natural": "peak", "source:name:oc": "Lo Congrès"}}, {"name": "Pic Lariste", "latitude": 42.8846014, "longitude": -0.6787452, "elevation": 2168.0, "source": "osm", "_tags": {"ele": "2168", "name": "Pic Lariste", "name:oc": "Pic Lariste", "natural": "peak", "source:name:oc": "Lo Congrès"}}, {"name": "Arralla de las Foyas", "latitude": 42.8788273, "longitude": -0.6990979, "elevation": 2147.0, "source": "osm", "_tags": {"ele": "2147", "name": "Arralla de las Foyas", "name:an": "A Ralla d'as Foyas", "name:es": "Arralla de las Foyas", "name:fr": "Pic de Laraille", "natural": "peak"}}, {"name": "Pic d'Aillary", "latitude": 42.8426332, "longitude": -0.624688, "elevation": 2215.0, "source": "osm", "_tags": {"ele": "2215", "name": "Pic d'Aillary", "name:oc": "Pic d'Aillary", "natural": "peak", "source:name:oc": "Lo Congrès"}}, {"name": "Pic de Légorre", "latitude": 43.0280716, "longitude": -0.7746648, "elevation": 1359.0, "source": "osm", "_tags": {"ele": "1359", "name": "Pic de Légorre", "name:oc": "Pic de Legorre", "natural": "peak", "source:name:oc": "Lo Congrès"}}, {"name": "Pic Soulaing", "latitude": 43.0126385, "longitude": -0.7230275, "elevation": 1589.0, "source": "osm", "_tags": {"ele": "1589", "name": "Pic Soulaing", "name:oc": "Pic Solanh", "natural": "peak", "source:name:oc": "Lo Congrès"}}, {"name": "Erraitze Gaina", "latitude": 42.9986599, "longitude": -0.960515, "elevation": 1451.0, "source": "osm", "_tags": {"alt_name": "Errayzé Gagna", "ele": "1451", "name": "Erraitze Gaina", "natural": "peak"}}, {"name": "Pic de Biscarroules", "latitude": 43.0352076, "longitude": -0.7354617, "elevation": 1017.0, "source": "osm", "_tags": {"ele": "1017", "name": "Pic de Biscarroules", "name:oc": "Pic deras Biscarrolas", "natural": "peak", "source:name:oc": "Lo Congrès"}}, {"name": "Aïguntze", "latitude": 43.0291457, "longitude": -0.8331704, "elevation": 1387.0, "source": "osm", "_tags": {"alt_name": "Pic d'Igountze", "ele": "1387", "name": "Aïguntze", "natural": "peak"}}, {"name": "Izarbe", "latitude": 43.0182519, "longitude": -0.8027194, "elevation": 1559.0, "source": "osm", "_tags": {"ele": "1559", "name": "Izarbe", "natural": "peak", "wikidata": "Q56759619"}}, {"name": "Pic de L'Arcoèche", "latitude": 42.8905155, "longitude": -0.2505108, "elevation": 2465.0, "source": "osm", "_tags": {"ele": "2465", "name": "Pic de L'Arcoèche", "natural": "peak"}}, {"name": "Moun Né", "latitude": 42.8935906, "longitude": -0.1673211, "elevation": 2724.0, "source": "osm", "_tags": {"alt_name": "Pic de Monné", "ele": "2724", "name": "Moun Né", "natural": "peak", "prominence": "468", "source:prominence": "IGN map. Key col: Col d’Ilhéou 2256", "wikidata": "Q3325945"}}, {"name": "Pic de Clos Bédout", "latitude": 42.868793, "longitude": -0.2499685, "elevation": 2461.0, "source": "osm", "_tags": {"ele": "2461", "name": "Pic de Clos Bédout", "natural": "peak"}}, {"name": "Pic du Midi d'Arrens", "latitude": 42.9263927, "longitude": -0.2109026, "elevation": 2267.0, "source": "osm", "_tags": {"ele": "2267", "name": "Pic du Midi d'Arrens", "natural": "peak", "wikidata": "Q31637466"}}, {"name": "Pic de Mousquès", "latitude": 42.9223677, "longitude": -0.2149125, "elevation": 2222.0, "source": "osm", "_tags": {"ele": "2222", "name": "Pic de Mousquès", "natural": "peak"}}, {"name": "Grand Barbat", "latitude": 42.8651051, "longitude": -0.1947991, "elevation": 2813.0, "source": "osm", "_tags": {"ele": "2813", "name": "Grand Barbat", "natural": "peak", "prominence": "234", "source:prominence": "IGN map. Key col: Breche du Hourat 2579m", "wikidata": "Q3113513"}}, {"name": "La Cardinquère Ouest", "latitude": 42.8333348, "longitude": -0.192752, "elevation": 2509.0, "source": "osm", "_tags": {"ele": "2509", "name": "La Cardinquère Ouest", "natural": "peak"}}, {"name": "Pic de Gaube", "latitude": 42.8380297, "longitude": -0.1522154, "elevation": 2377.0, "source": "osm", "_tags": {"ele": "2377", "name": "Pic de Gaube", "natural": "peak"}}, {"name": "Pic Mayouret", "latitude": 42.8324036, "longitude": -0.116485, "elevation": 2688.0, "source": "osm", "_tags": {"ele": "2688", "name": "Pic Mayouret", "natural": "peak"}}, {"name": "Pic de Péguère", "latitude": 42.8688504, "longitude": -0.1322259, "elevation": 2316.0, "source": "osm", "_tags": {"ele": "2316", "name": "Pic de Péguère", "natural": "peak"}}, {"name": "Soum des Aulhères", "latitude": 42.8877962, "longitude": -0.0769808, "elevation": 2168.0, "source": "osm", "_tags": {"ele": "2168", "name": "Soum des Aulhères", "natural": "peak"}}, {"name": "Soum de Naou Costes", "latitude": 42.8583118, "longitude": -0.0486386, "elevation": 2484.0, "source": "osm", "_tags": {"ele": "2484", "name": "Soum de Naou Costes", "natural": "peak"}}, {"name": "Pic de Viscos", "latitude": 42.9188393, "longitude": -0.0699424, "elevation": 2141.0, "source": "osm", "_tags": {"ele": "2141", "name": "Pic de Viscos", "natural": "peak"}}, {"name": "Pic d'Ardiden", "latitude": 42.8340053, "longitude": -0.0676333, "elevation": 2988.0, "source": "osm", "_tags": {"ele": "2988", "name": "Pic d'Ardiden", "natural": "peak", "prominence": "423", "source:prominence": "IGN", "wikidata": "Q3382344"}}, {"name": "Pic d'Artouste", "latitude": 42.8549763, "longitude": -0.3097375, "elevation": 2816.0, "source": "osm", "_tags": {"ele": "2816", "name": "Pic d'Artouste", "name:oc": "Pic d'Artosta", "natural": "peak", "source:name:oc": "Lo Congrès"}}, {"name": "Etxekortea", "latitude": 43.132224, "longitude": -0.998306, "elevation": 1206.0, "source": "osm", "_tags": {"ele": "1206", "name": "Etxekortea", "natural": "peak"}}, {"name": "Ützi Gaïna", "latitude": 42.9709524, "longitude": -0.8031202, "elevation": 1618.0, "source": "osm", "_tags": {"alt_name": "Utzigaina", "ele": "1618", "name": "Ützi Gaïna", "natural": "peak"}}, {"name": "Lakhura", "latitude": 42.955739, "longitude": -0.8374323, "elevation": 1875.0, "source": "osm", "_tags": {"ele": "1875", "name": "Lakhura", "name:es": "Lakora", "name:eu": "Lakhura", "name:fr": "Pic Lakhoura", "natural": "peak", "official_name": "Lakora", "wikidata": "Q12261814"}}, {"name": "Sardekagaina", "latitude": 42.9638937, "longitude": -0.9057634, "elevation": 1893.0, "source": "osm", "_tags": {"alt_name": "Chardekagagna", "ele": "1893", "name": "Sardekagaina", "name:eu": "Xardekagaiña", "name:fr": "Pic Chardéca", "natural": "peak"}}, {"name": "Xarxaga", "latitude": 43.2092574, "longitude": -0.9868821, "elevation": 458.0, "source": "osm", "_tags": {"ele": "458", "name": "Xarxaga", "natural": "peak"}}, {"name": "Oïhergaïn", "latitude": 43.2714712, "longitude": -0.9562191, "elevation": 347.0, "source": "osm", "_tags": {"ele": "347", "name": "Oïhergaïn", "natural": "peak"}}, {"name": "Leiziagamendi", "latitude": 43.2671109, "longitude": -0.9294986, "elevation": 331.0, "source": "osm", "_tags": {"ele": "331", "name": "Leiziagamendi", "name:eu": "Leiziagamendi", "name:oc": "Leiziagamendi", "natural": "peak", "source:name": "carte IGN", "source:name:eu": "Euskaltzaindia", "source:name:oc": "ieo-bdtopoc"}}, {"name": "Le Tuquet", "latitude": 42.9171419, "longitude": -0.5995192, "elevation": 1687.0, "source": "osm", "_tags": {"ele": "1687", "name": "Le Tuquet", "name:oc": "Eth Tuquet", "natural": "peak", "source:name:oc": "Lo Congrès"}}, {"name": "Hargaïn Sardeka", "latitude": 43.1252351, "longitude": -0.933068, "elevation": 852.0, "source": "osm", "_tags": {"ele": "852", "name": "Hargaïn Sardeka", "natural": "peak"}}, {"name": "Zamalgaïna", "latitude": 43.1150671, "longitude": -0.8920133, "elevation": 414.0, "source": "osm", "_tags": {"ele": "414", "name": "Zamalgaïna", "natural": "peak"}}, {"name": "Gaztelu Gaïna", "latitude": 43.2019143, "longitude": -0.8935943, "elevation": 371.0, "source": "osm", "_tags": {"archaeological_site": "fortification", "ele": "371", "fortification_type": "hill_fort", "historic": "archaeological_site", "name": "Gaztelu Gaïna", "natural": "peak"}}, {"name": "Le Matalon", "latitude": 43.2085193, "longitude": -0.8838358, "elevation": 439.0, "source": "osm", "_tags": {"ele": "439", "name": "Le Matalon", "natural": "peak", "source": "survey", "source:name": "Carte IGN"}}, {"name": "Sardeka", "latitude": 43.1945627, "longitude": -0.8883908, "elevation": 494.0, "source": "osm", "_tags": {"comment": "means 'small fork' indicating twin peaks", "ele": "494", "name": "Sardeka", "natural": "peak"}}, {"name": "Gaztelu Harria", "latitude": 43.2271449, "longitude": -0.8150245, "elevation": 479.0, "source": "osm", "_tags": {"alt_name": "Gaztelaïa", "ele": "479", "name": "Gaztelu Harria", "natural": "peak"}}, {"name": "Pic de Sudou", "latitude": 43.0608679, "longitude": -0.7758537, "elevation": 1167.0, "source": "osm", "_tags": {"ele": "1167", "name": "Pic de Sudou", "name:oc": "Sudor", "natural": "peak", "source:name:oc": "ieo-bdtopoc"}}, {"name": "Pic d'Arguibelle", "latitude": 43.0852697, "longitude": -0.7910198, "elevation": 795.0, "source": "osm", "_tags": {"alt_name": "Hargibel", "ele": "795", "name": "Pic d'Arguibelle", "natural": "peak"}}, {"name": "Sommet Iracourri", "latitude": 43.0509598, "longitude": -0.8195469, "elevation": 930.0, "source": "osm", "_tags": {"ele": "930", "name": "Sommet Iracourri", "name:oc": "Som Irakuri", "natural": "peak", "source:name:oc": "Lo Congrès"}}, {"name": "Pic d'Escurets", "latitude": 43.0871731, "longitude": -0.5135179, "elevation": 1440.0, "source": "osm", "_tags": {"ele": "1440", "name": "Pic d'Escurets", "name:oc": "Pic deths Escurets", "natural": "peak", "source:name:oc": "Lo Congrès"}}, {"name": "Soum de la Pène", "latitude": 42.9985766, "longitude": -0.1739464, "elevation": 1616.0, "source": "osm", "_tags": {"ele": "1616", "name": "Soum de la Pène", "natural": "peak"}}, {"name": "Pic de Bazès", "latitude": 42.9963786, "longitude": -0.2283798, "elevation": 1804.0, "source": "osm", "_tags": {"ele": "1804", "name": "Pic de Bazès", "natural": "peak", "summit:cross": "no", "summit:register": "no"}}, {"name": "Pic de Berbeillet", "latitude": 42.9822072, "longitude": -0.2252337, "elevation": 1633.0, "source": "osm", "_tags": {"ele": "1633", "name": "Pic de Berbeillet", "natural": "peak"}}, {"name": "Le Soc", "latitude": 42.9905969, "longitude": -0.1975771, "elevation": 1406.0, "source": "osm", "_tags": {"ele": "1406", "name": "Le Soc", "natural": "peak"}}, {"name": "La Cuyerosse", "latitude": 42.9814011, "longitude": -0.1930932, "elevation": 1215.0, "source": "osm", "_tags": {"ele": "1215", "name": "La Cuyerosse", "natural": "peak"}}, {"name": "Cap d'Aout", "latitude": 42.9677799, "longitude": -0.2585341, "elevation": 1654.0, "source": "osm", "_tags": {"ele": "1654", "name": "Cap d'Aout", "natural": "peak"}}, {"name": "Pic de Gabizos", "latitude": 42.9394009, "longitude": -0.2791689, "elevation": 2639.0, "source": "osm", "_tags": {"alt_name": "Petit Gabizos", "ele": "2639", "name": "Pic de Gabizos", "name:oc": "Pic de Gavisòs", "natural": "peak", "source:name:oc": "Lo Congrès", "wikidata": "Q3377144"}}, {"name": "Pic de Pan", "latitude": 42.9527988, "longitude": -0.188785, "elevation": 1461.0, "source": "osm", "_tags": {"ele": "1461", "name": "Pic de Pan", "natural": "peak"}}, {"name": "Pic Arrouy", "latitude": 42.953446, "longitude": -0.1785205, "elevation": 1552.0, "source": "osm", "_tags": {"ele": "1552", "name": "Pic Arrouy", "natural": "peak"}}, {"name": "Pointe de Surgatte", "latitude": 42.946935, "longitude": -0.2451243, "elevation": 1805.0, "source": "osm", "_tags": {"ele": "1805", "name": "Pointe de Surgatte", "natural": "peak", "source": "cadastre-dgi-fr source : Direction Générale des Impôts - Cadastre. Mise à jour : 2010"}}, {"name": "Cap de Soc", "latitude": 42.9928078, "longitude": -0.2082175, "elevation": 1532.0, "source": "osm", "_tags": {"ele": "1532", "name": "Cap de Soc", "natural": "peak", "source": "cadastre-dgi-fr source : Direction Générale des Impôts - Cadastre. Mise à jour : 2010"}}, {"name": "Gaztelu Zahar", "latitude": 43.2460181, "longitude": -1.0202641, "elevation": 361.0, "source": "osm", "_tags": {"archaeological_site": "fortification", "ele": "361", "fortification_type": "hill_fort", "historic": "archaeological_site", "name": "Gaztelu Zahar", "natural": "peak"}}, {"name": "Pic de Soulom", "latitude": 42.9317173, "longitude": -0.0693692, "elevation": 1765.0, "source": "osm", "_tags": {"ele": "1765", "name": "Pic de Soulom", "natural": "peak"}}, {"name": "Soum d'Espious", "latitude": 43.3008952, "longitude": -0.7224355, "elevation": 222.0, "source": "osm", "_tags": {"ele": "222", "name": "Soum d'Espious", "natural": "peak"}}, {"name": "Soum d'Athay", "latitude": 43.1157238, "longitude": -0.6440308, "elevation": 736.0, "source": "osm", "_tags": {"ele": "736", "name": "Soum d'Athay", "natural": "peak"}}, {"name": "Pic des Escaliers", "latitude": 43.0538766, "longitude": -1.02645, "elevation": 1472.0, "source": "osm", "_tags": {"ele": "1472", "name": "Pic des Escaliers", "name:eu": "Harsüdürra", "natural": "peak"}}, {"name": "Belozkarre", "latitude": 43.0557942, "longitude": -0.9780585, "elevation": 1173.0, "source": "osm", "_tags": {"alt_name": "Beloskare", "ele": "1173", "name": "Belozkarre", "natural": "peak"}}, {"name": "Bostmendieta", "latitude": 43.0564564, "longitude": -0.9427968, "elevation": 1020.0, "source": "osm", "_tags": {"comment": "Bosmendieta, 1510", "ele": "1020", "name": "Bostmendieta", "natural": "peak"}}, {"name": "Otsapürü Gaïna", "latitude": 43.1053533, "longitude": -0.9291604, "elevation": 667.0, "source": "osm", "_tags": {"ele": "667", "name": "Otsapürü Gaïna", "natural": "peak"}}, {"name": "Berhantxü", "latitude": 43.1979794, "longitude": -1.0138757, "elevation": 574.0, "source": "osm", "_tags": {"ele": "574", "name": "Berhantxü", "natural": "peak"}}, {"name": "Betzulagaña", "latitude": 42.9631123, "longitude": -0.9745023, "elevation": 1590.0, "source": "osm", "_tags": {"alt_name": "Betzula Gaina", "ele": "1590", "name": "Betzulagaña", "name:es": "Betzula", "name:eu": "Betzüla", "name:fr": "Betzulagagna", "natural": "peak"}}, {"name": "Gaztarrigaña / Mulidoiako Gaña", "latitude": 42.9593362, "longitude": -0.9563468, "elevation": 1732.0, "source": "osm", "_tags": {"ele": "1732", "name": "Gaztarrigaña / Mulidoiako Gaña", "natural": "peak"}}, {"name": "Otsogorrigaina", "latitude": 42.9581443, "longitude": -0.9200956, "elevation": 1923.0, "source": "osm", "_tags": {"ele": "1923", "name": "Otsogorrigaina", "natural": "peak", "wikidata": "Q12265379"}}, {"name": "Belhaï", "latitude": 42.9588581, "longitude": -0.8972543, "elevation": 1771.0, "source": "osm", "_tags": {"alt_name": "Belhaïn", "ele": "1771", "name": "Belhaï", "name:eu": "Belai", "natural": "peak"}}, {"name": "Binbaleta", "latitude": 42.9550495, "longitude": -0.8755374, "elevation": 1758.0, "source": "osm", "_tags": {"alt_name": "Bimbalet", "ele": "1758", "name": "Binbaleta", "natural": "peak", "wikidata": "Q12255254"}}, {"name": "Mürrübeltza", "latitude": 42.9636925, "longitude": -0.7900288, "elevation": 1656.0, "source": "osm", "_tags": {"ele": "1656", "name": "Mürrübeltza", "natural": "peak"}}, {"name": "Ezkantola", "latitude": 42.9689369, "longitude": -0.8739064, "elevation": 1511.0, "source": "osm", "_tags": {"ele": "1511", "name": "Ezkantola", "natural": "peak"}}, {"name": "Negümendi", "latitude": 43.0067892, "longitude": -0.8920917, "elevation": 1307.0, "source": "osm", "_tags": {"ele": "1307", "name": "Negümendi", "natural": "peak"}}, {"name": "Zegnhaguia", "latitude": 43.0122982, "longitude": -0.8947908, "elevation": 1240.0, "source": "osm", "_tags": {"ele": "1240", "name": "Zegnhaguia", "natural": "peak"}}, {"name": "Ohate", "latitude": 43.1083066, "longitude": -1.0224038, "elevation": 1079.0, "source": "osm", "_tags": {"ele": "1079", "name": "Ohate", "natural": "peak"}}, {"name": "Garhondo", "latitude": 43.0003476, "longitude": -0.8047482, "elevation": 960.0, "source": "osm", "_tags": {"ele": "960", "name": "Garhondo", "natural": "peak"}}, {"name": "Xuriphünta", "latitude": 42.9707282, "longitude": -0.8313776, "elevation": 1627.0, "source": "osm", "_tags": {"alt_name": "Surri Pünta", "ele": "1627", "name": "Xuriphünta", "name:eu": "Txuri Pünta", "natural": "peak"}}, {"name": "Ohillo Gaïna", "latitude": 42.9655073, "longitude": -0.8360875, "elevation": 1689.0, "source": "osm", "_tags": {"alt_name": "Heile Gaïna", "ele": "1689", "name": "Ohillo Gaïna", "natural": "peak"}}, {"name": "Intxurizte", "latitude": 43.0689348, "longitude": -0.8551681, "elevation": 711.0, "source": "osm", "_tags": {"ele": "711", "name": "Intxurizte", "natural": "peak"}}, {"name": "Üthünarria", "latitude": 43.0598498, "longitude": -0.8418375, "elevation": 725.0, "source": "osm", "_tags": {"ele": "725", "name": "Üthünarria", "natural": "peak"}}, {"name": "Sorlegigaïna", "latitude": 43.0612294, "longitude": -0.8253054, "elevation": 636.0, "source": "osm", "_tags": {"ele": "636", "name": "Sorlegigaïna", "natural": "peak"}}, {"name": "Andotze", "latitude": 43.0485239, "longitude": -0.905753, "elevation": 775.0, "source": "osm", "_tags": {"ele": "775", "name": "Andotze", "natural": "peak"}}, {"name": "Lükürgaïna", "latitude": 43.1084246, "longitude": -0.9291183, "elevation": 629.0, "source": "osm", "_tags": {"ele": "629", "name": "Lükürgaïna", "natural": "peak"}}, {"name": "Escouareguibelgagna", "latitude": 43.1082375, "longitude": -0.9256217, "elevation": 604.0, "source": "osm", "_tags": {"ele": "604", "name": "Escouareguibelgagna", "name:eu": "Eskuargibel Gaina", "name:fr": "Escouareguibelgagna", "natural": "peak"}}, {"name": "Üzoï", "latitude": 43.0775717, "longitude": -0.9494147, "elevation": 632.0, "source": "osm", "_tags": {"ele": "632", "name": "Üzoï", "natural": "peak"}}, {"name": "Erüso", "latitude": 42.9622481, "longitude": -0.8260641, "elevation": 1624.0, "source": "osm", "_tags": {"alt_name": "Uruso", "ele": "1624", "name": "Erüso", "natural": "peak"}}, {"name": "Izeito", "latitude": 42.9824236, "longitude": -0.8802394, "elevation": 1464.0, "source": "osm", "_tags": {"ele": "1464", "name": "Izeito", "natural": "peak"}}, {"name": "Harritxarteko Ordokia", "latitude": 42.9926113, "longitude": -0.7876914, "elevation": 900.0, "source": "osm", "_tags": {"ele": "900", "name": "Harritxarteko Ordokia", "natural": "peak"}}, {"name": "Gahardoï", "latitude": 43.0081049, "longitude": -0.8767268, "elevation": 922.0, "source": "osm", "_tags": {"ele": "922", "name": "Gahardoï", "natural": "peak"}}, {"name": "Kortaplana", "latitude": 42.9519462, "longitude": -0.8451945, "elevation": 1777.0, "source": "osm", "_tags": {"ele": "1777", "name": "Kortaplana", "natural": "peak"}}, {"name": "Keleta", "latitude": 42.9454303, "longitude": -0.88112, "elevation": 1906.0, "source": "osm", "_tags": {"ele": "1906", "name": "Keleta", "natural": "peak"}}, {"name": "Larrondoa", "latitude": 42.9320342, "longitude": -0.8878698, "elevation": 1703.0, "source": "osm", "_tags": {"ele": "1703", "name": "Larrondoa", "natural": "peak"}}, {"name": "Lakartxela", "latitude": 42.9514599, "longitude": -0.8905991, "elevation": 1982.0, "source": "osm", "_tags": {"alt_name": "Kartxela", "ele": "1982", "name": "Lakartxela", "natural": "peak", "wikidata": "Q8538704"}}, {"name": "Hiru Erregeen Mahaia / Mesa de los Tres Reyes", "latitude": 42.919411, "longitude": -0.7275039, "elevation": 2446.0, "source": "osm", "_tags": {"description": "Official names according to the government since 1993 : Hiru Erregeen Mahaia / Mesa de los Tres Reyes.\nNot to be confused with Table (2421 m)\nDifferent names : Hiru erregeen mahaia, Iror Errege Maia, Table des trois rois, Meseta d'os tres reis, Mes(et)a d", "ele": "2446", "name": "Hiru Erregeen Mahaia / Mesa de los Tres Reyes", "name:an": "O Pueyo de Nai", "name:ca": "Pic dels Tres Reis", "name:es": "Mesa de los Tres Reyes", "name:eu": "Hiru Erregeen Mahaia", "name:fr": "Pic des Trois Rois", "natural": "peak", "official_name": "Hiru Erregeen Mahaia / Mesa de los Tres Reyes", "prominence": "397", "source:prominence": "CNIG map. Key col: 2049m", "wikidata": "Q546180", "wikipedia": "an:Pueyo de Nai"}}, {"name": "Azalegi", "latitude": 43.1946345, "longitude": -1.0299878, "elevation": 583.0, "source": "osm", "_tags": {"ele": "583", "name": "Azalegi", "natural": "peak"}}, {"name": "Pic d'Elhaudi", "latitude": 43.1755895, "longitude": -0.9916351, "elevation": 700.0, "source": "osm", "_tags": {"alt_name": "Elaudy", "date": "1692", "ele": "700", "historic": "wayside_cross", "man_made": "survey_point", "name": "Pic d'Elhaudi", "natural": "peak"}}, {"name": "Ihagorri", "latitude": 43.1810608, "longitude": -1.0186276, "elevation": 609.0, "source": "osm", "_tags": {"alt_name": "Ihagorria", "ele": "609", "name": "Ihagorri", "natural": "peak"}}, {"name": "Peñablanca / Kakueta", "latitude": 42.8587247, "longitude": -0.9718426, "elevation": 1583.0, "source": "osm", "_tags": {"ele": "1583", "name": "Peñablanca / Kakueta", "natural": "peak", "wikidata": "Q12265816"}}, {"name": "Uno", "latitude": 42.8958376, "longitude": -0.971496, "elevation": 1275.0, "source": "osm", "_tags": {"ele": "1275", "name": "Uno", "natural": "peak"}}, {"name": "Lizarraga", "latitude": 42.9049858, "longitude": -1.0144542, "elevation": 1241.0, "source": "osm", "_tags": {"ele": "1241", "name": "Lizarraga", "natural": "peak"}}, {"name": "Muxumurru", "latitude": 42.9796698, "longitude": -1.0213393, "elevation": 1628.0, "source": "osm", "_tags": {"alt_name": "Mendi Txipia", "ele": "1628", "name": "Muxumurru", "natural": "peak"}}, {"name": "Gazteluzarra", "latitude": 42.9297115, "longitude": -0.98537, "elevation": 1232.0, "source": "osm", "_tags": {"ele": "1232", "name": "Gazteluzarra", "natural": "peak"}}, {"name": "Urruzpurua", "latitude": 42.9241623, "longitude": -0.9687746, "elevation": 1206.0, "source": "osm", "_tags": {"alt_name": "Urruspuria", "ele": "1206", "name": "Urruzpurua", "natural": "peak"}}, {"name": "Lakuaga", "latitude": 42.8758097, "longitude": -0.9824679, "elevation": 1415.0, "source": "osm", "_tags": {"ele": "1415", "name": "Lakuaga", "natural": "peak", "wikidata": "Q25475857"}}, {"name": "Hoya de la Solana", "latitude": 42.9102753, "longitude": -0.7547691, "elevation": 1823.0, "source": "osm", "_tags": {"ele": "1823", "name": "Hoya de la Solana", "natural": "peak", "source": "Instituto Geográfico Nacional", "source:date": "201011"}}, {"name": "Mallo Paco", "latitude": 42.8777556, "longitude": -0.767471, "elevation": 1804.0, "source": "osm", "_tags": {"ele": "1804", "name": "Mallo Paco", "natural": "peak", "source": "Instituto Geográfico Nacional", "source:date": "201011"}}, {"name": "Punta Abizondo", "latitude": 42.8626145, "longitude": -0.8331812, "elevation": 1673.0, "source": "osm", "_tags": {"ele": "1673", "name": "Punta Abizondo", "name:eu": "Abizondo", "natural": "peak", "source": "Instituto Geográfico Nacional", "source:date": "201011"}}, {"name": "Iturruburua", "latitude": 42.8869886, "longitude": -0.8245066, "elevation": 1582.0, "source": "osm", "_tags": {"ele": "1582", "name": "Iturruburua", "natural": "peak", "source": "Instituto Geográfico Nacional", "source:date": "201011"}}, {"name": "Beurllarneta", "latitude": 42.9119596, "longitude": -0.9894651, "elevation": 1204.0, "source": "osm", "_tags": {"ele": "1204", "name": "Beurllarneta", "natural": "peak", "source:date": "201011"}}, {"name": "Murlong / Muruluze", "latitude": 42.9562153, "longitude": -0.7446591, "elevation": 2053.0, "source": "osm", "_tags": {"ele": "2053", "name": "Murlong / Muruluze", "name:eu": "Muruluze", "natural": "peak", "source": "Instituto Geográfico Nacional", "source:date": "201011"}}, {"name": "Punta Txamar", "latitude": 42.8379922, "longitude": -0.980667, "elevation": 1473.0, "source": "osm", "_tags": {"ele": "1473", "name": "Punta Txamar", "natural": "peak", "source:date": "201011"}}, {"name": "Garbisa Oriental", "latitude": 42.8830727, "longitude": -0.8293853, "elevation": 1564.0, "source": "osm", "_tags": {"ele": "1564", "name": "Garbisa Oriental", "natural": "peak", "source": "Instituto Geográfico Nacional", "source:date": "201011"}}, {"name": "Largintia", "latitude": 42.8516057, "longitude": -0.9751199, "elevation": 1559.0, "source": "osm", "_tags": {"ele": "1559", "name": "Largintia", "natural": "peak", "source:date": "201011"}}, {"name": "San Miguel", "latitude": 42.8474408, "longitude": -0.9579699, "elevation": 1397.0, "source": "osm", "_tags": {"ele": "1397", "name": "San Miguel", "natural": "peak"}}, {"name": "Agulla d'os Pastors", "latitude": 42.848489, "longitude": -0.8370007, "elevation": 1860.0, "source": "osm", "_tags": {"ele": "1860", "name": "Agulla d'os Pastors", "name:an": "Agulla d'os Pastors", "name:es": "Aguja de los Pastores", "natural": "peak", "source": "Instituto Geográfico Nacional", "source:date": "201011"}}, {"name": "Acherito", "latitude": 42.8914482, "longitude": -0.7372228, "elevation": 2374.0, "source": "osm", "_tags": {"alt_name": "Mallo de Acherito", "ele": "2374", "name": "Acherito", "name:an": "Mallo d'Acherito", "name:eu": "Atxerito", "natural": "peak", "source": "Instituto Geográfico Nacional", "source:date": "201011", "wikidata": "Q24002087"}}, {"name": "Achar d’Alano", "latitude": 42.8404222, "longitude": -0.786178, "elevation": 2078.0, "source": "osm", "_tags": {"ele": "2078", "name": "Achar d’Alano", "name:an": "Achar d’Alano", "name:es": "Achar de Alano", "natural": "peak", "source": "Instituto Geográfico Nacional", "source:date": "201011", "source:name:an": "Direzión Cheneral Politica Lingüistica (DGA)"}}, {"name": "A Contienda", "latitude": 42.8881716, "longitude": -0.8139884, "elevation": 1556.0, "source": "osm", "_tags": {"ele": "1556", "name": "A Contienda", "name:an": "A Contienda", "name:es": "La Contienda", "natural": "peak", "source": "Instituto Geográfico Nacional", "source:date": "201011"}}, {"name": "Chipeta Alto", "latitude": 42.8544131, "longitude": -0.7279798, "elevation": 2175.0, "source": "osm", "_tags": {"ele": "2175", "name": "Chipeta Alto", "natural": "peak", "source": "Instituto Geográfico Nacional", "source:date": "201011"}}, {"name": "O Casterillet/Torre de Cadier", "latitude": 42.8379658, "longitude": -0.294682, "elevation": null, "source": "osm", "_tags": {"name": "O Casterillet/Torre de Cadier", "name:an": "O Casterillet/Torre de Cadier", "name:es": "Torre de Cadier", "name:eu": "Cadier Dorrea", "name:fr": "Tour de Cadier", "natural": "peak", "source": "Instituto Geográfico Nacional", "source:date": "201011"}}, {"name": "", "latitude": 42.8326557, "longitude": -0.2938507, "elevation": null, "source": "osm", "_tags": {"natural": "peak", "source": "Instituto Geográfico Nacional", "source:date": "201011"}}, {"name": "Pico Cristal", "latitude": 42.8279208, "longitude": -0.2731379, "elevation": null, "source": "osm", "_tags": {"name": "Pico Cristal", "natural": "peak", "source": "Instituto Geográfico Nacional", "source:date": "201011"}}, {"name": "Pic de la Chourique", "latitude": 42.8898214, "longitude": -0.7233556, "elevation": null, "source": "osm", "_tags": {"is_in:state_code": "22", "name": "Pic de la Chourique", "name:oc": "Pic dera Chorrica", "natural": "peak", "source": "Instituto Geográfico Nacional", "source:date": "201011", "source:name:oc": "Lo Congrès"}}, {"name": "Estriviella", "latitude": 42.8361436, "longitude": -0.7493688, "elevation": 2048.0, "source": "osm", "_tags": {"ele": "2048", "name": "Estriviella", "natural": "peak", "source": "Instituto Geográfico Nacional", "source:date": "201011"}}, {"name": "Anzotiello", "latitude": 42.8778265, "longitude": -0.7490777, "elevation": 2211.0, "source": "osm", "_tags": {"ele": "2211", "name": "Anzotiello", "natural": "peak", "source": "Instituto Geográfico Nacional", "source:date": "201011"}}, {"name": "Peña d’Alano", "latitude": 42.8434372, "longitude": -0.7975922, "elevation": 2162.0, "source": "osm", "_tags": {"ele": "2162", "name": "Peña d’Alano", "name:an": "Peña d’Alano", "name:es": "Ralla de Alano", "natural": "peak", "source": "Instituto Geográfico Nacional", "source:date": "201011"}}, {"name": "Petraficha", "latitude": 42.8675141, "longitude": -0.7415887, "elevation": 2186.0, "source": "osm", "_tags": {"ele": "2186", "name": "Petraficha", "natural": "peak", "source": "Instituto Geográfico Nacional", "source:date": "201011"}}, {"name": "Trasveral", "latitude": 42.8379336, "longitude": -0.7989535, "elevation": 2097.0, "source": "osm", "_tags": {"ele": "2097", "name": "Trasveral", "natural": "peak", "source": "Instituto Geográfico Nacional", "source:date": "201011"}}, {"name": "Sayéstico", "latitude": 42.850387, "longitude": -0.7317629, "elevation": 2072.0, "source": "osm", "_tags": {"ele": "2072", "name": "Sayéstico", "natural": "peak", "source": "Instituto Geográfico Nacional", "source:date": "201011"}}, {"name": "Cima de Arre", "latitude": 42.8283375, "longitude": -0.6044342, "elevation": null, "source": "osm", "_tags": {"name": "Cima de Arre", "natural": "peak", "source": "Instituto Geográfico Nacional", "source:date": "201011"}}, {"name": "Chipeta Baxa", "latitude": 42.8502128, "longitude": -0.7569909, "elevation": 1897.0, "source": "osm", "_tags": {"ele": "1897", "name": "Chipeta Baxa", "name:an": "Chipeta Baxa", "name:es": "Chipeta Baja", "natural": "peak", "source": "Instituto Geográfico Nacional", "source:date": "201011"}}, {"name": "", "latitude": 42.9817199, "longitude": -0.9210931, "elevation": null, "source": "osm", "_tags": {"natural": "peak", "source": "bing"}}, {"name": "", "latitude": 42.9838373, "longitude": -0.9215924, "elevation": null, "source": "osm", "_tags": {"natural": "peak", "source": "survey"}}, {"name": "Goïbürü", "latitude": 43.0034852, "longitude": -0.7848593, "elevation": 1203.0, "source": "osm", "_tags": {"ele": "1203", "name": "Goïbürü", "natural": "peak"}}, {"name": "Sommet de Maubes", "latitude": 43.1078851, "longitude": -0.749301, "elevation": 426.0, "source": "osm", "_tags": {"ele": "426", "name": "Sommet de Maubes", "name:oc": "Mauvas", "natural": "peak", "source:name:oc": "Lo Congrès"}}, {"name": "Ezkieta", "latitude": 42.9485972, "longitude": -0.884356, "elevation": 1906.0, "source": "osm", "_tags": {"ele": "1906", "name": "Ezkieta", "natural": "peak", "source": "Instituto Geográfico Nacional", "source:date": "201011"}}, {"name": "Alto de Lapazarra", "latitude": 42.9300064, "longitude": -0.7989381, "elevation": 1785.0, "source": "osm", "_tags": {"ele": "1785", "name": "Alto de Lapazarra", "natural": "peak", "source": "Instituto Geográfico Nacional", "source:date": "201011", "wikidata": "Q12261877"}}, {"name": "Ekialterrea", "latitude": 42.9067143, "longitude": -0.9025965, "elevation": 1326.0, "source": "osm", "_tags": {"ele": "1326", "name": "Ekialterrea", "natural": "peak", "source": "Instituto Geográfico Nacional", "source:date": "201011", "wikidata": "Q112786858", "wikipedia": "eu:Ekialterrea"}}, {"name": "Pikatua", "latitude": 42.9590783, "longitude": -1.0101189, "elevation": 1407.0, "source": "osm", "_tags": {"ele": "1407", "name": "Pikatua", "natural": "peak", "source": "Instituto Geográfico Nacional", "source:date": "201011"}}, {"name": "Budogia", "latitude": 42.9192741, "longitude": -0.7350271, "elevation": 2368.0, "source": "osm", "_tags": {"ele": "2368", "name": "Budogia", "name:an": "Budoguía", "natural": "peak", "source": "Instituto Geográfico Nacional", "source:date": "201011", "wikidata": "Q112786942", "wikipedia": "eu:Budogia"}}, {"name": "Pico Latras", "latitude": 42.9523944, "longitude": -0.74492, "elevation": 2105.0, "source": "osm", "_tags": {"alt_name": "Portillo de Arriba", "ele": "2105", "name": "Pico Latras", "name:eu": "Arribako mendatea", "natural": "peak", "source": "Instituto Geográfico Nacional", "source:date": "201011"}}, {"name": "Itoleta / Kañadaxiloa", "latitude": 42.8389331, "longitude": -0.8575713, "elevation": 1769.0, "source": "osm", "_tags": {"alt_name": "Punta del Trozo", "ele": "1769", "name": "Itoleta / Kañadaxiloa", "name:an": "Zerro de Godia / Itoleta", "natural": "peak", "source": "Instituto Geográfico Nacional", "source:date": "201011"}}, {"name": "Punta de la Cruz", "latitude": 42.9433674, "longitude": -0.7956655, "elevation": null, "source": "osm", "_tags": {"name": "Punta de la Cruz", "name:eu": "Guretze Punta", "natural": "peak", "source": "Instituto Geográfico Nacional", "source:date": "201011"}}, {"name": "Punta Turruntaidea", "latitude": 42.9113395, "longitude": -0.9384083, "elevation": 1245.0, "source": "osm", "_tags": {"ele": "1245", "name": "Punta Turruntaidea", "natural": "peak", "source": "Instituto Geográfico Nacional", "source:date": "201011"}}, {"name": "Punta Maisterra", "latitude": 42.9253947, "longitude": -0.950414, "elevation": 1171.0, "source": "osm", "_tags": {"ele": "1171", "name": "Punta Maisterra", "natural": "peak", "source": "Instituto Geográfico Nacional", "source:date": "201011"}}, {"name": "Ukerdi", "latitude": 42.9238605, "longitude": -0.7491231, "elevation": 2252.0, "source": "osm", "_tags": {"ele": "2252", "name": "Ukerdi", "name:an": "Puntal d'Uquerdi", "natural": "peak", "source": "Instituto Geográfico Nacional", "source:date": "201011", "wikidata": "Q112785195", "wikipedia": "an:Lo Puntal d'Uquerdi"}}, {"name": "Puntal Bajo de Ukerdi", "latitude": 42.9390786, "longitude": -0.7848761, "elevation": 1816.0, "source": "osm", "_tags": {"ele": "1816", "name": "Puntal Bajo de Ukerdi", "name:eu": "Ukerdi Beheko Punta", "natural": "peak", "source": "Instituto Geográfico Nacional", "source:date": "201011"}}, {"name": "Khürütxe Gaïna", "latitude": 42.9745824, "longitude": -0.9520224, "elevation": 1486.0, "source": "osm", "_tags": {"ele": "1486", "name": "Khürütxe Gaïna", "natural": "peak"}}, {"name": "Zokoborro", "latitude": 43.1013749, "longitude": -0.9301469, "elevation": 551.0, "source": "osm", "_tags": {"ele": "551", "name": "Zokoborro", "name:eu": "Zokoborro", "natural": "peak"}}, {"name": "Pic d'Era Paou", "latitude": 42.9549595, "longitude": -0.5858599, "elevation": 1668.0, "source": "osm", "_tags": {"ele": "1668", "name": "Pic d'Era Paou", "name:oc": "Pic dera Pau", "natural": "peak", "source": "Bing", "source:name:oc": "Lo Congrès"}}, {"name": "Cot Dous Thèses", "latitude": 42.9492242, "longitude": -0.5917091, "elevation": 1345.0, "source": "osm", "_tags": {"ele": "1345", "name": "Cot Dous Thèses", "name:oc": "Còth deus Tès", "natural": "peak", "source": "survey", "source:name:oc": "Lo Congrès"}}, {"name": "Pic de Narbissat", "latitude": 42.9557977, "longitude": -0.5965948, "elevation": 1282.0, "source": "osm", "_tags": {"ele": "1282", "name": "Pic de Narbissat", "name:oc": "Pic de Narbissat", "natural": "peak", "source": "survey", "source:name:oc": "Lo Congrès"}}, {"name": "Arbegaïna", "latitude": 43.1772368, "longitude": -0.9356169, "elevation": 326.0, "source": "osm", "_tags": {"ele": "326", "name": "Arbegaïna", "natural": "peak"}}, {"name": "Otsogorrigagna", "latitude": 43.0364208, "longitude": -1.0159878, "elevation": 1264.0, "source": "osm", "_tags": {"ele": "1264", "name": "Otsogorrigagna", "natural": "peak"}}, {"name": "Ezpeleko Botxea", "latitude": 43.0154942, "longitude": -1.0065109, "elevation": 1136.0, "source": "osm", "_tags": {"ele": "1136", "name": "Ezpeleko Botxea", "natural": "peak"}}, {"name": "Ünkhügnerri", "latitude": 43.0056568, "longitude": -1.0050292, "elevation": 1218.0, "source": "osm", "_tags": {"alt_name": "Ühüntzügürri", "ele": "1218", "name": "Ünkhügnerri", "natural": "peak"}}, {"name": "Hartzanbürüa", "latitude": 43.008965, "longitude": -0.9505864, "elevation": 1002.0, "source": "osm", "_tags": {"alt_name": "Hartzalbürüa", "comment": "Harssalburia, 1540", "ele": "1002", "loc_name": "Haltzabürüa", "name": "Hartzanbürüa", "natural": "peak"}}, {"name": "Sakhiko Axurterri Gaïna", "latitude": 42.9672686, "longitude": -0.8822326, "elevation": 1528.0, "source": "osm", "_tags": {"ele": "1528", "name": "Sakhiko Axurterri Gaïna", "natural": "peak"}}, {"name": "Hurdesparri", "latitude": 43.0294383, "longitude": -0.9430793, "elevation": 1006.0, "source": "osm", "_tags": {"alt_name": "Hourdespary", "ele": "1006", "name": "Hurdesparri", "natural": "peak"}}, {"name": "Goienburu", "latitude": 42.9391022, "longitude": -0.9394067, "elevation": 1549.0, "source": "osm", "_tags": {"ele": "1549", "name": "Goienburu", "natural": "peak", "wikidata": "Q12258601"}}, {"name": "Monesté", "latitude": 42.897611, "longitude": -0.245731, "elevation": null, "source": "osm", "_tags": {"name": "Monesté", "natural": "peak"}}, {"name": "Soum d'Arre", "latitude": 42.9045101, "longitude": -0.3253433, "elevation": 2627.0, "source": "osm", "_tags": {"ele": "2627", "name": "Soum d'Arre", "name:oc": "Som d'Arra", "natural": "peak", "source:name:oc": "Lo Congrès"}}, {"name": "Pic de Sarret", "latitude": 42.9111085, "longitude": -0.2314763, "elevation": null, "source": "osm", "_tags": {"name": "Pic de Sarret", "natural": "peak", "source": "IGN"}}, {"name": "Soum de Berducou", "latitude": 42.9874184, "longitude": -0.2244067, "elevation": 1638.0, "source": "osm", "_tags": {"ele": "1638", "name": "Soum de Berducou", "natural": "peak"}}, {"name": "Pic de Peyre", "latitude": 42.997686, "longitude": -0.1550124, "elevation": 1434.0, "source": "osm", "_tags": {"ele": "1434", "name": "Pic de Peyre", "natural": "peak"}}, {"name": "Pic d'Arragnat", "latitude": 43.0008783, "longitude": -0.1442331, "elevation": 1345.0, "source": "osm", "_tags": {"ele": "1345", "name": "Pic d'Arragnat", "natural": "peak"}}, {"name": "Rochers des cinq monts", "latitude": 43.0062986, "longitude": -0.4590346, "elevation": 1882.0, "source": "osm", "_tags": {"ele": "1882", "name": "Rochers des cinq monts", "natural": "peak"}}, {"name": "Sommet Passerouge", "latitude": 43.0064037, "longitude": -0.4522309, "elevation": null, "source": "osm", "_tags": {"name": "Sommet Passerouge", "name:oc": "Som Passaroja", "natural": "peak", "source": "Bing;cadastre-dgi-fr source : Direction Générale des Impôts - Cadastre. Mise à jour : 2012", "source:name:oc": "Lo Congrès"}}, {"name": "Sommet de Goualiste", "latitude": 42.9880248, "longitude": -0.4794905, "elevation": null, "source": "osm", "_tags": {"name": "Sommet de Goualiste", "name:oc": "Som de Goualiste", "natural": "peak", "source": "Bing;cadastre-dgi-fr source : Direction Générale des Impôts - Cadastre. Mise à jour : 2012", "source:name:oc": "Lo Congrès"}}, {"name": "Sommet des Aguillous", "latitude": 42.9939179, "longitude": -0.4742877, "elevation": null, "source": "osm", "_tags": {"name": "Sommet des Aguillous", "name:oc": "Som deus Aguilhons", "natural": "peak", "source": "Bing;cadastre-dgi-fr source : Direction Générale des Impôts - Cadastre. Mise à jour : 2012", "source:name:oc": "Lo Congrès"}}, {"name": "Pla Troubat", "latitude": 43.0066563, "longitude": -0.4526719, "elevation": 1877.0, "source": "osm", "_tags": {"ele": "1877", "name": "Pla Troubat", "natural": "peak"}}, {"name": "", "latitude": 42.9682077, "longitude": -0.4931011, "elevation": 2125.0, "source": "osm", "_tags": {"ele": "2125", "natural": "peak", "source": "Bing;cadastre-dgi-fr source : Direction Générale des Impôts - Cadastre. Mise à jour : 2012"}}, {"name": "Sommet Lanabe", "latitude": 42.9732686, "longitude": -0.4882591, "elevation": 1975.0, "source": "osm", "_tags": {"ele": "1975", "name": "Sommet Lanabe", "name:oc": "Som Lanava", "natural": "peak", "source": "Bing;cadastre-dgi-fr source : Direction Générale des Impôts - Cadastre. Mise à jour : 2012", "source:name:oc": "Lo Congrès"}}, {"name": "Le Pan", "latitude": 42.9765552, "longitude": -0.4449353, "elevation": 1367.0, "source": "osm", "_tags": {"ele": "1367", "name": "Le Pan", "name:oc": "Lo Pan", "natural": "peak", "source": "Bing ; cadastre-dgi-fr source : Direction Générale des Impôts - Cadastre. Mise à jour : 2012", "source:name:oc": "Lo Congrès"}}, {"name": "Pic de Montaut", "latitude": 42.9556703, "longitude": -0.4928987, "elevation": 2000.0, "source": "osm", "_tags": {"ele": "2000", "name": "Pic de Montaut", "name:oc": "Pic de Montau", "natural": "peak", "source": "Bing;cadastre-dgi-fr source : Direction Générale des Impôts - Cadastre. Mise à jour : 2012", "source:name:oc": "Lo Congrès"}}, {"name": "Aiguille", "latitude": 42.9352969, "longitude": -0.3756113, "elevation": 2302.0, "source": "osm", "_tags": {"ele": "2302", "name": "Aiguille", "name:oc": "Agulha", "natural": "peak", "source": "Bing ; cadastre-dgi-fr source : Direction Générale des Impôts - Cadastre. Mise à jour : 2012", "source:name:oc": "Lo Congrès"}}, {"name": "La Grande Arcizette", "latitude": 42.9230541, "longitude": -0.3611105, "elevation": 2513.0, "source": "osm", "_tags": {"ele": "2513", "name": "La Grande Arcizette", "name:oc": "La Grana Arciseta", "natural": "peak", "source": "Bing ; cadastre-dgi-fr source : Direction Générale des Impôts - Cadastre. Mise à jour : 2012", "source:name:oc": "Lo Congrès"}}, {"name": "Pambassibé", "latitude": 42.936299, "longitude": -0.3760733, "elevation": 2378.0, "source": "osm", "_tags": {"ele": "2378", "name": "Pambassibé", "name:oc": "Panvacivèr", "natural": "peak", "source:name:oc": "Lo Congrès"}}, {"name": "Pic d'Amoulat", "latitude": 42.927573, "longitude": -0.3528879, "elevation": 2595.0, "source": "osm", "_tags": {"ele": "2595", "name": "Pic d'Amoulat", "name:oc": "Pic d'Amolat", "natural": "peak", "source:name:oc": "Lo Congrès"}}, {"name": "La Pyramide", "latitude": 42.9300868, "longitude": -0.3542183, "elevation": 2498.0, "source": "osm", "_tags": {"ele": "2498", "name": "La Pyramide", "name:oc": "La Piramide", "natural": "peak", "source": "Bing;cadastre-dgi-fr source : Direction Générale des Impôts - Cadastre. Mise à jour : 2012", "source:name:oc": "Lo Congrès"}}, {"name": "Moyenne Arcizette", "latitude": 42.9241714, "longitude": -0.3742395, "elevation": 2390.0, "source": "osm", "_tags": {"ele": "2390", "name": "Moyenne Arcizette", "name:oc": "Arciseta Miejancèra", "natural": "peak", "source": "Bing ; cadastre-dgi-fr source : Direction Générale des Impôts - Cadastre. Mise à jour : 2012", "source:name:oc": "Lo Congrès"}}, {"name": "Petite Arcizette", "latitude": 42.9204007, "longitude": -0.3845188, "elevation": 2293.0, "source": "osm", "_tags": {"ele": "2293", "name": "Petite Arcizette", "name:oc": "Pichona Arciseta", "natural": "peak", "source": "Bing ; cadastre-dgi-fr source : Direction Générale des Impôts - Cadastre. Mise à jour : 2012", "source:name:oc": "Lo Congrès"}}, {"name": "Pic Herrana", "latitude": 42.9001332, "longitude": -0.396003, "elevation": 2065.0, "source": "osm", "_tags": {"ele": "2065", "name": "Pic Herrana", "name:oc": "Pic Herranan", "natural": "peak", "source": "Bing ; cadastre-dgi-fr source : Direction Générale des Impôts - Cadastre. Mise à jour : 2012", "source:name:oc": "Lo Congrès"}}, {"name": "Arre-Sourins", "latitude": 42.9264889, "longitude": -0.3360222, "elevation": 2619.0, "source": "osm", "_tags": {"ele": "2619", "name": "Arre-Sourins", "name:oc": "Arra Sourins", "natural": "peak", "source": "Bing;cadastre-dgi-fr source : Direction Générale des Impôts - Cadastre. Mise à jour : 2012", "source:name:oc": "Lo Congrès"}}, {"name": "La Sagette de Buzy", "latitude": 42.8967366, "longitude": -0.3907288, "elevation": 2130.0, "source": "osm", "_tags": {"ele": "2130", "name": "La Sagette de Buzy", "name:oc": "La Sageta de Busi", "natural": "peak", "source": "Bing ; cadastre-dgi-fr source : Direction Générale des Impôts - Cadastre. Mise à jour : 2012", "source:name:oc": "Lo Congrès"}}, {"name": "Le Galbe", "latitude": 42.8944208, "longitude": -0.3262095, "elevation": 2519.0, "source": "osm", "_tags": {"ele": "2519", "name": "Le Galbe", "name:oc": "Lo Pic de Galbe", "natural": "peak", "source": "Bing ; cadastre-dgi-fr source : Direction Générale des Impôts - Cadastre. Mise à jour : 2012", "source:name:oc": "Lo Congrès"}}, {"name": "Pic Milhas", "latitude": 42.8870463, "longitude": -0.3170262, "elevation": 2743.0, "source": "osm", "_tags": {"ele": "2743", "name": "Pic Milhas", "name:oc": "Pic Milhàs", "natural": "peak", "source": "Bing;cadastre-dgi-fr source : Direction Générale des Impôts - Cadastre. Mise à jour : 2012", "source:name:oc": "Lo Congrès"}}, {"name": "Pic Palada", "latitude": 42.8838129, "longitude": -0.3149634, "elevation": 2677.0, "source": "osm", "_tags": {"ele": "2677", "name": "Pic Palada", "name:oc": "Pic Paladà", "natural": "peak", "source": "cadastre-dgi-fr source : Direction Générale des Finances Publiques - Cadastre. Mise à jour : 2012;Bing"}}, {"name": "Pic des Quintétes", "latitude": 42.8726951, "longitude": -0.3585794, "elevation": 2603.0, "source": "osm", "_tags": {"ele": "2603", "name": "Pic des Quintétes", "name:oc": "Pic d'Ormeliàs", "natural": "peak", "prominence": "260", "source": "Bing;survey;IGN", "source:name:oc": "Lo Congrès", "source:prominence": "IGN map. Key col: Col de Lurien 2342m"}}, {"name": "Pic Moustardé", "latitude": 42.82778, "longitude": -0.4087681, "elevation": 2051.0, "source": "osm", "_tags": {"ele": "2051", "name": "Pic Moustardé", "name:oc": "Lo Mostardèr", "natural": "peak", "source": "Bing ; cadastre-dgi-fr source : Direction Générale des Impôts - Cadastre. Mise à jour : 2012", "source:name:oc": "Lo Congrès"}}, {"name": "Pic de Pombie", "latitude": 42.8453129, "longitude": -0.416859, "elevation": 2170.0, "source": "osm", "_tags": {"ele": "2170", "name": "Pic de Pombie", "name:oc": "Pic de Pombia", "natural": "peak", "source": "Bing ; cadastre-dgi-fr source : Direction Générale des Impôts - Cadastre. Mise à jour : 2012", "source:name:oc": "Lo Congrès"}}, {"name": "Pic d'Auliou", "latitude": 42.8771579, "longitude": -0.4854355, "elevation": 2409.0, "source": "osm", "_tags": {"ele": "2409", "name": "Pic d'Auliou", "name:oc": "Pic d'Auliu", "natural": "peak", "note": "Le Cadastre indique une altitude de 2420m. L'IGN donne 2409m", "source:name:oc": "Lo Congrès"}}, {"name": "Pic de Hourette", "latitude": 42.8392014, "longitude": -0.5034546, "elevation": 2383.0, "source": "osm", "_tags": {"ele": "2383", "name": "Pic de Hourette", "name:oc": "Pic de Horeta", "natural": "peak", "source": "Bing;cadastre-dgi-fr source : Direction Générale des Impôts - Cadastre. Mise à jour : 2012", "source:name:oc": "Lo Congrès"}}, {"name": "Pic de Larry", "latitude": 42.8443233, "longitude": -0.4989493, "elevation": 2341.0, "source": "osm", "_tags": {"ele": "2341", "name": "Pic de Larry", "name:oc": "Pic de L'Arria", "natural": "peak", "source": "Bing;cadastre-dgi-fr source : Direction Générale des Impôts - Cadastre. Mise à jour : 2012", "source:name:oc": "Lo Congrès"}}, {"name": "Aiguille d'Ayguebère", "latitude": 42.8913753, "longitude": -0.4472651, "elevation": null, "source": "osm", "_tags": {"name": "Aiguille d'Ayguebère", "name:oc": "Agulha d'Aigabèra", "natural": "peak", "source": "Bing ; cadastre-dgi-fr source : Direction Générale des Impôts - Cadastre. Mise à jour : 2012", "source:name:oc": "Lo Congrès"}}, {"name": "Pic Biscaou", "latitude": 42.8881757, "longitude": -0.446011, "elevation": 2021.0, "source": "osm", "_tags": {"ele": "2021", "name": "Pic Biscaou", "name:oc": "Pic Biscau", "natural": "peak", "source": "Bing ; cadastre-dgi-fr source : Direction Générale des Impôts - Cadastre. Mise à jour : 2012", "source:name:oc": "Lo Congrès"}}, {"name": "Pic d'Aule", "latitude": 42.89455, "longitude": -0.4714369, "elevation": 2392.0, "source": "osm", "_tags": {"ele": "2392", "name": "Pic d'Aule", "name:oc": "Pic d'Aula", "natural": "peak", "source": "Bing;cadastre-dgi-fr source : Direction Générale des Impôts - Cadastre. Mise à jour : 2012", "source:name:oc": "Lo Congrès"}}, {"name": "Pic d'Er", "latitude": 42.9023476, "longitude": -0.4644161, "elevation": 2176.0, "source": "osm", "_tags": {"ele": "2176", "name": "Pic d'Er", "name:oc": "Pic d'Er", "natural": "peak", "source": "Bing ; cadastre-dgi-fr source : Direction Générale des Impôts - Cadastre. Mise à jour : 2012", "source:name:oc": "Lo Congrès"}}, {"name": "Pic de Capéran", "latitude": 42.9081177, "longitude": -0.495763, "elevation": 2408.0, "source": "osm", "_tags": {"ele": "2408", "name": "Pic de Capéran", "name:oc": "Pic deth Caperan", "natural": "peak", "source": "Bing;cadastre-dgi-fr source : Direction Générale des Impôts - Cadastre. Mise à jour : 2012", "source:name:oc": "Lo Congrès"}}, {"name": "Pic de Las Sérous", "latitude": 42.9079595, "longitude": -0.4923478, "elevation": null, "source": "osm", "_tags": {"name": "Pic de Las Sérous", "name:oc": "Pic de las Serors", "natural": "peak", "source": "Bing ; cadastre-dgi-fr source : Direction Générale des Impôts - Cadastre. Mise à jour : 2012", "source:name:oc": "Lo Congrès"}}, {"name": "Pic la Bèque de Sesques", "latitude": 42.9112847, "longitude": -0.4765703, "elevation": 2371.0, "source": "osm", "_tags": {"ele": "2371", "name": "Pic la Bèque de Sesques", "name:oc": "La Bèca de Sescas", "natural": "peak", "source": "Bing ; cadastre-dgi-fr source : Direction Générale des Impôts - Cadastre. Mise à jour : 2012", "source:name:oc": "Lo Congrès"}}, {"name": "Sommet Gaziès", "latitude": 42.8956509, "longitude": -0.4848252, "elevation": 2419.0, "source": "osm", "_tags": {"ele": "2419", "name": "Sommet Gaziès", "name:oc": "Som Gasiés", "natural": "peak", "source": "Bing;cadastre-dgi-fr source : Direction Générale des Impôts - Cadastre. Mise à jour : 2012", "source:name:oc": "Lo Congrès"}}, {"name": "Sommet de Moundaut", "latitude": 42.9091765, "longitude": -0.5053392, "elevation": 2512.0, "source": "osm", "_tags": {"ele": "2512", "name": "Sommet de Moundaut", "name:oc": "Som de Mondaut", "natural": "peak", "source": "Bing;cadastre-dgi-fr source : Direction Générale des Impôts - Cadastre. Mise à jour : 2012", "source:name:oc": "Lo Congrès"}}, {"name": "Turon de Hissau", "latitude": 42.9151888, "longitude": -0.4559284, "elevation": 1699.0, "source": "osm", "_tags": {"ele": "1699", "name": "Turon de Hissau", "name:oc": "Turon de Hissau", "natural": "peak", "source": "Bing ; cadastre-dgi-fr source : Direction Générale des Impôts - Cadastre. Mise à jour : 2012", "source:name:oc": "Lo Congrès"}}, {"name": "Pic d'Isabe", "latitude": 42.9291285, "longitude": -0.5105774, "elevation": 2475.0, "source": "osm", "_tags": {"ele": "2475", "name": "Pic d'Isabe", "name:oc": "Pic d'Isabe", "natural": "peak", "source": "Bing ; cadastre-dgi-fr source : Direction Générale des Impôts - Cadastre. Mise à jour : 2012", "source:name:oc": "Lo Congrès"}}, {"name": "Pic de la Ténèbre", "latitude": 42.934278, "longitude": -0.5056558, "elevation": 2121.0, "source": "osm", "_tags": {"ele": "2121", "name": "Pic de la Ténèbre", "name:oc": "Pic dera Tenèbra", "natural": "peak", "source": "Bing;cadastre-dgi-fr source : Direction Générale des Impôts - Cadastre. Mise à jour : 2012", "source:name:oc": "Lo Congrès"}}, {"name": "Esquerra", "latitude": 42.9402898, "longitude": -0.3067137, "elevation": 2453.0, "source": "osm", "_tags": {"ele": "2453", "name": "Esquerra", "name:oc": "Esquerra", "natural": "peak", "source:name:oc": "Lo Congrès"}}, {"name": "Capéran Sud de Ger", "latitude": 42.9374059, "longitude": -0.3623955, "elevation": 2295.0, "source": "osm", "_tags": {"ele": "2295", "name": "Capéran Sud de Ger", "name:oc": "Lo Caperan de Haut de Gèr", "natural": "peak", "source": "Bing ; cadastre-dgi-fr source : Direction Générale des Impôts - Cadastre. Mise à jour : 2012", "source:name:oc": "Lo Congrès"}}, {"name": "Pêne des Bassibes de Bouy", "latitude": 42.9469725, "longitude": -0.3542478, "elevation": 2073.0, "source": "osm", "_tags": {"ele": "2073", "name": "Pêne des Bassibes de Bouy", "name:fr": "Pêne des Bassibes de Bouy", "name:oc": "Lou Pambassibé de Bouy", "natural": "peak", "source": "Bing ; cadastre-dgi-fr source : Direction Générale des Impôts - Cadastre. Mise à jour : 2012", "source:name:oc": "ieo-bdtopoc"}}, {"name": "Les Coutchets", "latitude": 42.9439682, "longitude": -0.3492041, "elevation": 2260.0, "source": "osm", "_tags": {"ele": "2260", "name": "Les Coutchets", "name:fr": "Les Coutchets", "name:oc": "Lous Coutchets", "natural": "peak", "source": "Bing;cadastre-dgi-fr source : Direction Générale des Impôts - Cadastre. Mise à jour : 2012", "source:name:oc": "ieo-bdtopoc"}}, {"name": "Soum d'Arriste", "latitude": 43.0253009, "longitude": -0.3083729, "elevation": 1914.0, "source": "osm", "_tags": {"ele": "1914", "name": "Soum d'Arriste", "name:oc": "Soum d'Arriste", "natural": "peak", "source": "Bing;cadastre-dgi-fr source : Direction Générale des Impôts - Cadastre. Mise à jour : 2012", "source:name:oc": "Lo Congrès"}}, {"name": "Soum de Counée", "latitude": 43.0749069, "longitude": -0.4736722, "elevation": 1352.0, "source": "osm", "_tags": {"ele": "1352", "name": "Soum de Counée", "name:oc": "Som de Counée", "natural": "peak", "source": "Bing ; cadastre-dgi-fr source : Direction Générale des Impôts - Cadastre. Mise à jour : 2012", "source:name:oc": "Lo Congrès"}}, {"name": "Pic de l'Arraillhé", "latitude": 43.0521055, "longitude": -0.6385191, "elevation": 1242.0, "source": "osm", "_tags": {"ele": "1242", "name": "Pic de l'Arraillhé", "name:oc": "Er Arralhèr", "natural": "peak", "source:name:oc": "ieo-bdtopoc"}}, {"name": "Massey", "latitude": 43.0128849, "longitude": -0.6642723, "elevation": 1239.0, "source": "osm", "_tags": {"ele": "1239", "name": "Massey", "name:oc": "Mansei", "natural": "peak", "source:name:oc": "Lo Congrès"}}, {"name": "Ronglet", "latitude": 42.9408146, "longitude": -0.5292161, "elevation": 2180.0, "source": "osm", "_tags": {"ele": "2180", "name": "Ronglet", "name:oc": "Ronglet", "natural": "peak", "source:name:oc": "Lo Congrès"}}, {"name": "Gaztelu", "latitude": 43.1536774, "longitude": -0.9582125, "elevation": 582.0, "source": "osm", "_tags": {"archaeological_site": "fortification", "ele": "582", "fortification_type": "hill_fort", "historic": "archaeological_site", "name": "Gaztelu", "natural": "peak"}}, {"name": "Picasse de Labassa", "latitude": 42.8457274, "longitude": -0.263488, "elevation": 2478.0, "source": "osm", "_tags": {"ele": "2478", "name": "Picasse de Labassa", "natural": "peak"}}, {"name": "Mont Lazive", "latitude": 42.9779393, "longitude": -0.3689741, "elevation": 1445.0, "source": "osm", "_tags": {"ele": "1445", "name": "Mont Lazive", "name:oc": "Mont Lazive", "natural": "peak", "source:name:oc": "Lo Congrès"}}, {"name": "Pic de Coos", "latitude": 43.0208935, "longitude": -0.3679259, "elevation": 1844.0, "source": "osm", "_tags": {"ele": "1844", "name": "Pic de Coos", "name:oc": "Pic de Cons", "natural": "peak", "source:name:oc": "Lo Congrès"}}, {"name": "Le Tousseau", "latitude": 43.0255544, "longitude": -0.3817248, "elevation": 1693.0, "source": "osm", "_tags": {"ele": "1693", "name": "Le Tousseau", "name:oc": "Lo Tossau", "natural": "peak", "place": "locality", "source:name:oc": "Lo Congrès"}}, {"name": "Lauriolle", "latitude": 43.0134379, "longitude": -0.476557, "elevation": 1858.0, "source": "osm", "_tags": {"ele": "1858", "name": "Lauriolle", "name:oc": "Lauriòla", "natural": "peak", "source:name:oc": "Lo Congrès"}}, {"name": "Pic de Gerbe", "latitude": 43.0083987, "longitude": -0.459631, "elevation": 1901.0, "source": "osm", "_tags": {"ele": "1901", "name": "Pic de Gerbe", "natural": "peak"}}, {"name": "Turon Garié", "latitude": 42.8847722, "longitude": -0.4891394, "elevation": 2381.0, "source": "osm", "_tags": {"ele": "2381", "name": "Turon Garié", "name:oc": "Turon Garièr", "natural": "peak", "source": "Bing;cadastre-dgi-fr source : Direction Générale des Impôts - Cadastre. Mise à jour : 2012", "source:name:oc": "Lo Congrès"}}, {"name": "Piton von Martin", "latitude": 42.8458673, "longitude": -0.3158885, "elevation": null, "source": "osm", "_tags": {"name": "Piton von Martin", "natural": "peak"}}, {"name": "Pic du lac d'Arrious", "latitude": 42.8441143, "longitude": -0.3364974, "elevation": 2495.0, "source": "osm", "_tags": {"ele": "2495", "name": "Pic du lac d'Arrious", "name:oc": "Pic deu Lac deus Arrius", "natural": "peak", "source:name:oc": "Lo Congrès"}}, {"name": "Pic Arrious", "latitude": 42.8541977, "longitude": -0.3511126, "elevation": 2720.0, "source": "osm", "_tags": {"ele": "2720", "name": "Pic Arrious", "name:oc": "Pic Arriós", "natural": "peak", "source:name:oc": "Lo Congrès"}}, {"name": "Pic Rouge", "latitude": 42.8478709, "longitude": -0.2807109, "elevation": 2661.0, "source": "osm", "_tags": {"ele": "2661", "name": "Pic Rouge", "natural": "peak", "source": "ign.fr"}}, {"name": "", "latitude": 43.1403674, "longitude": -0.0490733, "elevation": null, "source": "osm", "_tags": {"natural": "peak"}}, {"name": "Mont de Gez", "latitude": 43.0073091, "longitude": -0.1238627, "elevation": 1097.0, "source": "osm", "_tags": {"ele": "1097", "name": "Mont de Gez", "natural": "peak", "wikidata": "Q31667576"}}, {"name": "Amimour", "latitude": 43.0332107, "longitude": -0.0491708, "elevation": 803.0, "source": "osm", "_tags": {"ele": "803", "name": "Amimour", "natural": "peak"}}, {"name": "Pic d'Ansabère / Petrechema", "latitude": 42.9029735, "longitude": -0.7326009, "elevation": 2371.0, "source": "osm", "_tags": {"ele": "2371", "name": "Pic d'Ansabère / Petrechema", "name:an": "Petrachema", "name:es": "Pico de Petrechema", "name:eu": "Petretxema", "name:fr": "Pic d'Ansabère", "natural": "peak", "wikidata": "Q3382346"}}, {"name": "Mesa de los Tres Reyes", "latitude": 42.9182305, "longitude": -0.7234025, "elevation": 2421.0, "source": "osm", "_tags": {"description": "Not to be confused with Hiru Erregeen Mahaia (2446 m)\nDifferent names : Table, La Table, Table des Trois Rois, Era Tabla d' eths Tros Rois, Pueyo de Nay, Mesa de los Tres Reyes, Mesa d'os Tres Reis", "ele": "2421", "name": "Mesa de los Tres Reyes", "name:an": "Mesa d'os Tres Reis", "name:ca": "Taula dels Tres Reis", "name:es": "Mesa de los Tres Reyes", "name:eu": "Taula / Hiru Erregeen Taula", "name:fr": "Table / Table des Trois Rois", "natural": "peak"}}, {"name": "Mail Acut", "latitude": 43.0314347, "longitude": -0.6928053, "elevation": 580.0, "source": "osm", "_tags": {"ele": "580", "name": "Mail Acut", "name:oc": "Malh Acut", "natural": "peak", "source:name:oc": "Lo Congrès"}}, {"name": "Le Buala", "latitude": 43.0172642, "longitude": -0.0794292, "elevation": 591.0, "source": "osm", "_tags": {"ele": "591", "name": "Le Buala", "natural": "peak", "source": "bing + cadastre raster"}}, {"name": "Pic de Mousté", "latitude": 43.0159483, "longitude": -0.5539982, "elevation": 1601.0, "source": "osm", "_tags": {"ele": "1601", "name": "Pic de Mousté", "natural": "peak", "source:name:oc": "Lo Congrès"}}, {"name": "Pic de Saoussé", "latitude": 42.9794159, "longitude": -0.2173774, "elevation": 1504.0, "source": "osm", "_tags": {"ele": "1504", "name": "Pic de Saoussé", "natural": "peak"}}, {"name": "Pic du Pibeste", "latitude": 43.0518552, "longitude": -0.0808071, "elevation": 1349.0, "source": "osm", "_tags": {"ele": "1349", "name": "Pic du Pibeste", "natural": "peak"}}, {"name": "Aiguille de Lahazère", "latitude": 42.8530569, "longitude": -0.0652782, "elevation": 2552.0, "source": "osm", "_tags": {"ele": "2552", "name": "Aiguille de Lahazère", "natural": "peak"}}, {"name": "Mailh Massibé", "latitude": 43.0282977, "longitude": -0.5063297, "elevation": 1973.0, "source": "osm", "_tags": {"ele": "1973", "name": "Mailh Massibé", "name:oc": "Malh Vacivèr", "natural": "peak", "source:name:oc": "ieo-bdtopoc"}}, {"name": "Soume d'Ostes", "latitude": 42.9965549, "longitude": -0.1895532, "elevation": 1465.0, "source": "osm", "_tags": {"ele": "1465", "name": "Soume d'Ostes", "natural": "peak"}}, {"name": "", "latitude": 43.1943322, "longitude": -0.8583285, "elevation": 565.0, "source": "osm", "_tags": {"ele": "565", "natural": "peak"}}, {"name": "Ahantziga", "latitude": 43.1846044, "longitude": -0.8693668, "elevation": 586.0, "source": "osm", "_tags": {"alt_name": "Ahantsiga", "ele": "586", "name": "Ahantziga", "natural": "peak", "source:position": "survey", "wikidata": "Q2827405"}}, {"name": "", "latitude": 42.913214, "longitude": -0.2307926, "elevation": 2292.0, "source": "osm", "_tags": {"ele": "2292", "natural": "peak", "source": "IGN"}}, {"name": "Soum de Bassia du Hoo", "latitude": 42.8836649, "longitude": -0.2515112, "elevation": 2571.0, "source": "osm", "_tags": {"ele": "2571", "name": "Soum de Bassia du Hoo", "natural": "peak", "prominence": "288", "source:prominence": "CNIG map.  Key col: 2283m"}}, {"name": "Arriou Né", "latitude": 42.8658604, "longitude": -0.0809266, "elevation": 2577.0, "source": "osm", "_tags": {"ele": "2577", "name": "Arriou Né", "natural": "peak"}}, {"name": "La Caperette", "latitude": 42.8750021, "longitude": -0.07801, "elevation": 2395.0, "source": "osm", "_tags": {"ele": "2395", "name": "La Caperette", "natural": "peak"}}, {"name": "", "latitude": 43.122163, "longitude": -0.6780023, "elevation": 544.0, "source": "osm", "_tags": {"ele": "544", "natural": "peak"}}, {"name": "Soum d'Ombret", "latitude": 43.1269455, "longitude": -0.681582, "elevation": 562.0, "source": "osm", "_tags": {"archaeological_site": "megalith", "ele": "562", "historic": "archaeological_site", "name": "Soum d'Ombret", "name:oc": "Som d'Ombret", "natural": "peak", "note": "Nom vernaculaire : Jardin des Fées", "source:name:oc": "Lo Congrès"}}, {"name": "Pic de Guillers", "latitude": 42.9943221, "longitude": -0.7361065, "elevation": 1597.0, "source": "osm", "_tags": {"ele": "1597", "name": "Pic de Guillers", "name:oc": "Pic de Guilhèrs", "natural": "peak", "source:name:oc": "Lo Congrès"}}, {"name": "Pic Souriguère", "latitude": 43.0178007, "longitude": -0.7147869, "elevation": 1589.0, "source": "osm", "_tags": {"ele": "1589", "name": "Pic Souriguère", "name:oc": "Pic Soriguèra", "natural": "peak", "source:name:oc": "Lo Congrès"}}, {"name": "Soum d'Arrouy", "latitude": 43.0264171, "longitude": -0.2200467, "elevation": 1836.0, "source": "osm", "_tags": {"ele": "1836", "name": "Soum d'Arrouy", "natural": "peak"}}, {"name": "Pic de Navaillo", "latitude": 43.0053378, "longitude": -0.2241882, "elevation": 1666.0, "source": "osm", "_tags": {"ele": "1666", "name": "Pic de Navaillo", "natural": "peak"}}, {"name": "Txamantxoia / Punta Maz", "latitude": 42.9022695, "longitude": -0.8169875, "elevation": 1941.2, "source": "osm", "_tags": {"alt_name": "Maz", "ele": "1941.20", "name": "Txamantxoia / Punta Maz", "name:an": "Punta Maz", "name:es": "Punta Maz", "name:eu": "Txamantxoia", "natural": "peak", "wikidata": "Q3573794", "wikipedia": "an:Punta Maz"}}, {"name": "Pic Rouge", "latitude": 42.8515231, "longitude": -0.6326559, "elevation": 2177.0, "source": "osm", "_tags": {"ele": "2177", "name": "Pic Rouge", "name:an": "Pico Royo", "name:oc": "Pic Arroi", "natural": "peak", "source:name:oc": "Lo Congrès"}}, {"name": "", "latitude": 42.8353908, "longitude": -0.7708442, "elevation": 2101.0, "source": "osm", "_tags": {"ele": "2101", "natural": "peak", "peak": "Pentecostés de Alano"}}, {"name": "Pic de Nets", "latitude": 42.861894, "longitude": -0.1677081, "elevation": 2428.0, "source": "osm", "_tags": {"ele": "2428", "name": "Pic de Nets", "natural": "peak"}}, {"name": "Tuc Arrouy", "latitude": 42.8533261, "longitude": -0.1744991, "elevation": 2399.0, "source": "osm", "_tags": {"ele": "2399", "name": "Tuc Arrouy", "natural": "peak"}}, {"name": "La Cardinquère Est", "latitude": 42.8330216, "longitude": -0.1871894, "elevation": null, "source": "osm", "_tags": {"fixme": "Position estimée via Bing, corriger", "name": "La Cardinquère Est", "natural": "peak"}}, {"name": "", "latitude": 42.9142591, "longitude": -0.0694771, "elevation": null, "source": "osm", "_tags": {"natural": "peak"}}, {"name": "", "latitude": 43.16643, "longitude": -0.9933493, "elevation": 667.0, "source": "osm", "_tags": {"ele": "667", "natural": "peak"}}, {"name": "Pic de Bernat Barrau", "latitude": 42.8385124, "longitude": -0.216004, "elevation": 2793.0, "source": "osm", "_tags": {"ele": "2793", "fixme": "position estimated by Bing and height lines", "name": "Pic de Bernat Barrau", "natural": "peak"}}, {"name": "Pic Arrouy", "latitude": 42.849215, "longitude": -0.2005573, "elevation": 2785.0, "source": "osm", "_tags": {"ele": "2785", "fixme": "position estimated by Bing and height lines", "name": "Pic Arrouy", "natural": "peak"}}, {"name": "Concat", "latitude": 43.1265026, "longitude": -0.0396106, "elevation": 532.0, "source": "osm", "_tags": {"ele": "532", "name": "Concat", "natural": "peak", "source": "cadastre-dgi-fr source : Direction Générale des Impôts - Cadastre. Mise à jour : 2013"}}, {"name": "Pouey Mayou", "latitude": 43.1560506, "longitude": -0.0656689, "elevation": 540.0, "source": "osm", "_tags": {"ele": "540", "name": "Pouey Mayou", "natural": "peak", "source": "cadastre-dgi-fr source : Direction Générale des Impôts - Cadastre. Mise à jour : 2013"}}, {"name": "le Turon", "latitude": 43.1624576, "longitude": -0.0355088, "elevation": 445.0, "source": "osm", "_tags": {"ele": "445", "name": "le Turon", "natural": "peak", "source": "cadastre-dgi-fr source : Direction Générale des Impôts - Cadastre. Mise à jour : 2013"}}, {"name": "Alléas", "latitude": 42.9784108, "longitude": -0.2391726, "elevation": 1492.0, "source": "osm", "_tags": {"ele": "1492", "name": "Alléas", "natural": "peak", "source": "cadastre-dgi-fr source : Direction Générale des Impôts - Cadastre. Mise à jour : 2013"}}, {"name": "Turon de Saucède", "latitude": 42.9559056, "longitude": -0.2709224, "elevation": 1571.0, "source": "osm", "_tags": {"ele": "1571", "name": "Turon de Saucède", "natural": "peak", "source": "cadastre-dgi-fr source : Direction Générale des Impôts - Cadastre. Mise à jour : 2013"}}, {"name": "Le Billare", "latitude": 42.9302781, "longitude": -0.6908331, "elevation": 2309.0, "source": "osm", "_tags": {"ele": "2309", "name": "Le Billare", "name:oc": "Lo Billare", "natural": "peak", "source:name:oc": "Lo Congrès"}}, {"name": "Mailh Arrouy", "latitude": 43.0971185, "longitude": -0.5773228, "elevation": 1251.0, "source": "osm", "_tags": {"ele": "1251", "name": "Mailh Arrouy", "name:oc": "Malh Arroi", "natural": "peak", "source": "survey", "source:name:oc": "Lo Congrès"}}, {"name": "Pic de Countendé", "latitude": 42.9502366, "longitude": -0.709259, "elevation": 2338.0, "source": "osm", "_tags": {"ele": "2338", "name": "Pic de Countendé", "name:oc": "Pic deth Contendèr", "natural": "peak", "source:name:oc": "Lo Congrès"}}, {"name": "Pic Urutchordoquigagne", "latitude": 43.1037611, "longitude": -0.9397915, "elevation": null, "source": "osm", "_tags": {"name": "Pic Urutchordoquigagne", "natural": "peak"}}, {"name": "Pic Uscutusgagne", "latitude": 43.1102597, "longitude": -0.9240465, "elevation": 604.0, "source": "osm", "_tags": {"ele": "604", "name": "Pic Uscutusgagne", "name:eu": "Uzkutuzgain", "natural": "peak"}}, {"name": "", "latitude": 43.117064, "longitude": -0.9228822, "elevation": 554.0, "source": "osm", "_tags": {"ele": "554", "natural": "peak"}}, {"name": "Pic Permayou", "latitude": 42.9367256, "longitude": -0.5179008, "elevation": 2344.0, "source": "osm", "_tags": {"ele": "2344", "name": "Pic Permayou", "name:oc": "Pic Pèramajor", "natural": "peak", "source:name:oc": "Lo Congrès"}}, {"name": "Pic d'Anchet", "latitude": 42.9437424, "longitude": -0.5436472, "elevation": 1980.0, "source": "osm", "_tags": {"ele": "1980", "name": "Pic d'Anchet", "name:oc": "Pic d'Anchet", "natural": "peak", "source:name:oc": "Lo Congrès"}},