[{"name": "Roc de La Gourgue", "latitude": 42.8604162, "longitude": 1.8084446, "elevation": 1618.0, "source": "osm", "_tags": {"ele": "1618", "name": "Roc de La Gourgue", "natural": "peak"}}, {"name": "Cap de Barthala", "latitude": 42.8451669, "longitude": 1.6318606, "elevation": 989.0, "source": "osm", "_tags": {"ele": "989", "name": "Cap de Barthala", "natural": "peak"}}, {"name": "La Pique", "latitude": 42.8466017, "longitude": 1.6260454, "elevation": 1046.4, "source": "osm", "_tags": {"description": "Borne en granit gravée IGN et 949 - Point vu en place en 2003", "ele": "1046.4", "name": "La Pique", "natural": "peak", "note": "Ne pas déplacer ce point, cf. - Do not move this node, see - http://wiki.openstreetmap.org/wiki/WikiProject_France/Repères_Géodésiques#Permanence_des_rep.C3.A8res", "ref": "0930601 - 1", "source": "©IGN 2010 dans le cadre de la cartographie réglementaire", "url": "http://geodesie.ign.fr/fiches/index.php?module=e&action=fichepdf&source=carte&sit_no=0930601"}}, {"name": "", "latitude": 42.9385338, "longitude": 1.7576706, "elevation": 994.0, "source": "osm", "_tags": {"ele": "994", "natural": "peak", "tourism": "viewpoint"}}, {"name": "Roc Marot", "latitude": 42.937887, "longitude": 1.7601408, "elevation": 1002.0, "source": "osm", "_tags": {"ele": "1002", "name": "Roc Marot", "natural": "peak"}}, {"name": "Pic de Balmiou", "latitude": 42.8536716, "longitude": 1.3370556, "elevation": 1611.0, "source": "osm", "_tags": {"ele": "1611", "name": "Pic de Balmiou", "natural": "peak"}}, {"name": "Tuc de La coume", "latitude": 42.8426094, "longitude": 1.3374001, "elevation": 1745.0, "source": "osm", "_tags": {"ele": "1745", "name": "Tuc de La coume", "natural": "peak"}}, {"name": "Pic de l'Arraing", "latitude": 42.8979592, "longitude": 0.9750377, "elevation": 1674.0, "source": "osm", "_tags": {"ele": "1674", "name": "Pic de l'Arraing", "natural": "peak"}}, {"name": "Cap de la Lesse", "latitude": 42.8251052, "longitude": 1.6035715, "elevation": 1187.0, "source": "osm", "_tags": {"ele": "1187", "name": "Cap de la Lesse", "natural": "peak", "source": "IGN"}}, {"name": "Cap de Tartan", "latitude": 42.8423347, "longitude": 1.6251166, "elevation": null, "source": "osm", "_tags": {"name": "Cap de Tartan", "natural": "peak"}}, {"name": "Pic de la Journalade", "latitude": 42.8590611, "longitude": 1.4510916, "elevation": 1945.0, "source": "osm", "_tags": {"ele": "1945", "name": "Pic de la Journalade", "natural": "peak", "wikidata": "Q31683122"}}, {"name": "Tuc du Coucou", "latitude": 42.8306209, "longitude": 1.0043193, "elevation": 1890.0, "source": "osm", "_tags": {"ele": "1890", "name": "Tuc du Coucou", "natural": "peak"}}, {"name": "Serre de la Gorp", "latitude": 43.0012902, "longitude": 1.8997783, "elevation": 550.0, "source": "osm", "_tags": {"ele": "550", "name": "Serre de la Gorp", "natural": "peak"}}, {"name": "Tuc de Quer Ner", "latitude": 42.8310742, "longitude": 1.0873847, "elevation": 2389.0, "source": "osm", "_tags": {"ele": "2389", "name": "Tuc de Quer Ner", "natural": "peak"}}, {"name": "Le Clauzal", "latitude": 42.8637169, "longitude": 1.3304991, "elevation": 1420.0, "source": "osm", "_tags": {"ele": "1420", "name": "Le Clauzal", "natural": "peak"}}, {"name": "Tuc de l'Adosse", "latitude": 42.8263454, "longitude": 1.2741673, "elevation": 1669.0, "source": "osm", "_tags": {"ele": "1669", "name": "Tuc de l'Adosse", "natural": "peak"}}, {"name": "Pic de Midi de Bordes", "latitude": 42.8578066, "longitude": 1.0420328, "elevation": 1762.0, "source": "osm", "_tags": {"ele": "1762", "name": "Pic de Midi de Bordes", "natural": "peak"}}, {"name": "Le Picou", "latitude": 42.9114072, "longitude": 1.518528, "elevation": 1606.0, "source": "osm", "_tags": {"ele": "1606", "name": "Le Picou", "natural": "peak"}}, {"name": "Roc Mouché", "latitude": 42.9063351, "longitude": 1.5120549, "elevation": 1705.0, "source": "osm", "_tags": {"ele": "1705", "name": "Roc Mouché", "natural": "peak"}}, {"name": "Rocher de Batail", "latitude": 42.9056164, "longitude": 1.5063049, "elevation": 1715.0, "source": "osm", "_tags": {"ele": "1715", "name": "Rocher de Batail", "natural": "peak", "source": "survey"}}, {"name": "Roc de Caralp", "latitude": 42.9900867, "longitude": 1.5571425, "elevation": 735.0, "source": "osm", "_tags": {"ele": "735", "name": "Roc de Caralp", "natural": "peak", "tourism": "viewpoint"}}, {"name": "Picou de Bompas", "latitude": 42.856491, "longitude": 1.6184847, "elevation": 900.0, "source": "osm", "_tags": {"ele": "900", "name": "Picou de Bompas", "natural": "peak", "source": "Donnee cartographique IGN 1050"}}, {"name": "Rocher de la Flouranine", "latitude": 42.8593898, "longitude": 1.610337, "elevation": 847.0, "source": "osm", "_tags": {"ele": "847", "name": "Rocher de la Flouranine", "natural": "peak", "source": "Cartographie IGN 1950"}}, {"name": "Cap de Moncaut", "latitude": 42.9289107, "longitude": 1.2881454, "elevation": 1371.0, "source": "osm", "_tags": {"ele": "1371", "name": "Cap de Moncaut", "natural": "peak"}}, {"name": "Pic de la Lauzate", "latitude": 42.8610581, "longitude": 1.7035848, "elevation": 1774.0, "source": "osm", "_tags": {"ele": "1774", "name": "Pic de la Lauzate", "natural": "peak"}}, {"name": "Pic de l'Eterlou", "latitude": 42.8245811, "longitude": 1.7494909, "elevation": 2128.0, "source": "osm", "_tags": {"ele": "2128", "name": "Pic de l'Eterlou", "natural": "peak", "source": "GPS"}}, {"name": "Pic Galinat", "latitude": 42.8260139, "longitude": 1.7440493, "elevation": 2115.0, "source": "osm", "_tags": {"ele": "2115", "name": "Pic Galinat", "natural": "peak", "source": "GPS"}}, {"name": "Roc de la Lauzate", "latitude": 42.8257809, "longitude": 1.7135765, "elevation": null, "source": "osm", "_tags": {"name": "Roc de la Lauzate", "natural": "peak"}}, {"name": "Cap de la Lesse d'Appy", "latitude": 42.8292407, "longitude": 1.7165139, "elevation": null, "source": "osm", "_tags": {"name": "Cap de la Lesse d'Appy", "natural": "peak"}}, {"name": "Pic des Trois Seigneurs", "latitude": 42.8305212, "longitude": 1.4401118, "elevation": 2199.0, "source": "osm", "_tags": {"ele": "2199", "name": "Pic des Trois Seigneurs", "natural": "peak", "prominence": "682", "source:prominence": "2199-1517 (Port de Lers)", "wikidata": "Q3382418"}}, {"name": "Picou de la Courate", "latitude": 42.8267914, "longitude": 1.2658199, "elevation": 1461.0, "source": "osm", "_tags": {"ele": "1461", "name": "Picou de la Courate", "natural": "peak"}}, {"name": "Sommet de Néza", "latitude": 42.8655648, "longitude": 1.3607319, "elevation": 1246.0, "source": "osm", "_tags": {"ele": "1246", "name": "Sommet de Néza", "natural": "peak"}}, {"name": "Cap d'Escouades", "latitude": 42.939616, "longitude": 1.2309725, "elevation": 1223.0, "source": "osm", "_tags": {"ele": "1223", "name": "Cap d'Escouades", "natural": "peak"}}, {"name": "Cap de Bacalasse", "latitude": 42.9475087, "longitude": 1.2204722, "elevation": 956.0, "source": "osm", "_tags": {"ele": "956", "name": "Cap de Bacalasse", "natural": "peak"}}, {"name": "Cap des Espinassière", "latitude": 42.9313419, "longitude": 1.2131888, "elevation": 1048.0, "source": "osm", "_tags": {"ele": "1048", "name": "Cap des Espinassière", "natural": "peak"}}, {"name": "Pic de Calamane", "latitude": 42.9396965, "longitude": 1.2393968, "elevation": 1360.0, "source": "osm", "_tags": {"ele": "1360", "name": "Pic de Calamane", "natural": "peak"}}, {"name": "Cap de Péréguère", "latitude": 42.9490329, "longitude": 1.2039067, "elevation": 891.0, "source": "osm", "_tags": {"ele": "891", "name": "Cap de Péréguère", "natural": "peak"}}, {"name": "Tuc de Montcalivert", "latitude": 43.0138593, "longitude": 1.1659609, "elevation": 677.0, "source": "osm", "_tags": {"ele": "677", "name": "Tuc de Montcalivert", "natural": "peak"}}, {"name": "Pech de l'Homme", "latitude": 43.1887519, "longitude": 1.9646407, "elevation": null, "source": "osm", "_tags": {"name": "Pech de l'Homme", "natural": "peak", "source": "cadastre-dgi-fr source : Direction Générale des Impôts - Cadastre. Mise à jour : 2013"}}, {"name": "Pech del Bousquet", "latitude": 43.1953638, "longitude": 1.9510204, "elevation": null, "source": "osm", "_tags": {"name": "Pech del Bousquet", "natural": "peak", "source": "cadastre-dgi-fr source : Direction Générale des Impôts - Cadastre. Mise à jour : 2013"}}, {"name": "Pech du Seigneur", "latitude": 43.1930264, "longitude": 1.9600537, "elevation": null, "source": "osm", "_tags": {"name": "Pech du Seigneur", "natural": "peak", "source": "cadastre-dgi-fr source : Direction Générale des Impôts - Cadastre. Mise à jour : 2013"}}, {"name": "Le Cos", "latitude": 42.8567537, "longitude": 1.1846029, "elevation": 1015.0, "source": "osm", "_tags": {"ele": "1015", "name": "Le Cos", "natural": "peak"}}, {"name": "Pic d'Estibat", "latitude": 42.8877554, "longitude": 1.4456665, "elevation": 1663.0, "source": "osm", "_tags": {"ele": "1663", "name": "Pic d'Estibat", "natural": "peak"}}, {"name": "Tuc de la Messe", "latitude": 42.8254143, "longitude": 1.0862371, "elevation": 2446.0, "source": "osm", "_tags": {"ele": "2446", "name": "Tuc de la Messe", "natural": "peak"}}, {"name": "Pech Haut", "latitude": 43.2743562, "longitude": 1.9308377, "elevation": 327.0, "source": "osm", "_tags": {"ele": "327", "name": "Pech Haut", "natural": "peak", "tourism": "viewpoint"}}, {"name": "Pog de Montségur", "latitude": 42.8756062, "longitude": 1.8326501, "elevation": 1200.0, "source": "osm", "_tags": {"ele": "1200", "name": "Pog de Montségur", "natural": "peak", "summit:cross": "no", "summit:register": "no"}}, {"name": "La Frau", "latitude": 42.8398963, "longitude": 1.8388234, "elevation": 1925.0, "source": "osm", "_tags": {"ele": "1925", "name": "La Frau", "natural": "peak"}}, {"name": "Pic de Crède", "latitude": 42.828356, "longitude": 1.4449142, "elevation": 2197.0, "source": "osm", "_tags": {"ele": "2197", "name": "Pic de Crède", "natural": "peak", "summit:cross": "no", "summit:register": "no"}}, {"name": "Tuc d'Eychelle", "latitude": 42.8385703, "longitude": 1.0881058, "elevation": 2315.0, "source": "osm", "_tags": {"ele": "2315", "name": "Tuc d'Eychelle", "natural": "peak"}}, {"name": "Roc du Traucadou", "latitude": 42.8931401, "longitude": 1.5864629, "elevation": 1374.0, "source": "osm", "_tags": {"ele": "1374", "name": "Roc du Traucadou", "natural": "peak", "reg_name": "Roc del Cap de Traoucadou", "source": "cadastre-dgi-fr source : Direction Générale des Impôts - Cadastre. Mise à jour : 2014"}}, {"name": "Roc du Taus", "latitude": 42.8874154, "longitude": 1.6028748, "elevation": 1182.0, "source": "osm", "_tags": {"ele": "1182", "name": "Roc du Taus", "natural": "peak", "source": "cadastre-dgi-fr source : Direction Générale des Impôts - Cadastre. Mise à jour : 2014"}}, {"name": "", "latitude": 42.8937104, "longitude": 1.5905594, "elevation": null, "source": "osm", "_tags": {"natural": "peak", "source": "cadastre-dgi-fr source : Direction Générale des Impôts - Cadastre. Mise à jour : 2014"}}, {"name": "Mont Redoun", "latitude": 43.0269876, "longitude": 1.0667726, "elevation": 450.0, "source": "osm", "_tags": {"ele": "450", "name": "Mont Redoun", "natural": "peak"}}, {"name": "Touille", "latitude": 43.029743, "longitude": 1.0585881, "elevation": 426.0, "source": "osm", "_tags": {"ele": "426", "name": "Touille", "natural": "peak"}}, {"name": "Sommet de Pépérié", "latitude": 43.0104675, "longitude": 1.7747027, "elevation": 609.0, "source": "osm", "_tags": {"ele": "609", "name": "Sommet de Pépérié", "natural": "peak"}}, {"name": "Pïc de Montégut", "latitude": 43.0172925, "longitude": 1.7735976, "elevation": 614.0, "source": "osm", "_tags": {"ele": "614", "name": "Pïc de Montégut", "natural": "peak"}}, {"name": "Sommet de Monombre", "latitude": 43.022149, "longitude": 1.7873372, "elevation": 547.0, "source": "osm", "_tags": {"ele": "547", "name": "Sommet de Monombre", "natural": "peak"}}, {"name": "Cap de Bouirech (Bouirex)", "latitude": 42.8686586, "longitude": 1.1164968, "elevation": 1874.0, "source": "osm", "_tags": {"ele": "1874", "name": "Cap de Bouirech (Bouirex)", "natural": "peak"}}, {"name": "Bout De Touron", "latitude": 42.9058632, "longitude": 1.5618258, "elevation": 1490.0, "source": "osm", "_tags": {"ele": "1490", "name": "Bout De Touron", "natural": "peak"}}, {"name": "Pech d'En Izard", "latitude": 43.263174, "longitude": 1.9409334, "elevation": 308.0, "source": "osm", "_tags": {"ele": "308", "name": "Pech d'En Izard", "natural": "peak"}}, {"name": "Pech de Galines", "latitude": 43.2594697, "longitude": 1.9486222, "elevation": 322.0, "source": "osm", "_tags": {"ele": "322", "name": "Pech de Galines", "natural": "peak"}}, {"name": "Pic Galinié", "latitude": 43.0248145, "longitude": 1.8169023, "elevation": 538.0, "source": "osm", "_tags": {"ele": "538", "name": "Pic Galinié", "natural": "peak"}}, {"name": "Roc du Monge", "latitude": 43.0642176, "longitude": 1.9625544, "elevation": 474.0, "source": "osm", "_tags": {"ele": "474", "name": "Roc du Monge", "natural": "peak"}}, {"name": "Pech de Therme", "latitude": 42.9085597, "longitude": 1.4700481, "elevation": 1668.0, "source": "osm", "_tags": {"ele": "1668", "name": "Pech de Therme", "natural": "peak"}}, {"name": "Sarrat de la Pelade", "latitude": 42.9052204, "longitude": 1.4881737, "elevation": 1701.0, "source": "osm", "_tags": {"ele": "1701", "name": "Sarrat de la Pelade", "natural": "peak"}}, {"name": "Pech des Carmes", "latitude": 43.2937563, "longitude": 1.9030178, "elevation": null, "source": "osm", "_tags": {"name": "Pech des Carmes", "natural": "peak"}}, {"name": "Pech de Malemort", "latitude": 43.2379685, "longitude": 1.9679764, "elevation": null, "source": "osm", "_tags": {"name": "Pech de Malemort", "natural": "peak"}}, {"name": "Pech du Roi", "latitude": 43.2450372, "longitude": 1.9573011, "elevation": null, "source": "osm", "_tags": {"name": "Pech du Roi", "natural": "peak"}}, {"name": "Pech de Rezian", "latitude": 43.2529848, "longitude": 1.9527816, "elevation": null, "source": "osm", "_tags": {"name": "Pech de Rezian", "natural": "peak"}}, {"name": "Cap du carmil", "latitude": 42.9178085, "longitude": 1.4103913, "elevation": 1605.0, "source": "osm", "_tags": {"ele": "1605", "name": "Cap du carmil", "natural": "peak"}}, {"name": "Cap de la Pène", "latitude": 42.9515863, "longitude": 1.1048112, "elevation": 912.0, "source": "osm", "_tags": {"ele": "912", "name": "Cap de la Pène", "natural": "peak"}}, {"name": "Tuc Bidau", "latitude": 42.9412066, "longitude": 1.1239961, "elevation": 1077.0, "source": "osm", "_tags": {"ele": "1077", "name": "Tuc Bidau", "natural": "peak"}}, {"name": "Pale de l'herbe", "latitude": 42.9393256, "longitude": 1.1301268, "elevation": 1149.0, "source": "osm", "_tags": {"ele": "1149", "name": "Pale de l'herbe", "natural": "peak"}}, {"name": "Tuce de Miliaques", "latitude": 42.9359588, "longitude": 1.1339571, "elevation": 1233.0, "source": "osm", "_tags": {"ele": "1233", "name": "Tuce de Miliaques", "natural": "peak"}}, {"name": "Table des Quatre Seigneurs", "latitude": 42.9353275, "longitude": 1.1406016, "elevation": 1239.0, "source": "osm", "_tags": {"ele": "1239", "name": "Table des Quatre Seigneurs", "natural": "peak"}}, {"name": "Tuc de Closet", "latitude": 42.9322558, "longitude": 1.1391609, "elevation": 1208.0, "source": "osm", "_tags": {"ele": "1208", "name": "Tuc de Closet", "natural": "peak"}}, {"name": "Cap d'Aruille", "latitude": 42.9288554, "longitude": 1.1441145, "elevation": 1252.0, "source": "osm", "_tags": {"ele": "1252", "name": "Cap d'Aruille", "natural": "peak"}}, {"name": "Montcens", "latitude": 42.9362815, "longitude": 1.1590727, "elevation": 985.0, "source": "osm", "_tags": {"ele": "985", "name": "Montcens", "natural": "peak"}}, {"name": "Cap de la Piquette", "latitude": 42.9338483, "longitude": 1.1613393, "elevation": 927.0, "source": "osm", "_tags": {"ele": "927", "name": "Cap de la Piquette", "natural": "peak"}}, {"name": "Tuc des Sucadères", "latitude": 42.9359523, "longitude": 1.1539919, "elevation": 937.0, "source": "osm", "_tags": {"ele": "937", "name": "Tuc des Sucadères", "natural": "peak"}}, {"name": "Carbouères", "latitude": 42.9401852, "longitude": 1.149613, "elevation": 939.0, "source": "osm", "_tags": {"ele": "939", "name": "Carbouères", "natural": "peak"}}, {"name": "Tuce de Bernaduc", "latitude": 42.9422809, "longitude": 1.1480207, "elevation": 900.0, "source": "osm", "_tags": {"ele": "900", "name": "Tuce de Bernaduc", "natural": "peak"}}, {"name": "", "latitude": 42.9447114, "longitude": 1.1469418, "elevation": 884.0, "source": "osm", "_tags": {"ele": "884", "natural": "peak"}}, {"name": "Tuc de la Souleille", "latitude": 42.9468172, "longitude": 1.1470165, "elevation": 890.0, "source": "osm", "_tags": {"ele": "890", "name": "Tuc de la Souleille", "natural": "peak"}}, {"name": "Tuc de Camrestrem", "latitude": 42.9463633, "longitude": 1.1520176, "elevation": 810.0, "source": "osm", "_tags": {"ele": "810", "name": "Tuc de Camrestrem", "natural": "peak"}}, {"name": "Tuc de Trinquerat", "latitude": 42.9496828, "longitude": 1.1472816, "elevation": 836.0, "source": "osm", "_tags": {"ele": "836", "name": "Tuc de Trinquerat", "natural": "peak"}}, {"name": "Tuc de la Pelade", "latitude": 42.9512755, "longitude": 1.1440494, "elevation": 791.0, "source": "osm", "_tags": {"ele": "791", "name": "Tuc de la Pelade", "natural": "peak"}}, {"name": "Pic des Corbeaux", "latitude": 42.9524901, "longitude": 1.14189, "elevation": 799.0, "source": "osm", "_tags": {"ele": "799", "name": "Pic des Corbeaux", "natural": "peak"}}, {"name": "Quère de la Trémau", "latitude": 42.950986, "longitude": 1.1387734, "elevation": 889.0, "source": "osm", "_tags": {"ele": "889", "name": "Quère de la Trémau", "natural": "peak"}}, {"name": "Troumajou", "latitude": 42.9536367, "longitude": 1.1297879, "elevation": 907.0, "source": "osm", "_tags": {"ele": "907", "name": "Troumajou", "natural": "peak"}}, {"name": "Castelnau", "latitude": 42.9555909, "longitude": 1.1254955, "elevation": 849.0, "source": "osm", "_tags": {"ele": "849", "name": "Castelnau", "natural": "peak"}}, {"name": "", "latitude": 42.9546771, "longitude": 1.1220295, "elevation": 808.0, "source": "osm", "_tags": {"ele": "808", "natural": "peak"}}, {"name": "Ciouada", "latitude": 42.9547663, "longitude": 1.1343082, "elevation": 871.0, "source": "osm", "_tags": {"ele": "871", "name": "Ciouada", "natural": "peak"}}, {"name": "Tabourne", "latitude": 42.9564531, "longitude": 1.1411851, "elevation": 832.0, "source": "osm", "_tags": {"ele": "832", "name": "Tabourne", "natural": "peak"}}, {"name": "Matech", "latitude": 42.9559218, "longitude": 1.1188905, "elevation": 774.0, "source": "osm", "_tags": {"ele": "774", "name": "Matech", "natural": "peak"}}, {"name": "Le Sendé", "latitude": 42.9580162, "longitude": 1.1173222, "elevation": 761.0, "source": "osm", "_tags": {"ele": "761", "name": "Le Sendé", "natural": "peak"}}, {"name": "Quère de Mail", "latitude": 42.957887, "longitude": 1.1130304, "elevation": 700.0, "source": "osm", "_tags": {"ele": "700", "name": "Quère de Mail", "natural": "peak"}}, {"name": "Campillou", "latitude": 42.9602643, "longitude": 1.1068374, "elevation": 633.0, "source": "osm", "_tags": {"ele": "633", "name": "Campillou", "natural": "peak"}}, {"name": "", "latitude": 42.9589156, "longitude": 1.1046102, "elevation": 613.0, "source": "osm", "_tags": {"ele": "613", "natural": "peak"}}, {"name": "", "latitude": 42.964008, "longitude": 1.1178416, "elevation": 709.0, "source": "osm", "_tags": {"ele": "709", "natural": "peak"}}, {"name": "Le Sarrach", "latitude": 42.962184, "longitude": 1.1342829, "elevation": 786.0, "source": "osm", "_tags": {"ele": "786", "name": "Le Sarrach", "natural": "peak"}}, {"name": "", "latitude": 42.9571164, "longitude": 1.146251, "elevation": 797.0, "source": "osm", "_tags": {"ele": "797", "natural": "peak"}}, {"name": "", "latitude": 42.9564866, "longitude": 1.1556706, "elevation": 696.0, "source": "osm", "_tags": {"ele": "696", "natural": "peak"}}, {"name": "Tuc des Mesplès", "latitude": 42.9772483, "longitude": 1.0608288, "elevation": 829.0, "source": "osm", "_tags": {"ele": "829", "name": "Tuc des Mesplès", "natural": "peak"}}, {"name": "Pic d'Estelle", "latitude": 43.0596463, "longitude": 1.8364388, "elevation": null, "source": "osm", "_tags": {"name": "Pic d'Estelle", "natural": "peak"}}, {"name": "Pic d'Eychenne", "latitude": 42.9675528, "longitude": 1.2660518, "elevation": 919.0, "source": "osm", "_tags": {"ele": "919", "name": "Pic d'Eychenne", "natural": "peak"}}, {"name": "Cap de Touron", "latitude": 42.9527594, "longitude": 1.6903818, "elevation": 964.0, "source": "osm", "_tags": {"ele": "964", "name": "Cap de Touron", "natural": "peak"}}, {"name": "Pic de l'Aspre", "latitude": 42.9486091, "longitude": 1.6991097, "elevation": 1011.0, "source": "osm", "_tags": {"ele": "1011", "name": "Pic de l'Aspre", "natural": "peak", "wikidata": "Q31652756"}}, {"name": "Pic de la Crouzette", "latitude": 42.9558415, "longitude": 1.6466832, "elevation": null, "source": "osm", "_tags": {"name": "Pic de la Crouzette", "natural": "peak"}}, {"name": "Roc Nègre", "latitude": 42.9502592, "longitude": 1.6629909, "elevation": 969.0, "source": "osm", "_tags": {"ele": "969", "name": "Roc Nègre", "natural": "peak"}}, {"name": "Mont Redon", "latitude": 43.0333175, "longitude": 1.7658484, "elevation": 441.0, "source": "osm", "_tags": {"ele": "441", "name": "Mont Redon", "natural": "peak"}}, {"name": "", "latitude": 42.965154, "longitude": 1.3507334, "elevation": 850.0, "source": "osm", "_tags": {"ele": "850", "natural": "peak"}}, {"name": "Pic de l'Areille", "latitude": 42.8496294, "longitude": 1.383031, "elevation": 1301.0, "source": "osm", "_tags": {"ele": "1301", "name": "Pic de l'Areille", "natural": "peak"}}, {"name": "Touron de Lardas", "latitude": 42.8301368, "longitude": 1.4018736, "elevation": 1654.0, "source": "osm", "_tags": {"ele": "1654", "name": "Touron de Lardas", "natural": "peak"}}, {"name": "Pic de Barres", "latitude": 42.8262922, "longitude": 1.4256268, "elevation": 2043.0, "source": "osm", "_tags": {"ele": "2043", "name": "Pic de Barres", "natural": "peak"}}, {"name": "Pic de l'Estelas", "latitude": 42.990806, "longitude": 0.9953913, "elevation": 1247.0, "source": "osm", "_tags": {"ele": "1247", "name": "Pic de l'Estelas", "natural": "peak"}}, {"name": "Le Gouar", "latitude": 42.9890942, "longitude": 1.0540527, "elevation": 646.0, "source": "osm", "_tags": {"ele": "646", "name": "Le Gouar", "natural": "peak"}}, {"name": "Tuc de Puech", "latitude": 42.8927035, "longitude": 0.9849499, "elevation": 1401.0, "source": "osm", "_tags": {"ele": "1401", "name": "Tuc de Puech", "natural": "peak"}}, {"name": "Tuc de Courtade", "latitude": 42.918606, "longitude": 1.0889353, "elevation": 1198.0, "source": "osm", "_tags": {"ele": "1198", "name": "Tuc de Courtade", "natural": "peak"}}, {"name": "Tuc des Pélatos (Pelades)", "latitude": 42.8881534, "longitude": 1.0927575, "elevation": 1608.0, "source": "osm", "_tags": {"ele": "1608", "name": "Tuc des Pélatos (Pelades)", "natural": "peak"}}, {"name": "Lespinassière", "latitude": 42.9918586, "longitude": 1.5220339, "elevation": 808.0, "source": "osm", "_tags": {"ele": "808", "name": "Lespinassière", "natural": "peak"}}, {"name": "Montcoustan", "latitude": 42.991168, "longitude": 1.5126685, "elevation": 917.0, "source": "osm", "_tags": {"ele": "917", "name": "Montcoustan", "natural": "peak"}}, {"name": "Le Peyrou", "latitude": 42.9619426, "longitude": 1.5809301, "elevation": 496.0, "source": "osm", "_tags": {"ele": "496", "name": "Le Peyrou", "natural": "peak"}}, {"name": "Peyrou", "latitude": 42.9505216, "longitude": 1.5584024, "elevation": null, "source": "osm", "_tags": {"name": "Peyrou", "natural": "peak"}}, {"name": "Tête d'Ane", "latitude": 42.9633305, "longitude": 1.2198821, "elevation": 819.0, "source": "osm", "_tags": {"ele": "819", "name": "Tête d'Ane", "natural": "peak"}}, {"name": "La Roche Ronde", "latitude": 42.8626446, "longitude": 1.5457193, "elevation": 1001.0, "source": "osm", "_tags": {"ele": "1001", "name": "La Roche Ronde", "natural": "peak"}}, {"name": "La Roque", "latitude": 42.9941888, "longitude": 1.0641812, "elevation": 652.0, "source": "osm", "_tags": {"ele": "652", "name": "La Roque", "natural": "peak"}}, {"name": "Bouch", "latitude": 42.9983826, "longitude": 1.0448534, "elevation": 589.0, "source": "osm", "_tags": {"ele": "589", "name": "Bouch", "natural": "peak"}}, {"name": "La Lauzère", "latitude": 42.9885115, "longitude": 1.0895157, "elevation": 676.0, "source": "osm", "_tags": {"ele": "676", "name": "La Lauzère", "natural": "peak"}}, {"name": "Sarrat de Carau", "latitude": 42.9924299, "longitude": 1.0846825, "elevation": 667.0, "source": "osm", "_tags": {"ele": "667", "name": "Sarrat de Carau", "natural": "peak"}}, {"name": "Tuc de Casterot", "latitude": 42.9735537, "longitude": 1.0769824, "elevation": 837.0, "source": "osm", "_tags": {"ele": "837", "name": "Tuc de Casterot", "natural": "peak"}}, {"name": "Le Barrue", "latitude": 43.0083842, "longitude": 1.0385207, "elevation": 564.0, "source": "osm", "_tags": {"ele": "564", "name": "Le Barrue", "natural": "peak"}}, {"name": "Le Liar", "latitude": 43.0021479, "longitude": 1.0267953, "elevation": 671.0, "source": "osm", "_tags": {"ele": "671", "name": "Le Liar", "natural": "peak"}}, {"name": "Tuc du Castéra", "latitude": 42.9007978, "longitude": 1.0783549, "elevation": 1528.0, "source": "osm", "_tags": {"ele": "1528", "name": "Tuc du Castéra", "natural": "peak"}}, {"name": "Couret de la Croix", "latitude": 42.9713397, "longitude": 1.0952109, "elevation": 595.0, "source": "osm", "_tags": {"ele": "595", "name": "Couret de la Croix", "natural": "peak"}}, {"name": "Le Tuc", "latitude": 43.0316466, "longitude": 1.0651443, "elevation": 441.0, "source": "osm", "_tags": {"ele": "441", "name": "Le Tuc", "natural": "peak"}}, {"name": "Tuc d'Augaret", "latitude": 42.9085056, "longitude": 1.1062064, "elevation": 1281.0, "source": "osm", "_tags": {"ele": "1281", "name": "Tuc d'Augaret", "natural": "peak"}}, {"name": "Castéras", "latitude": 43.0343373, "longitude": 1.0685001, "elevation": 441.0, "source": "osm", "_tags": {"ele": "441", "name": "Castéras", "natural": "peak"}}, {"name": "Cap de Garrié", "latitude": 42.9648652, "longitude": 1.1898454, "elevation": 859.0, "source": "osm", "_tags": {"ele": "859", "name": "Cap de Garrié", "natural": "peak"}}, {"name": "Montagna", "latitude": 43.0049286, "longitude": 1.152915, "elevation": 534.0, "source": "osm", "_tags": {"ele": "534", "name": "Montagna", "natural": "peak"}}, {"name": "Les Tourouns", "latitude": 42.9373834, "longitude": 1.1888624, "elevation": 784.0, "source": "osm", "_tags": {"ele": "784", "name": "Les Tourouns", "natural": "peak"}}, {"name": "Pic de la Quère", "latitude": 42.9000919, "longitude": 1.1569315, "elevation": 1136.0, "source": "osm", "_tags": {"ele": "1136", "name": "Pic de la Quère", "natural": "peak"}}, {"name": "Cap de la Régie", "latitude": 42.9082975, "longitude": 1.1702808, "elevation": 1101.0, "source": "osm", "_tags": {"ele": "1101", "name": "Cap de la Régie", "natural": "peak"}}, {"name": "Tuc de Sanigules", "latitude": 42.8919612, "longitude": 1.0991233, "elevation": 1521.0, "source": "osm", "_tags": {"ele": "1521", "name": "Tuc de Sanigules", "natural": "peak"}}, {"name": "Pic de l'Estagnole", "latitude": 42.8385856, "longitude": 1.7173366, "elevation": 1937.0, "source": "osm", "_tags": {"ele": "1937", "name": "Pic de l'Estagnole", "natural": "peak"}}, {"name": "SN1925", "latitude": 42.8401021, "longitude": 1.7154926, "elevation": 1930.0, "source": "osm", "_tags": {"ele": "1930", "name": "SN1925", "natural": "peak"}}, {"name": "Les Terbèzes", "latitude": 42.8524235, "longitude": 1.7204128, "elevation": 1977.0, "source": "osm", "_tags": {"ele": "1977", "name": "Les Terbèzes", "natural": "peak"}}, {"name": "", "latitude": 43.0418268, "longitude": 1.3200279, "elevation": 539.0, "source": "osm", "_tags": {"ele": "539", "natural": "peak"}}, {"name": "", "latitude": 43.0302573, "longitude": 1.3234808, "elevation": 570.0, "source": "osm", "_tags": {"ele": "570", "natural": "peak"}}, {"name": "", "latitude": 43.0381515, "longitude": 1.3188333, "elevation": 522.0, "source": "osm", "_tags": {"ele": "522", "natural": "peak"}}, {"name": "Touron", "latitude": 43.022893, "longitude": 1.3207616, "elevation": 523.0, "source": "osm", "_tags": {"ele": "523", "name": "Touron", "natural": "peak"}}, {"name": "SN", "latitude": 42.8977424, "longitude": 1.1799796, "elevation": 883.0, "source": "osm", "_tags": {"ele": "883", "name": "SN", "natural": "peak"}}, {"name": "Tussau", "latitude": 42.9029786, "longitude": 1.1866891, "elevation": 913.0, "source": "osm", "_tags": {"ele": "913", "name": "Tussau", "natural": "peak"}}, {"name": "Roc Blanc", "latitude": 42.9055904, "longitude": 1.4575973, "elevation": 1542.0, "source": "osm", "_tags": {"ele": "1542", "name": "Roc Blanc", "natural": "peak"}}, {"name": "", "latitude": 42.9264484, "longitude": 1.4962409, "elevation": 1411.0, "source": "osm", "_tags": {"ele": "1411", "natural": "peak"}}, {"name": "", "latitude": 43.0241584, "longitude": 1.2873708, "elevation": 492.0, "source": "osm", "_tags": {"ele": "492", "natural": "peak"}}, {"name": "Pipe", "latitude": 43.0172578, "longitude": 1.304133, "elevation": 551.0, "source": "osm", "_tags": {"ele": "551", "name": "Pipe", "natural": "peak"}}, {"name": "", "latitude": 43.0186359, "longitude": 1.3090752, "elevation": 560.0, "source": "osm", "_tags": {"ele": "560", "natural": "peak"}}, {"name": "", "latitude": 43.0133542, "longitude": 1.3085531, "elevation": 582.0, "source": "osm", "_tags": {"ele": "582", "natural": "peak"}}, {"name": "", "latitude": 43.0121827, "longitude": 1.3012405, "elevation": 562.0, "source": "osm", "_tags": {"ele": "562", "natural": "peak"}}, {"name": "", "latitude": 43.0099976, "longitude": 1.3033855, "elevation": 562.0, "source": "osm", "_tags": {"ele": "562", "natural": "peak"}}, {"name": "", "latitude": 43.0093555, "longitude": 1.285541, "elevation": 501.0, "source": "osm", "_tags": {"ele": "501", "natural": "peak"}}, {"name": "", "latitude": 43.0054407, "longitude": 1.2865311, "elevation": 552.0, "source": "osm", "_tags": {"ele": "552", "natural": "peak"}}, {"name": "", "latitude": 43.0021225, "longitude": 1.2917398, "elevation": 513.0, "source": "osm", "_tags": {"ele": "513", "natural": "peak"}}, {"name": "", "latitude": 42.9977468, "longitude": 1.2929526, "elevation": 536.0, "source": "osm", "_tags": {"ele": "536", "natural": "peak"}}, {"name": "Castillon", "latitude": 42.991981, "longitude": 1.2747635, "elevation": 542.0, "source": "osm", "_tags": {"ele": "542", "name": "Castillon", "natural": "peak"}}, {"name": "", "latitude": 43.005313, "longitude": 1.2437692, "elevation": 512.0, "source": "osm", "_tags": {"ele": "512", "natural": "peak"}}, {"name": "", "latitude": 43.0080054, "longitude": 1.233217, "elevation": 513.0, "source": "osm", "_tags": {"ele": "513", "natural": "peak"}}, {"name": "", "latitude": 43.013777, "longitude": 1.2123452, "elevation": 542.0, "source": "osm", "_tags": {"ele": "542", "natural": "peak"}}, {"name": "", "latitude": 43.0109386, "longitude": 1.1928298, "elevation": 511.0, "source": "osm", "_tags": {"ele": "511", "natural": "peak"}}, {"name": "", "latitude": 42.9933587, "longitude": 1.1291351, "elevation": 480.5, "source": "osm", "_tags": {"ele": "480.5", "natural": "peak"}}, {"name": "", "latitude": 43.0029414, "longitude": 1.3026772, "elevation": 533.0, "source": "osm", "_tags": {"ele": "533", "natural": "peak"}}, {"name": "", "latitude": 43.0217007, "longitude": 1.3318672, "elevation": 480.0, "source": "osm", "_tags": {"ele": "480", "natural": "peak"}}, {"name": "", "latitude": 43.0220737, "longitude": 1.33597, "elevation": 464.0, "source": "osm", "_tags": {"ele": "464", "natural": "peak"}}, {"name": "", "latitude": 43.0069604, "longitude": 1.3470136, "elevation": 494.0, "source": "osm", "_tags": {"ele": "494", "natural": "peak"}}, {"name": "", "latitude": 43.0047629, "longitude": 1.3382409, "elevation": 483.0, "source": "osm", "_tags": {"ele": "483", "natural": "peak"}}, {"name": "", "latitude": 43.0045855, "longitude": 1.3232066, "elevation": 563.0, "source": "osm", "_tags": {"ele": "563", "natural": "peak"}}, {"name": "", "latitude": 43.0023534, "longitude": 1.3121286, "elevation": 581.0, "source": "osm", "_tags": {"ele": "581", "natural": "peak"}}, {"name": "", "latitude": 42.9921082, "longitude": 1.2873736, "elevation": 532.0, "source": "osm", "_tags": {"ele": "532", "natural": "peak"}}, {"name": "", "latitude": 42.9828871, "longitude": 1.28676, "elevation": 671.0, "source": "osm", "_tags": {"ele": "671", "natural": "peak"}}, {"name": "", "latitude": 42.9827016, "longitude": 1.2781258, "elevation": 593.0, "source": "osm", "_tags": {"ele": "593", "natural": "peak"}}, {"name": "", "latitude": 42.9370624, "longitude": 1.2674641, "elevation": 1373.0, "source": "osm", "_tags": {"ele": "1373", "natural": "peak"}}, {"name": "", "latitude": 42.9369336, "longitude": 1.2733159, "elevation": 1322.0, "source": "osm", "_tags": {"ele": "1322", "natural": "peak"}}, {"name": "", "latitude": 42.9431899, "longitude": 1.2669948, "elevation": 1221.0, "source": "osm", "_tags": {"ele": "1221", "natural": "peak"}}, {"name": "", "latitude": 42.9151248, "longitude": 1.337734, "elevation": 1171.0, "source": "osm", "_tags": {"ele": "1171", "natural": "peak"}}, {"name": "Tussal", "latitude": 43.020755, "longitude": 1.3181435, "elevation": 500.0, "source": "osm", "_tags": {"ele": "500", "name": "Tussal", "natural": "peak"}}, {"name": "", "latitude": 42.9969429, "longitude": 1.2737683, "elevation": 556.0, "source": "osm", "_tags": {"ele": "556", "natural": "peak"}}, {"name": "", "latitude": 42.9859323, "longitude": 1.6959726, "elevation": 680.0, "source": "osm", "_tags": {"ele": "680", "natural": "peak"}}, {"name": "", "latitude": 42.9835693, "longitude": 1.7044274, "elevation": 672.0, "source": "osm", "_tags": {"ele": "672", "natural": "peak"}}, {"name": "", "latitude": 42.982382, "longitude": 1.3861347, "elevation": 732.0, "source": "osm", "_tags": {"ele": "732", "natural": "peak"}}, {"name": "Le Teil", "latitude": 43.1347988, "longitude": 1.3812156, "elevation": 405.0, "source": "osm", "_tags": {"ele": "405", "name": "Le Teil", "natural": "peak"}}, {"name": "Soum de l'Eterlou", "latitude": 42.8274569, "longitude": 1.3591307, "elevation": 1687.0, "source": "osm", "_tags": {"ele": "1687", "name": "Soum de l'Eterlou", "natural": "peak", "note": "Sommet sans nom, baptisé par le club de randonnée l'Eterlou Seixois"}}, {"name": "SN 1730", "latitude": 42.8407969, "longitude": 1.3369746, "elevation": 1730.0, "source": "osm", "_tags": {"ele": "1730", "name": "SN 1730", "natural": "peak"}}, {"name": "Tuc de Plabalansol", "latitude": 42.8393906, "longitude": 1.3352696, "elevation": 1695.0, "source": "osm", "_tags": {"ele": "1695", "name": "Tuc de Plabalansol", "natural": "peak"}}, {"name": "SN 1589", "latitude": 42.8268277, "longitude": 1.3482805, "elevation": 1589.0, "source": "osm", "_tags": {"ele": "1589", "name": "SN 1589", "natural": "peak"}}, {"name": "", "latitude": 43.0716693, "longitude": 1.3609607, "elevation": null, "source": "osm", "_tags": {"natural": "peak"}}, {"name": "Le Rus", "latitude": 42.893103, "longitude": 1.1735109, "elevation": 967.0, "source": "osm", "_tags": {"ele": "967", "name": "Le Rus", "natural": "peak"}}, {"name": "Cap de la Coume", "latitude": 42.9938635, "longitude": 1.7711437, "elevation": 621.0, "source": "osm", "_tags": {"ele": "621", "name": "Cap de la Coume", "natural": "peak"}}, {"name": "Sommet de Peyre Blanc", "latitude": 42.8410513, "longitude": 1.0728964, "elevation": 2176.0, "source": "osm", "_tags": {"ele": "2176", "name": "Sommet de Peyre Blanc", "natural": "peak"}}, {"name": "2224", "latitude": 42.8392213, "longitude": 1.0726012, "elevation": null, "source": "osm", "_tags": {"name": "2224", "natural": "peak"}}, {"name": "2256", "latitude": 42.8363555, "longitude": 1.070993, "elevation": null, "source": "osm", "_tags": {"name": "2256", "natural": "peak"}}, {"name": "2258", "latitude": 42.8374206, "longitude": 1.0712628, "elevation": null, "source": "osm", "_tags": {"name": "2258", "natural": "peak"}}, {"name": "1742", "latitude": 42.8506056, "longitude": 1.0806851, "elevation": null, "source": "osm", "_tags": {"name": "1742", "natural": "peak"}}, {"name": "", "latitude": 42.8242145, "longitude": 1.1829302, "elevation": 1353.0, "source": "osm", "_tags": {"ele": "1353", "natural": "peak"}}, {"name": "", "latitude": 42.8252079, "longitude": 1.1826782, "elevation": 1340.0, "source": "osm", "_tags": {"ele": "1340", "natural": "peak"}}, {"name": "", "latitude": 42.8273732, "longitude": 1.1842693, "elevation": 1296.0, "source": "osm", "_tags": {"ele": "1296", "natural": "peak"}}, {"name": "", "latitude": 42.9296601, "longitude": 1.2934735, "elevation": 1356.0, "source": "osm", "_tags": {"ele": "1356", "natural": "peak"}}, {"name": "Cap de la Ruère", "latitude": 42.9305474, "longitude": 1.2950873, "elevation": 1358.0, "source": "osm", "_tags": {"ele": "1358", "name": "Cap de la Ruère", "natural": "peak"}}, {"name": "La Bazerque", "latitude": 42.9119209, "longitude": 1.3020306, "elevation": 953.0, "source": "osm", "_tags": {"ele": "953", "name": "La Bazerque", "natural": "peak"}}, {"name": "Cap du Pouech d'Avril", "latitude": 42.9330417, "longitude": 1.317379, "elevation": 1277.0, "source": "osm", "_tags": {"ele": "1277", "name": "Cap du Pouech d'Avril", "natural": "peak"}}, {"name": "", "latitude": 42.9321484, "longitude": 1.3018261, "elevation": 1315.0, "source": "osm", "_tags": {"ele": "1315", "natural": "peak"}}, {"name": "Serre de Goueil", "latitude": 42.9311388, "longitude": 1.3051836, "elevation": 1323.0, "source": "osm", "_tags": {"ele": "1323", "name": "Serre de Goueil", "natural": "peak"}}, {"name": "", "latitude": 42.932677, "longitude": 1.309313, "elevation": 1302.0, "source": "osm", "_tags": {"ele": "1302", "natural": "peak"}}, {"name": "", "latitude": 42.8385331, "longitude": 1.3927646, "elevation": 1523.0, "source": "osm", "_tags": {"ele": "1523", "natural": "peak"}}, {"name": "", "latitude": 42.8349509, "longitude": 1.3964596, "elevation": 1554.0, "source": "osm", "_tags": {"ele": "1554", "natural": "peak"}}, {"name": "", "latitude": 42.8344209, "longitude": 1.396889, "elevation": 1557.0, "source": "osm", "_tags": {"ele": "1557", "natural": "peak"}}, {"name": "", "latitude": 42.827919, "longitude": 1.3953045, "elevation": 1511.0, "source": "osm", "_tags": {"ele": "1511", "natural": "peak"}}, {"name": "Tuc de la Gleize", "latitude": 42.9681942, "longitude": 1.1197029, "elevation": 557.0, "source": "osm", "_tags": {"ele": "557", "name": "Tuc de la Gleize", "natural": "peak"}}, {"name": "2122", "latitude": 42.825066, "longitude": 1.7477975, "elevation": 2122.0, "source": "osm", "_tags": {"ele": "2122", "name": "2122", "natural": "peak"}}, {"name": "Pic du Han", "latitude": 42.8305936, "longitude": 1.7320587, "elevation": 2074.0, "source": "osm", "_tags": {"ele": "2074", "name": "Pic du Han", "natural": "peak"}}, {"name": "", "latitude": 42.8326136, "longitude": 1.728468, "elevation": 1933.0, "source": "osm", "_tags": {"ele": "1933", "natural": "peak"}}, {"name": "", "latitude": 42.8290893, "longitude": 1.738737, "elevation": 2006.0, "source": "osm", "_tags": {"ele": "2006", "natural": "peak"}}, {"name": "SN 1831", "latitude": 42.833261, "longitude": 1.7239948, "elevation": 1931.0, "source": "osm", "_tags": {"ele": "1931", "name": "SN 1831", "natural": "peak"}}, {"name": "Quères des Piques", "latitude": 42.973002, "longitude": 1.0844043, "elevation": null, "source": "osm", "_tags": {"name": "Quères des Piques", "natural": "peak", "source": "IGN - 12/2020"}}, {"name": "Tronc de la Moule", "latitude": 42.9921076, "longitude": 1.1858824, "elevation": null, "source": "osm", "_tags": {"name": "Tronc de la Moule", "natural": "peak", "source": "IGN - 12/2020"}}, {"name": "Roc de Carol", "latitude": 42.9009396, "longitude": 1.6634914, "elevation": 618.0, "source": "osm", "_tags": {"ele": "618", "name": "Roc de Carol", "natural": "peak"}}, {"name": "Roc du Milla", "latitude": 42.8966724, "longitude": 1.6916929, "elevation": 1133.0, "source": "osm", "_tags": {"ele": "1133", "name": "Roc du Milla", "natural": "peak"}}, {"name": "Roc de St-Genès", "latitude": 42.9015056, "longitude": 1.6814681, "elevation": 960.0, "source": "osm", "_tags": {"ele": "960", "name": "Roc de St-Genès", "natural": "peak"}}, {"name": "Le Cabarut", "latitude": 42.8387521, "longitude": 1.7351648, "elevation": 1820.0, "source": "osm", "_tags": {"ele": "1820", "name": "Le Cabarut", "natural": "peak"}}, {"name": "Pic d'Echeil", "latitude": 42.9695217, "longitude": 1.2584903, "elevation": 875.0, "source": "osm", "_tags": {"ele": "875", "name": "Pic d'Echeil", "natural": "peak"}}, {"name": "Le Roc Pounchut", "latitude": 42.8950068, "longitude": 1.8694983, "elevation": null, "source": "osm", "_tags": {"name": "Le Roc Pounchut", "natural": "peak"}}, {"name": "", "latitude": 42.8448613, "longitude": 1.6325656, "elevation": null, "source": "osm", "_tags": {"natural": "peak"}}, {"name": "Pech de Couilla", "latitude": 42.8491914, "longitude": 1.5984216, "elevation": null, "source": "osm", "_tags": {"name": "Pech de Couilla", "natural": "peak", "source": "IGN - 2021-06"}}, {"name": "Cap Blanc", "latitude": 42.9297273, "longitude": 1.5591681, "elevation": 1203.0, "source": "osm", "_tags": {"ele": "1203", "name": "Cap Blanc", "natural": "peak"}}, {"name": "SN 900", "latitude": 42.8840867, "longitude": 1.8321278, "elevation": 900.0, "source": "osm", "_tags": {"ele": "900", "name": "SN 900", "natural": "peak"}}, {"name": "Roc de la Mousse", "latitude": 42.8718063, "longitude": 1.8435055, "elevation": 1127.0, "source": "osm", "_tags": {"ele": "1127", "name": "Roc de la Mousse", "natural": "peak"}}, {"name": "Le Pouech", "latitude": 43.0161709, "longitude": 1.3286011, "elevation": 543.0, "source": "osm", "_tags": {"ele": "543", "name": "Le Pouech", "natural": "peak", "source": "IGN BDTOPO 2022-12-15", "source:ele": "IGN RGEALTI 2021-05-12 (Lidar)"}}, {"name": "Mont Fourcat", "latitude": 42.8559543, "longitude": 1.7169745, "elevation": 2001.0, "source": "osm", "_tags": {"ele": "2001", "name": "Mont Fourcat", "natural": "peak"}}, {"name": "SN 1834", "latitude": 42.8443689, "longitude": 1.7810399, "elevation": null, "source": "osm", "_tags": {"name": "SN 1834", "natural": "peak"}}, {"name": "SN 1679", "latitude": 42.8511697, "longitude": 1.7860579, "elevation": null, "source": "osm", "_tags": {"name": "SN 1679", "natural": "peak"}}, {"name": "SN 1696", "latitude": 42.8518147, "longitude": 1.7878613, "elevation": null, "source": "osm", "_tags": {"name": "SN 1696", "natural": "peak"}}, {"name": "SN 1678", "latitude": 42.8536032, "longitude": 1.7929495, "elevation": 1678.0, "source": "osm", "_tags": {"ele": "1678", "name": "SN 1678", "natural": "peak"}}, {"name": "Puech d'Arbiel", "latitude": 42.9336849, "longitude": 1.3318001, "elevation": 1366.0, "source": "osm", "_tags": {"ele": "1366", "name": "Puech d'Arbiel", "natural": "peak"}}, {"name": "", "latitude": 42.9336363, "longitude": 1.334857, "elevation": 1358.0, "source": "osm", "_tags": {"ele": "1358", "natural": "peak"}}, {"name": "", "latitude": 42.9336932, "longitude": 1.3361651, "elevation": 1358.0, "source": "osm", "_tags": {"ele": "1358", "natural": "peak"}}, {"name": "SN 1360", "latitude": 42.9340826, "longitude": 1.3367535, "elevation": null, "source": "osm", "_tags": {"name": "SN 1360", "natural": "peak"}}, {"name": "SN 1314", "latitude": 42.9317934, "longitude": 1.3408081, "elevation": 1314.0, "source": "osm", "_tags": {"ele": "1314", "name": "SN 1314", "natural": "peak"}}, {"name": "SN 1591", "latitude": 42.8249242, "longitude": 1.35154, "elevation": 1591.0, "source": "osm", "_tags": {"ele": "1591", "name": "SN 1591", "natural": "peak"}}, {"name": "SN 1621", "latitude": 42.8304264, "longitude": 1.3438199, "elevation": null, "source": "osm", "_tags": {"name": "SN 1621", "natural": "peak"}}, {"name": "SN 1646", "latitude": 42.832739, "longitude": 1.3410384, "elevation": 1646.0, "source": "osm", "_tags": {"ele": "1646", "name": "SN 1646", "natural": "peak"}}, {"name": "Tuc de Ramonet", "latitude": 42.8369196, "longitude": 1.33666, "elevation": 1674.0, "source": "osm", "_tags": {"ele": "1674", "name": "Tuc de Ramonet", "natural": "peak"}}, {"name": "SN 1721", "latitude": 42.8447564, "longitude": 1.3350976, "elevation": 1721.0, "source": "osm", "_tags": {"ele": "1721", "name": "SN 1721", "natural": "peak"}}, {"name": "Cap de l'Estang", "latitude": 43.0203999, "longitude": 1.5438366, "elevation": null, "source": "osm", "_tags": {"name": "Cap de l'Estang", "natural": "peak"}}, {"name": "Pic des Monges", "latitude": 42.9545301, "longitude": 1.7348421, "elevation": 934.0, "source": "osm", "_tags": {"ele": "934", "name": "Pic des Monges", "natural": "peak"}}, {"name": "Pech de Varilles", "latitude": 43.0448211, "longitude": 1.6059565, "elevation": 567.0, "source": "osm", "_tags": {"ele": "567", "name": "Pech de Varilles", "natural": "peak"}}, {"name": "La Caramille", "latitude": 43.0418415, "longitude": 1.5932482, "elevation": null, "source": "osm", "_tags": {"name": "La Caramille", "natural": "peak"}}, {"name": "Pic de Courtalet", "latitude": 43.0369876, "longitude": 1.5667963, "elevation": null, "source": "osm", "_tags": {"name": "Pic de Courtalet", "natural": "peak"}}, {"name": "Pic de Montmioul", "latitude": 43.044531, "longitude": 1.5814948, "elevation": null, "source": "osm", "_tags": {"name": "Pic de Montmioul", "natural": "peak"}}, {"name": "Pech de Limouzy", "latitude": 43.0560795, "longitude": 1.5449524, "elevation": null, "source": "osm", "_tags": {"name": "Pech de Limouzy", "natural": "peak"}}, {"name": "Cap Blanc", "latitude": 43.1345331, "longitude": 1.0891056, "elevation": 543.0, "source": "osm", "_tags": {"ele": "543", "name": "Cap Blanc", "natural": "peak"}}, {"name": "Cap de Capelin", "latitude": 43.1403422, "longitude": 1.0796428, "elevation": 503.0, "source": "osm", "_tags": {"ele": "503", "name": "Cap de Capelin", "natural": "peak"}}, {"name": "1229", "latitude": 42.8408439, "longitude": 1.2247536, "elevation": null, "source": "osm", "_tags": {"name": "1229", "natural": "peak"}}, {"name": "SN-1118", "latitude": 42.8713279, "longitude": 1.8447178, "elevation": 1118.0, "source": "osm", "_tags": {"ele": "1118", "name": "SN-1118", "natural": "peak"}}, {"name": "Roc Croisé", "latitude": 42.8808628, "longitude": 1.8266573, "elevation": 991.0, "source": "osm", "_tags": {"ele": "991", "name": "Roc Croisé", "natural": "peak"}}, {"name": "Le Taus", "latitude": 42.9006669, "longitude": 1.277819, "elevation": 1069.0, "source": "osm", "_tags": {"ele": "1069", "name": "Le Taus", "natural": "peak"}}, {"name": "SN 805", "latitude": 42.8845191, "longitude": 1.2618162, "elevation": 805.0, "source": "osm", "_tags": {"ele": "805", "name": "SN 805", "natural": "peak"}}, {"name": "Thuriège", "latitude": 43.0394077, "longitude": 1.7665489, "elevation": 533.0, "source": "osm", "_tags": {"ele": "533", "name": "Thuriège", "natural": "peak"}}, {"name": "", "latitude": 42.8251459, "longitude": 1.124855, "elevation": 1774.0, "source": "osm", "_tags": {"ele": "1774", "natural": "peak"}}, {"name": "1644", "latitude": 42.8273234, "longitude": 1.1313761, "elevation": null, "source": "osm", "_tags": {"name": "1644", "natural": "peak"}}, {"name": "Tuc de la Raspe", "latitude": 42.8360887, "longitude": 1.1184708, "elevation": 1638.0, "source": "osm", "_tags": {"ele": "1638", "name": "Tuc de la Raspe", "natural": "peak"}}, {"name": "La Méde", "latitude": 42.8441217, "longitude": 1.1352471, "elevation": 1436.0, "source": "osm", "_tags": {"ele": "1436", "name": "La Méde", "natural": "peak"}}, {"name": "Tuc de la Lane Bédérère", "latitude": 42.8314106, "longitude": 1.0987146, "elevation": 2035.0, "source": "osm", "_tags": {"ele": "2035", "name": "Tuc de la Lane Bédérère", "natural": "peak"}}, {"name": "La Cotelette", "latitude": 42.8325505, "longitude": 1.1037756, "elevation": 1898.0, "source": "osm", "_tags": {"ele": "1898", "name": "La Cotelette", "natural": "peak"}}, {"name": "Tuc de Poudillon", "latitude": 42.9703506, "longitude": 1.0642362, "elevation": null, "source": "osm", "_tags": {"name": "Tuc de Poudillon", "natural": "peak"}}, {"name": "Sommet de Peyregude", "latitude": 42.9747035, "longitude": 1.0381007, "elevation": 1178.0, "source": "osm", "_tags": {"ele": "1178", "name": "Sommet de Peyregude", "natural": "peak"}}, {"name": "Pic de Peymiqueu", "latitude": 42.9461314, "longitude": 1.0160476, "elevation": 809.0, "source": "osm", "_tags": {"ele": "809", "name": "Pic de Peymiqueu", "natural": "peak"}}, {"name": "Pas de Rossan", "latitude": 42.9717009, "longitude": 1.0523915, "elevation": 1093.0, "source": "osm", "_tags": {"ele": "1093", "name": "Pas de Rossan", "natural": "peak"}}, {"name": "1058", "latitude": 42.854973, "longitude": 1.1292045, "elevation": null, "source": "osm", "_tags": {"name": "1058", "natural": "peak"}}, {"name": "Pech d'Alquié", "latitude": 43.147351, "longitude": 1.9068423, "elevation": null, "source": "osm", "_tags": {"name": "Pech d'Alquié", "natural": "peak"}}, {"name": "", "latitude": 43.2154212, "longitude": 1.4417158, "elevation": 358.0, "source": "osm", "_tags": {"description": "sommet quasi plat de la colline du TP adapte a atterrisage voilures tournates !\nmis en place aussi  graphiquement pour indiquer a  une voiture qui chercher le TROUSPERDU (maison) quelle est peut etre cache derrire la colline ( bute de plus de 10 metres !", "ele": "358", "natural": "peak"}}, {"name": "Pouredoun", "latitude": 42.9344535, "longitude": 1.0387973, "elevation": 620.0, "source": "osm", "_tags": {"ele": "620", "name": "Pouredoun", "natural": "peak"}}, {"name": "Pic de Nantech", "latitude": 42.9419131, "longitude": 1.0718118, "elevation": 782.0, "source": "osm", "_tags": {"ele": "782", "name": "Pic de Nantech", "natural": "peak"}}, {"name": "Pech de l'Amel", "latitude": 43.2029861, "longitude": 1.9228756, "elevation": 384.0, "source": "osm", "_tags": {"ele": "384", "name": "Pech de l'Amel", "natural": "peak"}}, {"name": "1552", "latitude": 42.825829, "longitude": 1.3957757, "elevation": null, "source": "osm", "_tags": {"name": "1552", "natural": "peak"}}, {"name": "Le Pouech", "latitude": 42.978539, "longitude": 1.3693547, "elevation": 815.0, "source": "osm", "_tags": {"ele": "815", "fixme": "Position et altitude du sommet approximatives (Radar). À ajuster lorsque le RGE ALTI Lidar sera disponible dans cette zone.", "name": "Le Pouech", "natural": "peak", "source": "IGN BDTOPO 2022-12-15", "source:ele": "IGN RGEALTI 2021-05-12 (Radar)"}}, {"name": "Tuc de Lauzat", "latitude": 42.8666668, "longitude": 1.0060434, "elevation": 1239.0, "source": "osm", "_tags": {"ele": "1239", "name": "Tuc de Lauzat", "natural": "peak"}}, {"name": "Tuc d'Alexis", "latitude": 42.8564647, "longitude": 1.004821, "elevation": 1456.0, "source": "osm", "_tags": {"ele": "1456", "name": "Tuc d'Alexis", "natural": "peak"}}, {"name": "Tuc de Colnau", "latitude": 42.860922, "longitude": 1.005611, "elevation": 1281.0, "source": "osm", "_tags": {"ele": "1281", "name": "Tuc de Colnau", "natural": "peak"}}, {"name": "Tuc de Poursugue", "latitude": 42.863112, "longitude": 1.0053167, "elevation": 1296.0, "source": "osm", "_tags": {"ele": "1296", "name": "Tuc de Poursugue", "natural": "peak"}}, {"name": "Quer de Marty", "latitude": 42.9459312, "longitude": 1.3579058, "elevation": 1305.0, "source": "osm", "_tags": {"ele": "1305", "name": "Quer de Marty", "natural": "peak"}}, {"name": "Le Touron", "latitude": 42.9589509, "longitude": 1.3214493, "elevation": 993.0, "source": "osm", "_tags": {"ele": "993", "name": "Le Touron", "natural": "peak"}}, {"name": "Cap de Campets", "latitude": 42.9276299, "longitude": 1.3620472, "elevation": 1502.0, "source": "osm", "_tags": {"ele": "1502", "name": "Cap de Campets", "natural": "peak"}}, {"name": "Roc de Peyre Caussile", "latitude": 42.918936, "longitude": 1.3565698, "elevation": 1339.0, "source": "osm", "_tags": {"ele": "1339", "name": "Roc de Peyre Caussile", "natural": "peak"}}, {"name": "Cap du Rouquet", "latitude": 42.9439049, "longitude": 1.7532313, "elevation": 916.0, "source": "osm", "_tags": {"ele": "916", "name": "Cap du Rouquet", "natural": "peak"}}, {"name": "Roc de la Sale", "latitude": 42.8716711, "longitude": 1.920805, "elevation": 1005.0, "source": "osm", "_tags": {"ele": "1005", "name": "Roc de la Sale", "natural": "peak"}}, {"name": "Roc de Toulouse", "latitude": 42.8928817, "longitude": 1.9469619, "elevation": 919.0, "source": "osm", "_tags": {"ele": "919", "name": "Roc de Toulouse", "natural": "peak"}}, {"name": "Roc du Caujous", "latitude": 42.8864988, "longitude": 1.9231653, "elevation": 855.0, "source": "osm", "_tags": {"ele": "855", "name": "Roc du Caujous", "natural": "peak"}}, {"name": "Cap de la Serre", "latitude": 42.8643424, "longitude": 1.9492686, "elevation": 1031.0, "source": "osm", "_tags": {"ele": "1031", "name": "Cap de la Serre", "name:oc": "Cap de la Sèrra", "natural": "peak"}}, {"name": "Tuc de la Perdrix", "latitude": 42.8897331, "longitude": 1.1572291, "elevation": 951.0, "source": "osm", "_tags": {"ele": "951", "name": "Tuc de la Perdrix", "natural": "peak"}}, {"name": "Tuc de Penilles", "latitude": 42.9811675, "longitude": 1.0681629, "elevation": 833.0, "source": "osm", "_tags": {"ele": "833", "name": "Tuc de Penilles", "natural": "peak"}}, {"name": "Roc d'Estals", "latitude": 42.9780278, "longitude": 1.4962005, "elevation": null, "source": "osm", "_tags": {"name": "Roc d'Estals", "natural": "peak"}}, {"name": "584", "latitude": 43.02341, "longitude": 1.4628001, "elevation": null, "source": "osm", "_tags": {"name": "584", "natural": "peak"}}, {"name": "501", "latitude": 43.012052, "longitude": 1.470024, "elevation": 501.0, "source": "osm", "_tags": {"ele": "501", "name": "501", "natural": "peak"}}, {"name": "La Maille", "latitude": 43.0102403, "longitude": 1.4795421, "elevation": 503.0, "source": "osm", "_tags": {"ele": "503", "name": "La Maille", "natural": "peak"}}, {"name": "Les Coustats", "latitude": 43.0111073, "longitude": 1.4915743, "elevation": 528.0, "source": "osm", "_tags": {"ele": "528", "name": "Les Coustats", "natural": "peak"}}, {"name": "Le Pouech", "latitude": 43.0173369, "longitude": 1.4921513, "elevation": 667.0, "source": "osm", "_tags": {"ele": "667", "fixme": "Position et altitude du sommet approximatives (Radar). À ajuster lorsque le RGE ALTI Lidar sera disponible dans cette zone.", "name": "Le Pouech", "natural": "peak", "source": "IGN BDTOPO 2022-12-15", "source:ele": "IGN RGEALTI 2021-05-12 (Radar)"}}, {"name": "Pouech d'Unjat", "latitude": 43.0192838, "longitude": 1.4778919, "elevation": 703.0, "source": "osm", "_tags": {"ele": "703", "name": "Pouech d'Unjat", "natural": "peak"}}, {"name": "Las Muros", "latitude": 43.0344574, "longitude": 1.4870965, "elevation": 616.0, "source": "osm", "_tags": {"ele": "616", "name": "Las Muros", "natural": "peak"}}, {"name": "579", "latitude": 43.0309016, "longitude": 1.4885134, "elevation": null, "source": "osm", "_tags": {"name": "579", "natural": "peak"}}, {"name": "609", "latitude": 43.0321491, "longitude": 1.4980048, "elevation": null, "source": "osm", "_tags": {"name": "609", "natural": "peak"}}, {"name": "600", "latitude": 43.0350596, "longitude": 1.494212, "elevation": null, "source": "osm", "_tags": {"name": "600", "natural": "peak"}}, {"name": "590", "latitude": 43.0327871, "longitude": 1.4824543, "elevation": null, "source": "osm", "_tags": {"name": "590", "natural": "peak"}}, {"name": "560", "latitude": 43.0309518, "longitude": 1.4675737, "elevation": null, "source": "osm", "_tags": {"name": "560", "natural": "peak"}}, {"name": "Mont Pitre", "latitude": 43.046452, "longitude": 1.812036, "elevation": 468.0, "source": "osm", "_tags": {"ele": "468", "name": "Mont Pitre", "natural": "peak"}}, {"name": "Pouech Gariné", "latitude": 43.0333135, "longitude": 1.4122411, "elevation": 651.0, "source": "osm", "_tags": {"ele": "651", "name": "Pouech Gariné", "natural": "peak"}}, {"name": "551", "latitude": 43.0264414, "longitude": 1.4095613, "elevation": null, "source": "osm", "_tags": {"name": "551", "natural": "peak"}}, {"name": "477", "latitude": 43.0578403, "longitude": 1.433038, "elevation": null, "source": "osm", "_tags": {"name": "477", "natural": "peak"}}, {"name": "427", "latitude": 43.0619616, "longitude": 1.434496, "elevation": null, "source": "osm", "_tags": {"name": "427", "natural": "peak"}}, {"name": "511", "latitude": 43.0561075, "longitude": 1.4393911, "elevation": null, "source": "osm", "_tags": {"name": "511", "natural": "peak"}}, {"name": "Pech des Biaux", "latitude": 43.0717407, "longitude": 1.9552231, "elevation": 450.0, "source": "osm", "_tags": {"ele": "450", "name": "Pech des Biaux", "natural": "peak"}}, {"name": "509", "latitude": 43.0547644, "longitude": 1.4454008, "elevation": null, "source": "osm", "_tags": {"name": "509", "natural": "peak"}}, {"name": "535", "latitude": 43.0511299, "longitude": 1.4507494, "elevation": null, "source": "osm", "_tags": {"name": "535", "natural": "peak"}}, {"name": "550", "latitude": 43.0482546, "longitude": 1.4586736, "elevation": null, "source": "osm", "_tags": {"name": "550", "natural": "peak"}}, {"name": "565", "latitude": 43.0466103, "longitude": 1.467119, "elevation": null, "source": "osm", "_tags": {"name": "565", "natural": "peak"}}, {"name": "La Garosse", "latitude": 43.0270062, "longitude": 1.445906, "elevation": 618.0, "source": "osm", "_tags": {"ele": "618", "name": "La Garosse", "natural": "peak"}}, {"name": "634", "latitude": 43.0252076, "longitude": 1.4481635, "elevation": null, "source": "osm", "_tags": {"name": "634", "natural": "peak"}}, {"name": "647", "latitude": 43.0232507, "longitude": 1.454385, "elevation": null, "source": "osm", "_tags": {"name": "647", "natural": "peak"}}, {"name": "Castillou", "latitude": 43.0170869, "longitude": 1.4439429, "elevation": 546.0, "source": "osm", "_tags": {"ele": "546", "name": "Castillou", "natural": "peak"}}, {"name": "502", "latitude": 43.018931, "longitude": 1.4283618, "elevation": null, "source": "osm", "_tags": {"name": "502", "natural": "peak"}}, {"name": "502", "latitude": 43.0174076, "longitude": 1.4341245, "elevation": null, "source": "osm", "_tags": {"name": "502", "natural": "peak"}}, {"name": "Plan Caret", "latitude": 42.9462415, "longitude": 1.4993841, "elevation": 990.0, "source": "osm", "_tags": {"ele": "990", "name": "Plan Caret", "natural": "peak"}}, {"name": "1297", "latitude": 42.8627499, "longitude": 1.0786741, "elevation": null, "source": "osm", "_tags": {"name": "1297", "natural": "peak"}}, {"name": "1694", "latitude": 42.8532894, "longitude": 1.0768341, "elevation": null, "source": "osm", "_tags": {"name": "1694", "natural": "peak"}}, {"name": "Le Gazet", "latitude": 42.8537845, "longitude": 1.0703364, "elevation": 1732.0, "source": "osm", "_tags": {"ele": "1732", "name": "Le Gazet", "natural": "peak"}}, {"name": "1352", "latitude": 42.855817, "longitude": 1.0847263, "elevation": null, "source": "osm", "_tags": {"name": "1352", "natural": "peak"}}, {"name": "1328", "latitude": 42.8593228, "longitude": 1.0899141, "elevation": null, "source": "osm", "_tags": {"name": "1328", "natural": "peak"}}, {"name": "Rocher de Cartignos", "latitude": 42.8669973, "longitude": 1.1307062, "elevation": 1680.0, "source": "osm", "_tags": {"ele": "1680", "name": "Rocher de Cartignos", "natural": "peak"}}, {"name": "1180", "latitude": 42.8445058, "longitude": 1.2169411, "elevation": null, "source": "osm", "_tags": {"name": "1180", "natural": "peak"}}, {"name": "Le Pouech", "latitude": 43.0251984, "longitude": 1.1536184, "elevation": 610.0, "source": "osm", "_tags": {"ele": "610", "fixme": "Position et altitude du sommet approximatives (Radar). À ajuster lorsque le RGE ALTI Lidar sera disponible dans cette zone.", "name": "Le Pouech", "natural": "peak", "source": "IGN BDTOPO 2022-12-15", "source:ele": "IGN RGEALTI 2021-05-12 (Radar)"}}, {"name": "Le Pouech", "latitude": 43.0338485, "longitude": 0.9933145, "elevation": 444.0, "source": "osm", "_tags": {"ele": "444", "name": "Le Pouech", "natural": "peak", "source": "IGN BDTOPO 2022-12-15", "source:ele": "IGN RGEALTI 2021-05-12 (Lidar)"}}, {"name": "934", "latitude": 42.8424368, "longitude": 1.584639, "elevation": null, "source": "osm", "_tags": {"name": "934", "natural": "peak"}}, {"name": "928", "latitude": 42.8405045, "longitude": 1.5898679, "elevation": null, "source": "osm", "_tags": {"name": "928", "natural": "peak"}}, {"name": "959", "latitude": 42.8383202, "longitude": 1.5918336, "elevation": null, "source": "osm", "_tags": {"name": "959", "natural": "peak"}}, {"name": "915", "latitude": 42.8358044, "longitude": 1.5872294, "elevation": null, "source": "osm", "_tags": {"name": "915", "natural": "peak"}}, {"name": "Cap de Couronnes", "latitude": 42.83876, "longitude": 1.5886316, "elevation": 969.0, "source": "osm", "_tags": {"ele": "969", "name": "Cap de Couronnes", "natural": "peak"}}, {"name": "Les Calbières", "latitude": 42.8263227, "longitude": 1.5810453, "elevation": 1077.0, "source": "osm", "_tags": {"ele": "1077", "name": "Les Calbières", "natural": "peak"}}, {"name": "Rauillets", "latitude": 42.8318579, "longitude": 1.5781614, "elevation": 1021.0, "source": "osm", "_tags": {"ele": "1021", "name": "Rauillets", "natural": "peak"}}, {"name": "1949", "latitude": 42.8443377, "longitude": 1.0576185, "elevation": null, "source": "osm", "_tags": {"name": "1949", "natural": "peak"}}, {"name": "Tuc des Camaus", "latitude": 42.8562635, "longitude": 1.0421375, "elevation": 1770.0, "source": "osm", "_tags": {"ele": "1770", "name": "Tuc des Camaus", "natural": "peak"}}, {"name": "Pic de la Gerbe", "latitude": 42.8528337, "longitude": 1.0441593, "elevation": 1715.0, "source": "osm", "_tags": {"ele": "1715", "name": "Pic de la Gerbe", "natural": "peak"}}, {"name": "1750", "latitude": 42.8504829, "longitude": 1.045982, "elevation": null, "source": "osm", "_tags": {"name": "1750", "natural": "peak"}}, {"name": "Tuc du Corocle", "latitude": 42.8490448, "longitude": 1.0450874, "elevation": 1785.0, "source": "osm", "_tags": {"ele": "1785", "name": "Tuc du Corocle", "natural": "peak"}}, {"name": "Tuc de Baumagne", "latitude": 42.8462838, "longitude": 1.0448014, "elevation": 1852.0, "source": "osm", "_tags": {"ele": "1852", "name": "Tuc de Baumagne", "natural": "peak"}}, {"name": "Tuc des Laziès", "latitude": 42.843722, "longitude": 1.0452234, "elevation": 1865.0, "source": "osm", "_tags": {"ele": "1865", "name": "Tuc des Laziès", "natural": "peak"}}, {"name": "1883", "latitude": 42.8415529, "longitude": 1.0488268, "elevation": null, "source": "osm", "_tags": {"name": "1883", "natural": "peak"}}, {"name": "Pic de Crabère", "latitude": 42.8402184, "longitude": 1.0572238, "elevation": 2095.0, "source": "osm", "_tags": {"ele": "2095", "name": "Pic de Crabère", "natural": "peak"}}, {"name": "", "latitude": 42.8368709, "longitude": 1.0591138, "elevation": null, "source": "osm", "_tags": {"natural": "peak"}}, {"name": "Pic de Montgarié", "latitude": 42.8337068, "longitude": 1.0642447, "elevation": 2225.0, "source": "osm", "_tags": {"ele": "2225", "name": "Pic de Montgarié", "natural": "peak"}}, {"name": "2132", "latitude": 42.8314204, "longitude": 1.0671123, "elevation": null, "source": "osm", "_tags": {"name": "2132", "natural": "peak"}}, {"name": "2332", "latitude": 42.8314598, "longitude": 1.0736027, "elevation": null, "source": "osm", "_tags": {"name": "2332", "natural": "peak"}}, {"name": "2315", "latitude": 42.833439, "longitude": 1.0720128, "elevation": null, "source": "osm", "_tags": {"name": "2315", "natural": "peak"}}, {"name": "Cap d'Auternac", "latitude": 42.8294157, "longitude": 1.0778638, "elevation": 2362.0, "source": "osm", "_tags": {"ele": "2362", "name": "Cap d'Auternac", "natural": "peak"}}, {"name": "1922", "latitude": 42.8352474, "longitude": 1.0533531, "elevation": null, "source": "osm", "_tags": {"name": "1922", "natural": "peak"}}, {"name": "Pech Redon", "latitude": 43.1138601, "longitude": 1.8722892, "elevation": 428.0, "source": "osm", "_tags": {"ele": "428", "name": "Pech Redon", "natural": "peak"}}, {"name": "Pech de la Nougarède", "latitude": 43.1294125, "longitude": 1.9054198, "elevation": null, "source": "osm", "_tags": {"name": "Pech de la Nougarède", "natural": "peak"}}, {"name": "Pech Naboune", "latitude": 43.1125834, "longitude": 1.9003343, "elevation": 409.0, "source": "osm", "_tags": {"ele": "409", "name": "Pech Naboune", "natural": "peak"}}, {"name": "Serre de Maffre", "latitude": 43.1258497, "longitude": 1.9344306, "elevation": 408.0, "source": "osm", "_tags": {"ele": "408", "name": "Serre de Maffre", "natural": "peak"}}, {"name": "Pech de la Calvie", "latitude": 43.1479042, "longitude": 1.9290876, "elevation": 388.0, "source": "osm", "_tags": {"ele": "388", "name": "Pech de la Calvie", "natural": "peak"}}, {"name": "Pech Ibert", "latitude": 43.2020554, "longitude": 1.9646859, "elevation": 410.0, "source": "osm", "_tags": {"ele": "410", "name": "Pech Ibert", "natural": "peak"}}, {"name": "Pech des Canonges", "latitude": 43.2366367, "longitude": 1.8867731, "elevation": 335.0, "source": "osm", "_tags": {"ele": "335", "name": "Pech des Canonges", "natural": "peak"}}, {"name": "Pech Ponchut", "latitude": 43.2105122, "longitude": 1.9027683, "elevation": 365.0, "source": "osm", "_tags": {"ele": "365", "name": "Pech Ponchut", "natural": "peak"}}, {"name": "Pech Carla", "latitude": 43.2007418, "longitude": 1.8794909, "elevation": 370.0, "source": "osm", "_tags": {"ele": "370", "name": "Pech Carla", "natural": "peak"}}, {"name": "Pech Joupy", "latitude": 43.0309177, "longitude": 1.9032633, "elevation": 403.0, "source": "osm", "_tags": {"ele": "403", "name": "Pech Joupy", "natural": "peak"}}, {"name": "Cap de Bourre", "latitude": 43.0474791, "longitude": 1.8466043, "elevation": 382.0, "source": "osm", "_tags": {"ele": "382", "name": "Cap de Bourre", "natural": "peak"}}, {"name": "la Serre", "latitude": 43.052144, "longitude": 1.7813301, "elevation": 470.0, "source": "osm", "_tags": {"ele": "470", "name": "la Serre", "natural": "peak"}}, {"name": "Pech Maure", "latitude": 43.0171131, "longitude": 1.9272852, "elevation": 471.0, "source": "osm", "_tags": {"ele": "471", "name": "Pech Maure", "natural": "peak"}}, {"name": "Cap du Pech", "latitude": 43.0174269, "longitude": 1.6880214, "elevation": 703.0, "source": "osm", "_tags": {"ele": "703", "name": "Cap du Pech", "natural": "peak"}}, {"name": "Sommet du Carlaret", "latitude": 43.0201881, "longitude": 1.701293, "elevation": 632.0, "source": "osm", "_tags": {"ele": "632", "name": "Sommet du Carlaret", "natural": "peak"}}, {"name": "Sommet des Trabesses", "latitude": 43.0098253, "longitude": 1.7491543, "elevation": 594.0, "source": "osm", "_tags": {"ele": "594", "name": "Sommet des Trabesses", "natural": "peak"}}, {"name": "Mont Pastouret", "latitude": 43.0118023, "longitude": 1.7064643, "elevation": 730.0, "source": "osm", "_tags": {"ele": "730", "name": "Mont Pastouret", "natural": "peak"}}, {"name": "Pech Serna", "latitude": 43.168018, "longitude": 1.8605304, "elevation": 342.0, "source": "osm", "_tags": {"ele": "342", "name": "Pech Serna", "natural": "peak"}}, {"name": "Pech de Lanel", "latitude": 43.1568427, "longitude": 1.9352782, "elevation": null, "source": "osm", "_tags": {"name": "Pech de Lanel", "natural": "peak"}}, {"name": "Pech de la Serre", "latitude": 43.1561853, "longitude": 1.9495797, "elevation": 408.0, "source": "osm", "_tags": {"ele": "408", "name": "Pech de la Serre", "natural": "peak"}}, {"name": "Pech de la Gravielle", "latitude": 43.1326462, "longitude": 1.9300532, "elevation": 401.0, "source": "osm", "_tags": {"ele": "401", "name": "Pech de la Gravielle", "natural": "peak"}}, {"name": "Pech de Reves", "latitude": 43.1362712, "longitude": 1.9313943, "elevation": 421.0, "source": "osm", "_tags": {"ele": "421", "name": "Pech de Reves", "natural": "peak"}}, {"name": "Pech de la Poude", "latitude": 43.1534303, "longitude": 1.9200325, "elevation": 385.0, "source": "osm", "_tags": {"ele": "385", "name": "Pech de la Poude", "natural": "peak"}}, {"name": "Pech de Faure", "latitude": 43.1672981, "longitude": 1.8954474, "elevation": 400.0, "source": "osm", "_tags": {"ele": "400", "name": "Pech de Faure", "natural": "peak"}}, {"name": "Pech de Bigorre", "latitude": 43.1740587, "longitude": 1.8939185, "elevation": 376.0, "source": "osm", "_tags": {"ele": "376", "name": "Pech de Bigorre", "natural": "peak"}}, {"name": "Pech de la Bourdette", "latitude": 43.1756704, "longitude": 1.9375205, "elevation": 331.0, "source": "osm", "_tags": {"ele": "331", "name": "Pech de la Bourdette", "natural": "peak"}}, {"name": "Pech de Mirc", "latitude": 43.1640897, "longitude": 1.952852, "elevation": 387.0, "source": "osm", "_tags": {"ele": "387", "name": "Pech de Mirc", "natural": "peak"}}, {"name": "Pech de la Gardelle", "latitude": 43.2005734, "longitude": 1.9338727, "elevation": 396.0, "source": "osm", "_tags": {"ele": "396", "name": "Pech de la Gardelle", "natural": "peak"}}, {"name": "Pech Donnadieu", "latitude": 43.257862, "longitude": 1.8769455, "elevation": 309.0, "source": "osm", "_tags": {"ele": "309", "name": "Pech Donnadieu", "natural": "peak"}}, {"name": "Pech Saladou", "latitude": 43.2404822, "longitude": 1.8888759, "elevation": 332.0, "source": "osm", "_tags": {"ele": "332", "name": "Pech Saladou", "natural": "peak"}}, {"name": "Cap d'Ares", "latitude": 42.8526282, "longitude": 1.218488, "elevation": 830.0, "source": "osm", "_tags": {"ele": "830", "name": "Cap d'Ares", "natural": "peak"}}, {"name": "", "latitude": 42.8337621, "longitude": 0.9975332, "elevation": null, "source": "osm", "_tags": {"natural": "peak"}}, {"name": "Pic de Lagarde", "latitude": 42.8332348, "longitude": 1.0069875, "elevation": 1838.0, "source": "osm", "_tags": {"ele": "1838", "name": "Pic de Lagarde", "natural": "peak"}}, {"name": "Tuc de Luron", "latitude": 42.8415036, "longitude": 1.0052636, "elevation": 1705.0, "source": "osm", "_tags": {"ele": "1705", "name": "Tuc de Luron", "natural": "peak"}}, {"name": "Cap de Corp", "latitude": 42.8464285, "longitude": 1.0064076, "elevation": 1544.0, "source": "osm", "_tags": {"ele": "1544", "name": "Cap de Corp", "natural": "peak"}}, {"name": "Tuc de la Pale des Camps", "latitude": 42.8485358, "longitude": 1.0060101, "elevation": 1598.0, "source": "osm", "_tags": {"ele": "1598", "name": "Tuc de la Pale des Camps", "natural": "peak"}}, {"name": "Tuc de Seba", "latitude": 42.8525618, "longitude": 1.0056017, "elevation": 1561.0, "source": "osm", "_tags": {"ele": "1561", "name": "Tuc de Seba", "natural": "peak"}}, {"name": "Cap de Palus", "latitude": 42.8758671, "longitude": 1.1029412, "elevation": 1636.0, "source": "osm", "_tags": {"ele": "1636", "name": "Cap de Palus", "natural": "peak"}}, {"name": "1356", "latitude": 42.8862469, "longitude": 1.120097, "elevation": null, "source": "osm", "_tags": {"name": "1356", "natural": "peak"}}, {"name": "1296", "latitude": 42.8795899, "longitude": 1.1224113, "elevation": null, "source": "osm", "_tags": {"name": "1296", "natural": "peak"}}, {"name": "Tuc de Gatépech", "latitude": 42.9487123, "longitude": 1.1416529, "elevation": 842.0, "source": "osm", "_tags": {"ele": "842", "name": "Tuc de Gatépech", "natural": "peak", "source": "IGN BDTOPO 2023-09-15", "source:ele": "IGN RGEALTI 2023-10-04 (Lidar)"}}, {"name": "Le Sarrat", "latitude": 43.0976338, "longitude": 1.8279971, "elevation": 461.0, "source": "osm", "_tags": {"ele": "461", "name": "Le Sarrat", "natural": "peak", "source": "IGN BDTOPO 2023-09-15", "source:ele": "IGN RGEALTI 2023-10-04 (Lidar)"}}, {"name": "Tuc de Bédole", "latitude": 42.9497622, "longitude": 1.2087858, "elevation": 863.0, "source": "osm", "_tags": {"ele": "863", "name": "Tuc de Bédole", "natural": "peak", "source": "IGN BDTOPO 2023-09-15", "source:ele": "IGN RGEALTI 2023-10-04 (Lidar)"}}, {"name": "La Bouychette", "latitude": 43.0139459, "longitude": 1.3203172, "elevation": 557.0, "source": "osm", "_tags": {"ele": "557", "name": "La Bouychette", "natural": "peak", "source": "IGN BDTOPO 2023-09-15", "source:ele": "IGN RGEALTI 2023-10-04 (Lidar)"}}, {"name": "Pretus", "latitude": 43.0157859, "longitude": 1.3189031, "elevation": 558.0, "source": "osm", "_tags": {"ele": "558", "name": "Pretus", "natural": "peak", "source": "IGN BDTOPO 2023-09-15", "source:ele": "IGN RGEALTI 2023-10-04 (Lidar)"}}, {"name": "Tuc de Toupi", "latitude": 42.9265249, "longitude": 1.150773, "elevation": 1106.0, "source": "osm", "_tags": {"ele": "1106", "name": "Tuc de Toupi", "natural": "peak", "source": "IGN BDTOPO 2023-09-15", "source:ele": "IGN RGEALTI 2023-10-04 (Lidar)"}}, {"name": "Cap de Calieu", "latitude": 42.9493394, "longitude": 1.192133, "elevation": 841.0, "source": "osm", "_tags": {"ele": "841", "name": "Cap de Calieu", "natural": "peak", "source": "IGN BDTOPO 2023-09-15", "source:ele": "IGN RGEALTI 2023-10-04 (Lidar)"}}, {"name": "Tuc de Sanson", "latitude": 42.9436898, "longitude": 1.1597762, "elevation": 776.0, "source": "osm", "_tags": {"ele": "776", "name": "Tuc de Sanson", "natural": "peak", "source": "IGN BDTOPO 2023-09-15", "source:ele": "IGN RGEALTI 2023-10-04 (Lidar)"}}, {"name": "Char de Moulis", "latitude": 42.9556391, "longitude": 1.0944027, "elevation": 721.0, "source": "osm", "_tags": {"ele": "721", "name": "Char de Moulis", "natural": "peak", "source": "IGN BDTOPO 2023-09-15", "source:ele": "IGN RGEALTI 2023-10-04 (Lidar)"}}, {"name": "Touron", "latitude": 43.1032625, "longitude": 1.7649679, "elevation": 366.0, "source": "osm", "_tags": {"ele": "366", "name": "Touron", "natural": "peak", "source": "IGN BDTOPO 2023-09-15", "source:ele": "IGN RGEALTI 2023-10-04 (Lidar)"}}, {"name": "Saint-Martin", "latitude": 42.9105405, "longitude": 1.2429384, "elevation": 627.0, "source": "osm", "_tags": {"ele": "627", "name": "Saint-Martin", "natural": "peak", "source": "IGN BDTOPO 2023-09-15", "source:ele": "IGN RGEALTI 2023-10-04 (Lidar)"}}, {"name": "Montragné", "latitude": 43.0678208, "longitude": 1.8527451, "elevation": 442.0, "source": "osm", "_tags": {"ele": "442", "name": "Montragné", "natural": "peak", "source": "IGN BDTOPO 2023-09-15", "source:ele": "IGN RGEALTI 2023-10-04 (Lidar)"}}, {"name": "Le Couret", "latitude": 42.9043505, "longitude": 1.1961895, "elevation": 841.0, "source": "osm", "_tags": {"ele": "841", "name": "Le Couret", "natural": "peak", "source": "IGN BDTOPO 2023-09-15", "source:ele": "IGN RGEALTI 2023-10-04 (Lidar)"}}, {"name": "Le Télégraphe", "latitude": 43.1779883, "longitude": 1.5867918, "elevation": 419.0, "source": "osm", "_tags": {"ele": "419", "name": "Le Télégraphe", "natural": "peak", "source": "IGN BDTOPO 2023-09-15", "source:ele": "IGN RGEALTI 2023-10-04 (Lidar)"}}, {"name": "Jean Pech", "latitude": 43.1499571, "longitude": 1.8137534, "elevation": 372.0, "source": "osm", "_tags": {"ele": "372", "name": "Jean Pech", "natural": "peak", "source": "IGN BDTOPO 2023-09-15", "source:ele": "IGN RGEALTI 2023-10-04 (Lidar)"}}, {"name": "Tuc du Four", "latitude": 42.892874, "longitude": 1.2292214, "elevation": 713.0, "source": "osm", "_tags": {"ele": "713", "name": "Tuc du Four", "natural": "peak", "source": "IGN BDTOPO 2023-09-15", "source:ele": "IGN RGEALTI 2023-10-04 (Lidar)"}}, {"name": "Moncalin", "latitude": 43.10581, "longitude": 1.7565285, "elevation": 362.0, "source": "osm", "_tags": {"ele": "362", "name": "Moncalin", "natural": "peak", "source": "IGN BDTOPO 2023-09-15", "source:ele": "IGN RGEALTI 2023-10-04 (Lidar)"}}, {"name": "Les Sarrats", "latitude": 42.9578489, "longitude": 1.0680224, "elevation": 665.0, "source": "osm", "_tags": {"ele": "665", "name": "Les Sarrats", "natural": "peak", "source": "IGN BDTOPO 2023-09-15", "source:ele": "IGN RGEALTI 2023-10-04 (Lidar)"}}, {"name": "Serres de Pauly", "latitude": 43.0141544, "longitude": 1.6280635, "elevation": 470.0, "source": "osm", "_tags": {"ele": "470", "name": "Serres de Pauly", "natural": "peak", "source": "IGN BDTOPO 2023-09-15", "source:ele": "IGN RGEALTI 2023-10-04 (Lidar)"}}, {"name": "Cante-Lauze", "latitude": 43.097545, "longitude": 1.7707856, "elevation": 391.0, "source": "osm", "_tags": {"ele": "391", "name": "Cante-Lauze", "natural": "peak", "source": "IGN BDTOPO 2023-09-15", "source:ele": "IGN RGEALTI 2023-10-04 (Lidar)"}}, {"name": "Cap de l'Aybret", "latitude": 43.0910632, "longitude": 1.8267924, "elevation": 449.0, "source": "osm", "_tags": {"ele": "449", "name": "Cap de l'Aybret", "natural": "peak", "source": "IGN BDTOPO 2023-09-15", "source:ele": "IGN RGEALTI 2023-10-04 (Lidar)"}}, {"name": "Pic de la Coume de Millas", "latitude": 43.095399, "longitude": 1.8317738, "elevation": 462.0, "source": "osm", "_tags": {"ele": "462", "name": "Pic de la Coume de Millas", "natural": "peak", "source": "IGN BDTOPO 2023-09-15", "source:ele": "IGN RGEALTI 2023-10-04 (Lidar)"}}, {"name": "Cap de l'Aigle", "latitude": 43.1024954, "longitude": 1.8308694, "elevation": 450.0, "source": "osm", "_tags": {"ele": "450", "name": "Cap de l'Aigle", "natural": "peak", "source": "IGN BDTOPO 2023-09-15", "source:ele": "IGN RGEALTI 2023-10-04 (Lidar)"}}, {"name": "Les Serres", "latitude": 43.1465327, "longitude": 1.5884576, "elevation": 311.0, "source": "osm", "_tags": {"ele": "311", "name": "Les Serres", "natural": "peak", "source": "IGN BDTOPO 2023-09-15", "source:ele": "IGN RGEALTI 2023-10-04 (Lidar)"}}, {"name": "Roc Redon", "latitude": 43.1372008, "longitude": 1.7391848, "elevation": 339.0, "source": "osm", "_tags": {"ele": "339", "name": "Roc Redon", "natural": "peak", "source": "IGN BDTOPO 2023-09-15", "source:ele": "IGN RGEALTI 2023-10-04 (Lidar)"}}, {"name": "Pé Redon", "latitude": 43.0716582, "longitude": 1.8383925, "elevation": 365.0, "source": "osm", "_tags": {"ele": "365", "name": "Pé Redon", "natural": "peak", "source": "IGN BDTOPO 2023-09-15", "source:ele": "IGN RGEALTI 2023-10-04 (Lidar)"}}, {"name": "1792", "latitude": 42.8274627, "longitude": 1.4130427, "elevation": null, "source": "osm", "_tags": {"name": "1792", "natural": "peak"}}, {"name": "700", "latitude": 42.8989938, "longitude": 1.2225555, "elevation": null, "source": "osm", "_tags": {"name": "700", "natural": "peak"}}, {"name": "Turon Douarde", "latitude": 42.8705815, "longitude": 1.2578792, "elevation": 914.0, "source": "osm", "_tags": {"ele": "914", "name": "Turon Douarde", "natural": "peak"}}, {"name": "Pic de Razels", "latitude": 42.9152472, "longitude": 1.4370275, "elevation": 1600.0, "source": "osm", "_tags": {"ele": "1600", "name": "Pic de Razels", "natural": "peak"}}, {"name": "1120", "latitude": 42.8311825, "longitude": 1.284511, "elevation": null, "source": "osm", "_tags": {"name": "1120", "natural": "peak"}}, {"name": "Tuc de la Courate", "latitude": 42.9352568, "longitude": 1.262659, "elevation": 1421.0, "source": "osm", "_tags": {"ele": "1421", "name": "Tuc de la Courate", "natural": "peak"}}, {"name": "Castel Ségui", "latitude": 42.9710411, "longitude": 1.0368925, "elevation": 1229.0, "source": "osm", "_tags": {"ele": "1229", "name": "Castel Ségui", "natural": "peak"}}, {"name": "Roc de Sédour", "latitude": 42.865844, "longitude": 1.5844231, "elevation": 1066.0, "source": "osm", "_tags": {"ele": "1066", "name": "Roc de Sédour", "natural": "peak"}}, {"name": "Le Pouech de Cadarcet", "latitude": 43.018865, "longitude": 1.4968863, "elevation": 664.0, "source": "osm", "_tags": {"ele": "664", "name": "Le Pouech de Cadarcet", "natural": "peak"}}, {"name": "Tucoulet", "latitude": 43.005953, "longitude": 1.0006681, "elevation": 646.0, "source": "osm", "_tags": {"ele": "646", "name": "Tucoulet", "natural": "peak"}}, {"name": "Castel-Mauré", "latitude": 43.0050274, "longitude": 0.9902627, "elevation": 803.0, "source": "osm", "_tags": {"ele": "803", "name": "Castel-Mauré", "natural": "peak"}}, {"name": "Les Teillèdes", "latitude": 43.0113109, "longitude": 0.9926486, "elevation": 576.0, "source": "osm", "_tags": {"ele": "576", "name": "Les Teillèdes", "natural": "peak"}}, {"name": "1438", "latitude": 42.8351887, "longitude": 1.886778, "elevation": null, "source": "osm", "_tags": {"name": "1438", "natural": "peak"}}, {"name": "", "latitude": 42.8568821, "longitude": 1.8367454, "elevation": null, "source": "osm", "_tags": {"natural": "peak"}}, {"name": "1782", "latitude": 42.8349143, "longitude": 1.8328053, "elevation": null, "source": "osm", "_tags": {"name": "1782", "natural": "peak"}}, {"name": "1772", "latitude": 42.8327918, "longitude": 1.8307871, "elevation": null, "source": "osm", "_tags": {"name": "1772", "natural": "peak"}}, {"name": "1801", "latitude": 42.8284239, "longitude": 1.828088, "elevation": null, "source": "osm", "_tags": {"name": "1801", "natural": "peak"}}, {"name": "Sarrat de Caudeval", "latitude": 42.8280879, "longitude": 1.8284603, "elevation": 1803.0, "source": "osm", "_tags": {"ele": "1803", "name": "Sarrat de Caudeval", "natural": "peak"}}, {"name": "1778", "latitude": 42.8257357, "longitude": 1.8246829, "elevation": null, "source": "osm", "_tags": {"name": "1778", "natural": "peak"}}, {"name": "666", "latitude": 43.0198655, "longitude": 1.4966859, "elevation": null, "source": "osm", "_tags": {"name": "666", "natural": "peak"}}, {"name": "915", "latitude": 42.8808898, "longitude": 1.9548899, "elevation": null, "source": "osm", "_tags": {"name": "915", "natural": "peak"}}, {"name": "Mail de Castet Crabé", "latitude": 42.8386267, "longitude": 1.017552, "elevation": 1317.0, "source": "osm", "_tags": {"ele": "1317", "name": "Mail de Castet Crabé", "natural": "peak"}}, {"name": "Mail Blanc", "latitude": 42.8343512, "longitude": 1.0203727, "elevation": null, "source": "osm", "_tags": {"name": "Mail Blanc", "natural": "peak"}}, {"name": "Mail du Tucau des Loups", "latitude": 42.8271239, "longitude": 1.0280981, "elevation": null, "source": "osm", "_tags": {"name": "Mail du Tucau des Loups", "natural": "peak"}}, {"name": "Picadisses", "latitude": 42.931622, "longitude": 1.0525949, "elevation": 776.0, "source": "osm", "_tags": {"ele": "776", "name": "Picadisses", "natural": "peak"}}, {"name": "le Castera", "latitude": 42.9257258, "longitude": 1.0323586, "elevation": 627.0, "source": "osm", "_tags": {"ele": "627", "name": "le Castera", "natural": "peak"}}, {"name": "Tuc Auriol", "latitude": 42.9169765, "longitude": 1.0188014, "elevation": 739.0, "source": "osm", "_tags": {"ele": "739", "name": "Tuc Auriol", "natural": "peak"}}, {"name": "la Serre", "latitude": 42.9155836, "longitude": 1.0143392, "elevation": 765.0, "source": "osm", "_tags": {"ele": "765", "name": "la Serre", "natural": "peak"}}, {"name": "Couret", "latitude": 42.9129701, "longitude": 1.0065164, "elevation": 840.0, "source": "osm", "_tags": {"ele": "840", "name": "Couret", "natural": "peak"}}, {"name": "le Tuc", "latitude": 42.9112311, "longitude": 0.9994863, "elevation": 877.0, "source": "osm", "_tags": {"ele": "877", "name": "le Tuc", "natural": "peak"}}, {"name": "le Couret", "latitude": 42.8752183, "longitude": 1.010442, "elevation": null, "source": "osm", "_tags": {"name": "le Couret", "natural": "peak"}}, {"name": "Tos de la Peyrererez", "latitude": 42.8682121, "longitude": 1.0533494, "elevation": null, "source": "osm", "_tags": {"name": "Tos de la Peyrererez", "natural": "peak"}}, {"name": "Le Couret", "latitude": 42.8877188, "longitude": 1.0476182, "elevation": 770.0, "source": "osm", "_tags": {"ele": "770", "name": "Le Couret", "natural": "peak"}}, {"name": "le Couret", "latitude": 42.9092486, "longitude": 1.0420425, "elevation": 905.0, "source": "osm", "_tags": {"ele": "905", "name": "le Couret", "natural": "peak"}}, {"name": "Couret", "latitude": 42.9101667, "longitude": 1.0237053, "elevation": 694.0, "source": "osm", "_tags": {"ele": "694", "name": "Couret", "natural": "peak"}}, {"name": "le Picou", "latitude": 42.9034428, "longitude": 1.0156643, "elevation": 961.0, "source": "osm", "_tags": {"ele": "961", "name": "le Picou", "natural": "peak"}}, {"name": "Tuc Cournut", "latitude": 42.8988902, "longitude": 1.0146293, "elevation": null, "source": "osm", "_tags": {"name": "Tuc Cournut", "natural": "peak"}}, {"name": "Pic du Mail Blanc", "latitude": 42.896405, "longitude": 1.0083967, "elevation": 1287.0, "source": "osm", "_tags": {"ele": "1287", "name": "Pic du Mail Blanc", "natural": "peak"}}, {"name": "le Char", "latitude": 42.9417612, "longitude": 0.984516, "elevation": 701.0, "source": "osm", "_tags": {"ele": "701", "name": "le Char", "natural": "peak"}}, {"name": "Tuc de castera", "latitude": 42.9352032, "longitude": 0.981745, "elevation": 643.0, "source": "osm", "_tags": {"ele": "643", "name": "Tuc de castera", "natural": "peak"}}, {"name": "Tuc de Bernus", "latitude": 42.9192493, "longitude": 1.1262, "elevation": 934.0, "source": "osm", "_tags": {"ele": "934", "name": "Tuc de Bernus", "natural": "peak"}}, {"name": "Cap des Oumateix", "latitude": 42.8803662, "longitude": 1.0993691, "elevation": 1602.0, "source": "osm", "_tags": {"ele": "1602", "name": "Cap des Oumateix", "natural": "peak"}}, {"name": "Bassibet", "latitude": 42.8489667, "longitude": 1.1052975, "elevation": null, "source": "osm", "_tags": {"name": "Bassibet", "natural": "peak"}}, {"name": "Tuc de Mongalas", "latitude": 42.8625651, "longitude": 1.2974911, "elevation": 1327.0, "source": "osm", "_tags": {"ele": "1327", "name": "Tuc de Mongalas", "natural": "peak"}}, {"name": "Pic de Lanis", "latitude": 42.8646115, "longitude": 1.2909006, "elevation": 1226.0, "source": "osm", "_tags": {"ele": "1226", "name": "Pic de Lanis", "natural": "peak"}}, {"name": "Pic du Ramari", "latitude": 42.8315504, "longitude": 1.2480861, "elevation": 1385.0, "source": "osm", "_tags": {"ele": "1385", "name": "Pic du Ramari", "natural": "peak"}}, {"name": "", "latitude": 42.8319995, "longitude": 1.2523803, "elevation": null, "source": "osm", "_tags": {"natural": "peak"}}, {"name": "Cap des Granots", "latitude": 42.8344954, "longitude": 1.443075, "elevation": 2110.0, "source": "osm", "_tags": {"ele": "2110", "name": "Cap des Granots", "natural": "peak"}}, {"name": "Pic de Goulurs", "latitude": 42.8462848, "longitude": 1.4394069, "elevation": 1828.0, "source": "osm", "_tags": {"ele": "1828", "name": "Pic de Goulurs", "natural": "peak"}}, {"name": "les Courbets", "latitude": 42.8487349, "longitude": 1.4333548, "elevation": 1714.27, "source": "osm", "_tags": {"ele": "1714.27", "name": "les Courbets", "natural": "peak"}}, {"name": "Tuc de Goulur", "latitude": 42.8533649, "longitude": 1.4269003, "elevation": 1586.0, "source": "osm", "_tags": {"ele": "1586", "name": "Tuc de Goulur", "natural": "peak"}}, {"name": "Cap de la Dosse", "latitude": 42.853444, "longitude": 1.4617804, "elevation": 1948.0, "source": "osm", "_tags": {"ele": "1948", "name": "Cap de la Dosse", "natural": "peak"}}, {"name": "Cap de la Calasse", "latitude": 42.848399, "longitude": 1.4749895, "elevation": 1708.0, "source": "osm", "_tags": {"ele": "1708", "name": "Cap de la Calasse", "natural": "peak"}}, {"name": "Peyres", "latitude": 43.1029551, "longitude": 1.0136317, "elevation": null, "source": "osm", "_tags": {"name": "Peyres", "natural": "peak"}}, {"name": "Hajau", "latitude": 43.102507, "longitude": 1.0170916, "elevation": null, "source": "osm", "_tags": {"name": "Hajau", "natural": "peak"}}, {"name": "Prat Bdiau", "latitude": 43.0926125, "longitude": 1.0067242, "elevation": null, "source": "osm", "_tags": {"name": "Prat Bdiau", "natural": "peak"}}, {"name": "le Hajau", "latitude": 43.0813991, "longitude": 0.9948115, "elevation": null, "source": "osm", "_tags": {"name": "le Hajau", "natural": "peak"}}, {"name": "Monset", "latitude": 43.0988305, "longitude": 0.9714878, "elevation": 407.0, "source": "osm", "_tags": {"ele": "407", "name": "Monset", "natural": "peak"}}, {"name": "le Baux", "latitude": 43.1051846, "longitude": 0.9761517, "elevation": null, "source": "osm", "_tags": {"name": "le Baux", "natural": "peak"}}, {"name": "la Gallèpe", "latitude": 43.1022401, "longitude": 0.979778, "elevation": null, "source": "osm", "_tags": {"name": "la Gallèpe", "natural": "peak"}}, {"name": "Casteroulot de Charot", "latitude": 43.1122685, "longitude": 1.0042339, "elevation": 310.0, "source": "osm", "_tags": {"ele": "310", "name": "Casteroulot de Charot", "natural": "peak"}}, {"name": "Mont de Chac", "latitude": 43.0383524, "longitude": 0.9705955, "elevation": null, "source": "osm", "_tags": {"name": "Mont de Chac", "natural": "peak"}}, {"name": "la Ruère", "latitude": 43.0352405, "longitude": 0.9858642, "elevation": null, "source": "osm", "_tags": {"name": "la Ruère", "natural": "peak"}}, {"name": "la Roque", "latitude": 43.0304185, "longitude": 0.9851797, "elevation": 495.0, "source": "osm", "_tags": {"ele": "495", "name": "la Roque", "natural": "peak"}}, {"name": "Hajau", "latitude": 43.023423, "longitude": 0.9891748, "elevation": 601.0, "source": "osm", "_tags": {"ele": "601", "name": "Hajau", "natural": "peak"}}, {"name": "Tussau", "latitude": 43.0240736, "longitude": 0.9968705, "elevation": 559.0, "source": "osm", "_tags": {"ele": "559", "name": "Tussau", "natural": "peak"}}, {"name": "la Ruère", "latitude": 43.0224903, "longitude": 1.0072686, "elevation": 535.0, "source": "osm", "_tags": {"ele": "535", "name": "la Ruère", "natural": "peak"}}, {"name": "Garres", "latitude": 43.0201644, "longitude": 1.0069219, "elevation": 604.0, "source": "osm", "_tags": {"ele": "604", "name": "Garres", "natural": "peak"}}, {"name": "le Picou", "latitude": 43.0077776, "longitude": 1.0070173, "elevation": 698.0, "source": "osm", "_tags": {"ele": "698", "name": "le Picou", "natural": "peak"}}, {"name": "Picon", "latitude": 43.0157743, "longitude": 0.9758129, "elevation": 670.0, "source": "osm", "_tags": {"ele": "670", "name": "Picon", "natural": "peak"}}, {"name": "Tuc de Garbé", "latitude": 42.9746251, "longitude": 0.9792693, "elevation": 1243.0, "source": "osm", "_tags": {"ele": "1243", "name": "Tuc de Garbé", "natural": "peak"}}, {"name": "Somet de Montreich", "latitude": 42.9800504, "longitude": 0.9814077, "elevation": 1253.0, "source": "osm", "_tags": {"ele": "1253", "name": "Somet de Montreich", "natural": "peak"}}, {"name": "Bastires", "latitude": 42.9817386, "longitude": 0.9890846, "elevation": 1190.0, "source": "osm", "_tags": {"ele": "1190", "name": "Bastires", "natural": "peak"}}, {"name": "Haute Serre", "latitude": 42.9614008, "longitude": 1.0165385, "elevation": 769.0, "source": "osm", "_tags": {"ele": "769", "name": "Haute Serre", "natural": "peak"}}, {"name": "Tuc du Char", "latitude": 42.9485418, "longitude": 1.0229005, "elevation": 780.0, "source": "osm", "_tags": {"ele": "780", "name": "Tuc du Char", "natural": "peak"}}, {"name": "Pic de Gespy", "latitude": 42.9449419, "longitude": 1.0060071, "elevation": 941.0, "source": "osm", "_tags": {"ele": "941", "name": "Pic de Gespy", "natural": "peak"}}, {"name": "Tuc de Seguela", "latitude": 42.9499391, "longitude": 0.994089, "elevation": 971.0, "source": "osm", "_tags": {"ele": "971", "name": "Tuc de Seguela", "natural": "peak"}}, {"name": "le Cair", "latitude": 42.95486, "longitude": 0.9861279, "elevation": 1004.0, "source": "osm", "_tags": {"ele": "1004", "name": "le Cair", "natural": "peak"}}, {"name": "Castel Nérou", "latitude": 42.9540783, "longitude": 0.9929931, "elevation": 1067.0, "source": "osm", "_tags": {"ele": "1067", "name": "Castel Nérou", "natural": "peak"}}, {"name": "Tuc d'Embech", "latitude": 42.9587999, "longitude": 0.9758178, "elevation": 1129.0, "source": "osm", "_tags": {"ele": "1129", "name": "Tuc d'Embech", "natural": "peak"}}, {"name": "Craboute", "latitude": 43.0184841, "longitude": 1.042049, "elevation": 470.0, "source": "osm", "_tags": {"ele": "470", "name": "Craboute", "natural": "peak"}}, {"name": "Crabère", "latitude": 43.0041495, "longitude": 1.0620599, "elevation": 484.0, "source": "osm", "_tags": {"ele": "484", "name": "Crabère", "natural": "peak"}}, {"name": "le Morieux", "latitude": 42.9947148, "longitude": 1.0552272, "elevation": 531.0, "source": "osm", "_tags": {"ele": "531", "name": "le Morieux", "natural": "peak"}}, {"name": "Pla de Jaïl", "latitude": 42.9858102, "longitude": 1.0817185, "elevation": 586.0, "source": "osm", "_tags": {"ele": "586", "name": "Pla de Jaïl", "natural": "peak"}}, {"name": "Sarrat de Barousse", "latitude": 42.98044, "longitude": 1.0821574, "elevation": 711.0, "source": "osm", "_tags": {"ele": "711", "name": "Sarrat de Barousse", "natural": "peak"}}, {"name": "Tuc de Coume de Fer", "latitude": 42.9744388, "longitude": 1.0674257, "elevation": 918.0, "source": "osm", "_tags": {"ele": "918", "name": "Tuc de Coume de Fer", "natural": "peak"}}, {"name": "Tuc de Clarède", "latitude": 42.9769088, "longitude": 1.0559334, "elevation": 861.0, "source": "osm", "_tags": {"ele": "861", "name": "Tuc de Clarède", "natural": "peak"}}, {"name": "Pic de la Serre", "latitude": 42.9684491, "longitude": 1.0571602, "elevation": 1112.0, "source": "osm", "_tags": {"ele": "1112", "name": "Pic de la Serre", "natural": "peak"}}, {"name": "Tuc Grand", "latitude": 42.9673573, "longitude": 1.047505, "elevation": 1195.0, "source": "osm", "_tags": {"ele": "1195", "name": "Tuc Grand", "natural": "peak"}}, {"name": "Char de Luzenac", "latitude": 42.9485878, "longitude": 1.0821198, "elevation": 556.0, "source": "osm", "_tags": {"ele": "556", "name": "Char de Luzenac", "natural": "peak"}}, {"name": "le Pic", "latitude": 42.9496042, "longitude": 1.0988949, "elevation": 802.0, "source": "osm", "_tags": {"ele": "802", "name": "le Pic", "natural": "peak"}}, {"name": "Sarrat Blanc", "latitude": 43.0908741, "longitude": 1.0645737, "elevation": 422.0, "source": "osm", "_tags": {"ele": "422", "name": "Sarrat Blanc", "natural": "peak"}}, {"name": "le Tuc", "latitude": 43.0877511, "longitude": 1.0596388, "elevation": null, "source": "osm", "_tags": {"name": "le Tuc", "natural": "peak"}}, {"name": "Sarrat Brouqué", "latitude": 43.0903004, "longitude": 1.0325544, "elevation": null, "source": "osm", "_tags": {"name": "Sarrat Brouqué", "natural": "peak"}}, {"name": "le Tuc", "latitude": 43.0841822, "longitude": 1.0382925, "elevation": 504.0, "source": "osm", "_tags": {"ele": "504", "name": "le Tuc", "natural": "peak"}}, {"name": "Serre de Barbet", "latitude": 43.0748334, "longitude": 1.0313056, "elevation": null, "source": "osm", "_tags": {"name": "Serre de Barbet", "natural": "peak"}}, {"name": "Tuquet", "latitude": 43.0673487, "longitude": 1.0745576, "elevation": 522.0, "source": "osm", "_tags": {"ele": "522", "name": "Tuquet", "natural": "peak"}}, {"name": "le Tuc de Perrot", "latitude": 43.0554169, "longitude": 1.1014024, "elevation": 488.0, "source": "osm", "_tags": {"ele": "488", "name": "le Tuc de Perrot", "natural": "peak"}}, {"name": "Courtau", "latitude": 43.0575854, "longitude": 1.1422128, "elevation": 607.0, "source": "osm", "_tags": {"ele": "607", "name": "Courtau", "natural": "peak"}}, {"name": "le Barbu", "latitude": 43.0473428, "longitude": 1.0441503, "elevation": 441.0, "source": "osm", "_tags": {"ele": "441", "name": "le Barbu", "natural": "peak"}}, {"name": "le Tuquet", "latitude": 43.044394, "longitude": 1.048316, "elevation": 405.0, "source": "osm", "_tags": {"ele": "405", "name": "le Tuquet", "natural": "peak"}}, {"name": "la Ruère", "latitude": 43.0452951, "longitude": 1.0508751, "elevation": 372.0, "source": "osm", "_tags": {"ele": "372", "name": "la Ruère", "natural": "peak"}}, {"name": "Mont Magaste", "latitude": 42.9620084, "longitude": 1.1424089, "elevation": 675.0, "source": "osm", "_tags": {"ele": "675", "name": "Mont Magaste", "natural": "peak"}}, {"name": "Cap d'Embaussès", "latitude": 42.9340431, "longitude": 1.2509888, "elevation": 1313.0, "source": "osm", "_tags": {"ele": "1313", "name": "Cap d'Embaussès", "natural": "peak"}}, {"name": "Cap de la Bouyche", "latitude": 42.9339631, "longitude": 1.2789398, "elevation": 1284.0, "source": "osm", "_tags": {"ele": "1284", "name": "Cap de la Bouyche", "natural": "peak"}}, {"name": "Tucoulet", "latitude": 42.9493805, "longitude": 1.2387117, "elevation": null, "source": "osm", "_tags": {"name": "Tucoulet", "natural": "peak"}}, {"name": "Cap de Campade", "latitude": 42.9660453, "longitude": 1.2372086, "elevation": 794.0, "source": "osm", "_tags": {"ele": "794", "name": "Cap de Campade", "natural": "peak"}}, {"name": "Cap de Biros", "latitude": 42.9663626, "longitude": 1.2457411, "elevation": 821.0, "source": "osm", "_tags": {"ele": "821", "name": "Cap de Biros", "natural": "peak"}}, {"name": "le Tuc", "latitude": 42.9749673, "longitude": 1.2117735, "elevation": 623.0, "source": "osm", "_tags": {"ele": "623", "name": "le Tuc", "natural": "peak"}}, {"name": "les Canères", "latitude": 42.9822168, "longitude": 1.1813439, "elevation": 516.0, "source": "osm", "_tags": {"ele": "516", "name": "les Canères", "natural": "peak"}}, {"name": "la Montagnole", "latitude": 42.9913796, "longitude": 1.2261241, "elevation": null, "source": "osm", "_tags": {"name": "la Montagnole", "natural": "peak"}}, {"name": "les Quéraux", "latitude": 43.0000032, "longitude": 1.2610808, "elevation": 549.0, "source": "osm", "_tags": {"ele": "549", "name": "les Quéraux", "natural": "peak"}}, {"name": "Pique de Noguès", "latitude": 43.0083281, "longitude": 1.2592717, "elevation": 566.0, "source": "osm", "_tags": {"ele": "566", "name": "Pique de Noguès", "natural": "peak"}}, {"name": "Montlebre", "latitude": 43.0155476, "longitude": 1.1980966, "elevation": 512.0, "source": "osm", "_tags": {"ele": "512", "name": "Montlebre", "natural": "peak"}}, {"name": "Tuc del Rey", "latitude": 43.0211791, "longitude": 1.1870197, "elevation": null, "source": "osm", "_tags": {"name": "Tuc del Rey", "natural": "peak"}}, {"name": "Serre d'Arnac", "latitude": 43.0250192, "longitude": 1.1803234, "elevation": 666.0, "source": "osm", "_tags": {"ele": "666", "name": "Serre d'Arnac", "natural": "peak"}}, {"name": "Quère de l'Ardéou", "latitude": 43.0280021, "longitude": 1.19224, "elevation": 546.0, "source": "osm", "_tags": {"ele": "546", "name": "Quère de l'Ardéou", "natural": "peak"}}, {"name": "Quère d'Abas", "latitude": 43.0903551, "longitude": 1.157509, "elevation": 495.0, "source": "osm", "_tags": {"ele": "495", "name": "Quère d'Abas", "natural": "peak"}}, {"name": "Cabanères", "latitude": 43.0803527, "longitude": 1.2716565, "elevation": 753.0, "source": "osm", "_tags": {"ele": "753", "name": "Cabanères", "natural": "peak"}}, {"name": "Tuc de la Traverse", "latitude": 42.8889393, "longitude": 1.277397, "elevation": 925.0, "source": "osm", "_tags": {"ele": "925", "name": "Tuc de la Traverse", "natural": "peak"}}, {"name": "Tuc de Plagne", "latitude": 42.8730377, "longitude": 1.2752994, "elevation": null, "source": "osm", "_tags": {"name": "Tuc de Plagne", "natural": "peak"}}, {"name": "Tuc de Fourcas", "latitude": 42.8713989, "longitude": 1.2880479, "elevation": 1129.0, "source": "osm", "_tags": {"ele": "1129", "name": "Tuc de Fourcas", "natural": "peak"}}, {"name": "Quer de Biert", "latitude": 42.8975665, "longitude": 1.3064787, "elevation": 751.0, "source": "osm", "_tags": {"ele": "751", "name": "Quer de Biert", "natural": "peak"}}, {"name": "Quer de Masssat", "latitude": 42.8953584, "longitude": 1.324596, "elevation": 792.0, "source": "osm", "_tags": {"ele": "792", "name": "Quer de Masssat", "natural": "peak"}}, {"name": "Tuc des Goutes", "latitude": 42.8750513, "longitude": 1.3883838, "elevation": 1288.0, "source": "osm", "_tags": {"ele": "1288", "name": "Tuc des Goutes", "natural": "peak"}}, {"name": "Touron de Noubial", "latitude": 42.8676215, "longitude": 1.3930456, "elevation": 1435.0, "source": "osm", "_tags": {"ele": "1435", "name": "Touron de Noubial", "natural": "peak"}},