[{"name": "Puyallup", "country": "", "latitude": 47.1849009, "longitude": -122.29214, "population": 42973, "elevation": null, "source": "osm"}, {"name": "Fife", "country": "", "latitude": 47.2359524, "longitude": -122.3626381, "population": 10999, "elevation": null, "source": "osm"}, {"name": "Sumner", "country": "", "latitude": 47.2061882, "longitude": -122.2312383, "population": 10621, "elevation": null, "source": "osm"}, {"name": "Fort Lewis", "country": "", "latitude": 47.1086912, "longitude": -122.554979, "population": 14052, "elevation": null, "source": "osm"}, {"name": "Spanaway", "country": "", "latitude": 47.0979462, "longitude": -122.4243422, "population": 35476, "elevation": null, "source": "osm"}, {"name": "South Hill", "country": "", "latitude": 47.1210893, "longitude": -122.290702, "population": 64708, "elevation": null, "source": "osm"}, {"name": "Steilacoom", "country": "", "latitude": 47.1703692, "longitude": -122.596287, "population": 6727, "elevation": null, "source": "osm"}, {"name": "Edgewood", "country": "", "latitude": 47.2318245, "longitude": -122.2843724, "population": 12327, "elevation": null, "source": "osm"}, {"name": "Bonney Lake", "country": "", "latitude": 47.1870191, "longitude": -122.1702293, "population": 22487, "elevation": null, "source": "osm"}, {"name": "Gig Harbor", "country": "", "latitude": 47.3259697, "longitude": -122.5878659, "population": 12029, "elevation": null, "source": "osm"}, {"name": "Fox Island", "country": "", "latitude": 47.2465529, "longitude": -122.617215, "population": 3921, "elevation": null, "source": "osm"}, {"name": "Federal Way", "country": "", "latitude": 47.313494, "longitude": -122.33931, "population": 101030, "elevation": null, "source": "osm"}, {"name": "Graham", "country": "", "latitude": 47.0395996, "longitude": -122.2785729, "population": 32658, "elevation": null, "source": "osm"}, {"name": "Easton", "country": "", "latitude": 47.2371778, "longitude": -121.178276, "population": 478, "elevation": null, "source": "osm"}, {"name": "South Cle Elum", "country": "", "latitude": 47.1857974, "longitude": -120.950386, "population": 532, "elevation": null, "source": "osm"}, {"name": "Roslyn", "country": "", "latitude": 47.2230352, "longitude": -120.993359, "population": 979, "elevation": null, "source": "osm"}, {"name": "Hobart", "country": "", "latitude": 47.4143971, "longitude": -121.9723255, "population": 6767, "elevation": null, "source": "osm"}, {"name": "Covington", "country": "", "latitude": 47.3657791, "longitude": -122.100222, "population": 20777, "elevation": null, "source": "osm"}, {"name": "Maple Valley", "country": "", "latitude": 47.3664231, "longitude": -122.0437127, "population": 28013, "elevation": null, "source": "osm"}, {"name": "Kent", "country": "", "latitude": 47.3826903, "longitude": -122.2270272, "population": 136588, "elevation": null, "source": "osm"}, {"name": "Tukwila", "country": "", "latitude": 47.4627356, "longitude": -122.2559156, "population": 21798, "elevation": null, "source": "osm"}, {"name": "Vancouver", "country": "", "latitude": 45.6306954, "longitude": -122.6744557, "population": 190915, "elevation": null, "source": "osm"}, {"name": "Bucoda", "country": "", "latitude": 46.7977206, "longitude": -122.8684555, "population": 562, "elevation": null, "source": "osm"}, {"name": "Grand Mound", "country": "", "latitude": 46.8025954, "longitude": -123.012571, "population": 2981, "elevation": null, "source": "osm"}, {"name": "Lacey", "country": "", "latitude": 47.0263876, "longitude": -122.8072257, "population": 53526, "elevation": null, "source": "osm"}, {"name": "North Yelm", "country": "", "latitude": 46.9589111, "longitude": -122.596782, "population": 2906, "elevation": null, "source": "osm"}, {"name": "Rainier", "country": "", "latitude": 46.891055, "longitude": -122.689346, "population": 1794, "elevation": null, "source": "osm"}, {"name": "Rochester", "country": "", "latitude": 46.8218166, "longitude": -123.095857, "population": 2388, "elevation": null, "source": "osm"}, {"name": "Tanglewilde", "country": "", "latitude": 47.0517167, "longitude": -122.781495, "population": 0, "elevation": null, "source": "osm"}, {"name": "Tenino", "country": "", "latitude": 46.8567408, "longitude": -122.8502933, "population": 1695, "elevation": null, "source": "osm"}, {"name": "Tumwater", "country": "", "latitude": 47.0080655, "longitude": -122.910368, "population": 25350, "elevation": null, "source": "osm"}, {"name": "Yelm", "country": "", "latitude": 46.9413877, "longitude": -122.60639, "population": 10617, "elevation": null, "source": "osm"}, {"name": "Artondale", "country": "", "latitude": 47.3000489, "longitude": -122.629247, "population": 13641, "elevation": null, "source": "osm"}, {"name": "Ashford", "country": "", "latitude": 46.758944, "longitude": -122.031623, "population": 217, "elevation": null, "source": "osm"}, {"name": "Buckley", "country": "", "latitude": 47.1622483, "longitude": -122.027746, "population": 5114, "elevation": null, "source": "osm"}, {"name": "Carbonado", "country": "", "latitude": 47.0797219, "longitude": -122.0514335, "population": 734, "elevation": null, "source": "osm"}, {"name": "DuPont", "country": "", "latitude": 47.0990689, "longitude": -122.637546, "population": 10151, "elevation": null, "source": "osm"}, {"name": "Eatonville", "country": "", "latitude": 46.8682516, "longitude": -122.270068, "population": 2845, "elevation": null, "source": "osm"}, {"name": "Elbe", "country": "", "latitude": 46.7646389, "longitude": -122.193539, "population": 29, "elevation": null, "source": "osm"}, {"name": "Elk Plain", "country": "", "latitude": 47.0448099, "longitude": -122.366813, "population": 14534, "elevation": null, "source": "osm"}, {"name": "Fircrest", "country": "", "latitude": 47.2317185, "longitude": -122.514304, "population": 7156, "elevation": null, "source": "osm"}, {"name": "Centralia", "country": "", "latitude": 46.7204489, "longitude": -122.96143, "population": 18183, "elevation": null, "source": "osm"}, {"name": "Chehalis", "country": "", "latitude": 46.6599653, "longitude": -122.963432, "population": 7439, "elevation": null, "source": "osm"}, {"name": "Morton", "country": "", "latitude": 46.5570542, "longitude": -122.275171, "population": 1126, "elevation": null, "source": "osm"}, {"name": "Mossyrock", "country": "", "latitude": 46.529843, "longitude": -122.484272, "population": 759, "elevation": null, "source": "osm"}, {"name": "Napavine", "country": "", "latitude": 46.5795176, "longitude": -122.911188, "population": 1766, "elevation": null, "source": "osm"}, {"name": "Pe Ell", "country": "", "latitude": 46.571414, "longitude": -123.296844, "population": 642, "elevation": null, "source": "osm"}, {"name": "Toledo", "country": "", "latitude": 46.4401007, "longitude": -122.8467555, "population": 725, "elevation": null, "source": "osm"}, {"name": "Vader", "country": "", "latitude": 46.4014233, "longitude": -122.9580934, "population": 631, "elevation": null, "source": "osm"}, {"name": "Winlock", "country": "", "latitude": 46.4924025, "longitude": -122.9388355, "population": 1339, "elevation": null, "source": "osm"}, {"name": "Castle Rock", "country": "", "latitude": 46.2739907, "longitude": -122.904918, "population": 1982, "elevation": null, "source": "osm"}, {"name": "Kalama", "country": "", "latitude": 46.0085225, "longitude": -122.84247, "population": 2959, "elevation": null, "source": "osm"}, {"name": "Kelso", "country": "", "latitude": 46.1421249, "longitude": -122.905299, "population": 12720, "elevation": null, "source": "osm"}, {"name": "Longview", "country": "", "latitude": 46.1377048, "longitude": -122.934462, "population": 37818, "elevation": null, "source": "osm"}, {"name": "Woodland", "country": "", "latitude": 45.9018496, "longitude": -122.7459664, "population": 6531, "elevation": null, "source": "osm"}, {"name": "Camas", "country": "", "latitude": 45.5863014, "longitude": -122.403277, "population": 26065, "elevation": null, "source": "osm"}, {"name": "La Center", "country": "", "latitude": 45.8638734, "longitude": -122.668577, "population": 3795, "elevation": null, "source": "osm"}, {"name": "Ridgefield", "country": "", "latitude": 45.8167616, "longitude": -122.7433775, "population": 10319, "elevation": null, "source": "osm"}, {"name": "Washougal", "country": "", "latitude": 45.5819594, "longitude": -122.3479921, "population": 17039, "elevation": null, "source": "osm"}, {"name": "Yacolt", "country": "", "latitude": 45.8655044, "longitude": -122.4070314, "population": 1566, "elevation": null, "source": "osm"}, {"name": "Kapowsin", "country": "", "latitude": 46.9845951, "longitude": -122.2358616, "population": 372, "elevation": 195.0, "source": "osm"}, {"name": "Hubbard", "country": "", "latitude": 45.1831388, "longitude": -122.808628, "population": 2606, "elevation": 56.0, "source": "osm"}, {"name": "Gaston", "country": "", "latitude": 45.4362259, "longitude": -123.139236, "population": 776, "elevation": 58.0, "source": "osm"}, {"name": "Milwaukie", "country": "", "latitude": 45.4440051, "longitude": -122.6412523, "population": 21119, "elevation": null, "source": "osm"}, {"name": "Tigard", "country": "", "latitude": 45.4307473, "longitude": -122.771933, "population": 54539, "elevation": null, "source": "osm"}, {"name": "Vashon", "country": "", "latitude": 47.4480496, "longitude": -122.46067, "population": 11055, "elevation": 116.0, "source": "osm"}, {"name": "Amity", "country": "", "latitude": 45.1180619, "longitude": -123.205582, "population": 1464, "elevation": 50.0, "source": "osm"}, {"name": "Eagle Creek", "country": "", "latitude": 45.3576721, "longitude": -122.3594005, "population": 0, "elevation": 105.0, "source": "osm"}, {"name": "Tualatin", "country": "", "latitude": 45.3809339, "longitude": -122.7694369, "population": 28175, "elevation": null, "source": "osm"}, {"name": "North Bonneville", "country": "", "latitude": 45.6373393, "longitude": -121.971193, "population": 1397, "elevation": 20.0, "source": "osm"}, {"name": "Yamhill", "country": "", "latitude": 45.3415037, "longitude": -123.187329, "population": 1147, "elevation": 60.0, "source": "osm"}, {"name": "South Prairie", "country": "", "latitude": 47.1392684, "longitude": -122.0981691, "population": 436, "elevation": 131.0, "source": "osm"}, {"name": "Burien", "country": "", "latitude": 47.469918, "longitude": -122.3485274, "population": 52066, "elevation": 115.0, "source": "osm"}, {"name": "Columbia City", "country": "", "latitude": 45.8897971, "longitude": -122.808645, "population": 1911, "elevation": 15.0, "source": "osm"}, {"name": "University Place", "country": "", "latitude": 47.2258172, "longitude": -122.5371325, "population": 34866, "elevation": 61.0, "source": "osm"}, {"name": "Black Diamond", "country": "", "latitude": 47.3083078, "longitude": -122.0037583, "population": 4151, "elevation": 199.0, "source": "osm"}, {"name": "McCleary", "country": "", "latitude": 47.053151, "longitude": -123.26543, "population": 1575, "elevation": 84.0, "source": "osm"}, {"name": "Roy", "country": "", "latitude": 47.0042643, "longitude": -122.539846, "population": 816, "elevation": 98.0, "source": "osm"}, {"name": "Hillsboro", "country": "", "latitude": 45.5228939, "longitude": -122.989827, "population": 106447, "elevation": null, "source": "osm"}, {"name": "Mount Angel", "country": "", "latitude": 45.0678032, "longitude": -122.799682, "population": 3389, "elevation": 53.0, "source": "osm"}, {"name": "Klickitat", "country": "", "latitude": 45.8151021, "longitude": -121.154269, "population": 0, "elevation": 146.0, "source": "osm"}, {"name": "Oakville", "country": "", "latitude": 46.8408862, "longitude": -123.232772, "population": 723, "elevation": 29.0, "source": "osm"}, {"name": "Enumclaw", "country": "", "latitude": 47.2047793, "longitude": -121.9916371, "population": 12543, "elevation": 232.0, "source": "osm"}, {"name": "Cornelius", "country": "", "latitude": 45.5198001, "longitude": -123.05562, "population": 12694, "elevation": null, "source": "osm"}, {"name": "Molalla", "country": "", "latitude": 45.1473445, "longitude": -122.577032, "population": 8304, "elevation": 115.0, "source": "osm"}, {"name": "Mosier", "country": "", "latitude": 45.6835405, "longitude": -121.398518, "population": 410, "elevation": 37.0, "source": "osm"}, {"name": "White Center", "country": "", "latitude": 47.5164297, "longitude": -122.355739, "population": 16631, "elevation": 116.0, "source": "osm"}, {"name": "Orting", "country": "", "latitude": 47.0978795, "longitude": -122.204282, "population": 9051, "elevation": 58.0, "source": "osm"}, {"name": "Trout Lake", "country": "", "latitude": 45.996998, "longitude": -121.528866, "population": 0, "elevation": 577.0, "source": "osm"}, {"name": "Helvetia", "country": "", "latitude": 45.5956712, "longitude": -122.917326, "population": 0, "elevation": 85.0, "source": "osm"}, {"name": "Barlow", "country": "", "latitude": 45.2522574, "longitude": -122.7212232, "population": 144, "elevation": 32.0, "source": "osm"}, {"name": "White Salmon", "country": "", "latitude": 45.7276194, "longitude": -121.4864619, "population": 2353, "elevation": 190.0, "source": "osm"}, {"name": "Pacific", "country": "", "latitude": 47.2640129, "longitude": -122.2485492, "population": 7235, "elevation": 24.0, "source": "osm"}, {"name": "Des Moines", "country": "", "latitude": 47.398829, "longitude": -122.3099093, "population": 32888, "elevation": 28.0, "source": "osm"}, {"name": "Rainier", "country": "", "latitude": 46.0889178, "longitude": -122.936017, "population": 1831, "elevation": 15.0, "source": "osm"}, {"name": "West Linn", "country": "", "latitude": 45.3656761, "longitude": -122.612314, "population": 27373, "elevation": null, "source": "osm"}, {"name": "Rivergrove", "country": "", "latitude": 45.3845958, "longitude": -122.729739, "population": 542, "elevation": 48.0, "source": "osm"}, {"name": "Estacada", "country": "", "latitude": 45.2864689, "longitude": -122.334259, "population": 3518, "elevation": 156.0, "source": "osm"}, {"name": "Oregon City", "country": "", "latitude": 45.3573429, "longitude": -122.606758, "population": 37572, "elevation": null, "source": "osm"}, {"name": "Prairie Ridge", "country": "", "latitude": 47.1376017, "longitude": -122.1487261, "population": 12288, "elevation": 209.0, "source": "osm"}, {"name": "Newberg", "country": "", "latitude": 45.300347, "longitude": -122.972751, "population": 25138, "elevation": 65.0, "source": "osm"}, {"name": "Dayton", "country": "", "latitude": 45.2206945, "longitude": -123.076141, "population": 2247, "elevation": 48.0, "source": "osm"}, {"name": "Cathlamet", "country": "", "latitude": 46.2031673, "longitude": -123.383189, "population": 560, "elevation": 24.0, "source": "osm"}, {"name": "Vernonia", "country": "", "latitude": 45.8587229, "longitude": -123.192892, "population": 2194, "elevation": 190.0, "source": "osm"}, {"name": "Woodburn", "country": "", "latitude": 45.143731, "longitude": -122.8553725, "population": 22035, "elevation": 57.0, "source": "osm"}, {"name": "Johnson City", "country": "", "latitude": 45.4043992, "longitude": -122.579356, "population": 668, "elevation": 33.0, "source": "osm"}, {"name": "Hoodsport", "country": "", "latitude": 47.4059656, "longitude": -123.1412411, "population": 0, "elevation": 2.0, "source": "osm"}, {"name": "Scotts Mills", "country": "", "latitude": 45.0433165, "longitude": -122.668088, "population": 332, "elevation": 132.0, "source": "osm"}, {"name": "Browns Point", "country": "", "latitude": 47.3009251, "longitude": -122.4414693, "population": 1263, "elevation": 35.0, "source": "osm"}, {"name": "Saint Paul", "country": "", "latitude": 45.2112347, "longitude": -122.976766, "population": 0, "elevation": 52.0, "source": "osm"}, {"name": "Frederickson", "country": "", "latitude": 47.0962112, "longitude": -122.35873, "population": 24906, "elevation": 122.0, "source": "osm"}, {"name": "Donald", "country": "", "latitude": 45.2222599, "longitude": -122.841394, "population": 643, "elevation": 60.0, "source": "osm"}, {"name": "Lyle", "country": "", "latitude": 45.6932178, "longitude": -121.28382, "population": 0, "elevation": 62.0, "source": "osm"}, {"name": "Sandy", "country": "", "latitude": 45.3969212, "longitude": -122.2616283, "population": 12612, "elevation": 299.0, "source": "osm"}, {"name": "Summit", "country": "", "latitude": 47.160655, "longitude": -122.3597102, "population": 8270, "elevation": 145.0, "source": "osm"}, {"name": "Troutdale", "country": "", "latitude": 45.5392862, "longitude": -122.3873133, "population": 16300, "elevation": null, "source": "osm"}, {"name": "Lakewood", "country": "", "latitude": 47.1717649, "longitude": -122.518458, "population": 63612, "elevation": 80.0, "source": "osm"}, {"name": "Wishram", "country": "", "latitude": 45.6589437, "longitude": -120.965422, "population": 0, "elevation": 54.0, "source": "osm"}, {"name": "Dallesport", "country": "", "latitude": 45.6173426, "longitude": -121.179515, "population": 0, "elevation": 65.0, "source": "osm"}, {"name": "Dash Point", "country": "", "latitude": 47.3186125, "longitude": -122.4284533, "population": 963, "elevation": 3.0, "source": "osm"}, {"name": "Dundee", "country": "", "latitude": 45.2781659, "longitude": -123.010922, "population": 3050, "elevation": 63.0, "source": "osm"}, {"name": "Shelton", "country": "", "latitude": 47.2150945, "longitude": -123.100706, "population": 10371, "elevation": 7.0, "source": "osm"}, {"name": "Randle", "country": "", "latitude": 46.535111, "longitude": -121.9570386, "population": 0, "elevation": 273.0, "source": "osm"}, {"name": "Chenoweth", "country": "", "latitude": 45.6276198, "longitude": -121.243405, "population": 1855, "elevation": 135.0, "source": "osm"}, {"name": "Durham", "country": "", "latitude": 45.3946871, "longitude": -122.756311, "population": 1944, "elevation": 45.0, "source": "osm"}, {"name": "North Plains", "country": "", "latitude": 45.5973123, "longitude": -122.993626, "population": 3441, "elevation": 63.0, "source": "osm"}, {"name": "Milton", "country": "", "latitude": 47.2481166, "longitude": -122.312837, "population": 8697, "elevation": 93.0, "source": "osm"}, {"name": "Aurora", "country": "", "latitude": 45.2310497, "longitude": -122.755035, "population": 966, "elevation": 48.0, "source": "osm"}, {"name": "Bingen", "country": "", "latitude": 45.7148416, "longitude": -121.464517, "population": 699, "elevation": 40.0, "source": "osm"}, {"name": "Jean", "country": "", "latitude": 45.3978244, "longitude": -122.7396859, "population": 0, "elevation": 51.0, "source": "osm"}, {"name": "Brooks", "country": "", "latitude": 45.0475594, "longitude": -122.957583, "population": 0, "elevation": 56.0, "source": "osm"}, {"name": "Stevenson", "country": "", "latitude": 45.6941611, "longitude": -121.88355, "population": 1704, "elevation": 63.0, "source": "osm"}, {"name": "Sherwood", "country": "", "latitude": 45.3569315, "longitude": -122.8403744, "population": 20450, "elevation": 63.0, "source": "osm"}, {"name": "Orient", "country": "", "latitude": 45.4673428, "longitude": -122.3525897, "population": 462, "elevation": 169.0, "source": "osm"}, {"name": "Maupin", "country": "", "latitude": 45.1752755, "longitude": -121.0807674, "population": 418, "elevation": 317.0, "source": "osm"}, {"name": "Ruston", "country": "", "latitude": 47.2994854, "longitude": -122.506947, "population": 862, "elevation": 13.0, "source": "osm"}, {"name": "Kamilche", "country": "", "latitude": 47.1301103, "longitude": -123.0997725, "population": 3364, "elevation": 17.0, "source": "osm"}, {"name": "Midland", "country": "", "latitude": 47.1669331, "longitude": -122.404782, "population": 9962, "elevation": 132.0, "source": "osm"}, {"name": "Glenwood", "country": "", "latitude": 46.0187336, "longitude": -121.290632, "population": 0, "elevation": 579.0, "source": "osm"}, {"name": "McMinnville", "country": "", "latitude": 45.2100367, "longitude": -123.194463, "population": 30410, "elevation": 47.0, "source": "osm"}, {"name": "Allyn", "country": "", "latitude": 47.3834644, "longitude": -122.830479, "population": 0, "elevation": 8.0, "source": "osm"}, {"name": "Packwood", "country": "", "latitude": 46.606501, "longitude": -121.6706437, "population": 1330, "elevation": 321.0, "source": "osm"}, {"name": "Chehalis Village", "country": "", "latitude": 46.8153924, "longitude": -123.16046, "population": 0, "elevation": 32.0, "source": "osm"}, {"name": "Dufur", "country": "", "latitude": 45.4531081, "longitude": -121.130223, "population": 584, "elevation": 410.0, "source": "osm"}, {"name": "Scappoose", "country": "", "latitude": 45.7572997, "longitude": -122.8743589, "population": 6658, "elevation": 19.0, "source": "osm"}, {"name": "Damascus", "country": "", "latitude": 45.4176261, "longitude": -122.458985, "population": 9658, "elevation": 163.0, "source": "osm"}, {"name": "Gladstone", "country": "", "latitude": 45.3803261, "longitude": -122.5945507, "population": 12017, "elevation": null, "source": "osm"}, {"name": "King City", "country": "", "latitude": 45.4028329, "longitude": -122.804109, "population": 5184, "elevation": 59.0, "source": "osm"}, {"name": "Beaverton", "country": "", "latitude": 45.4871723, "longitude": -122.80378, "population": 97494, "elevation": null, "source": "osm"}, {"name": "Clatskanie", "country": "", "latitude": 46.1036879, "longitude": -123.2048168, "population": 1645, "elevation": 32.0, "source": "osm"}, {"name": "Lake Oswego", "country": "", "latitude": 45.4206749, "longitude": -122.670649, "population": 40731, "elevation": null, "source": "osm"}, {"name": "Tygh Valley", "country": "", "latitude": 45.247341, "longitude": -121.17312, "population": 0, "elevation": 348.0, "source": "osm"}, {"name": "Hood River", "country": "", "latitude": 45.7087902, "longitude": -121.512372, "population": 6673, "elevation": 125.0, "source": "osm"}, {"name": "Corbett", "country": "", "latitude": 45.5314503, "longitude": -122.292256, "population": 3947, "elevation": 204.0, "source": "osm"}, {"name": "Welches", "country": "", "latitude": 45.3384997, "longitude": -121.9634026, "population": 0, "elevation": 399.0, "source": "osm"}, {"name": "Forest Grove", "country": "", "latitude": 45.5190404, "longitude": -123.1110551, "population": 26225, "elevation": null, "source": "osm"}, {"name": "Saint Helens", "country": "", "latitude": 45.8640034, "longitude": -122.8064922, "population": 12883, "elevation": null, "source": "osm"}, {"name": "Rhododendron", "country": "", "latitude": 45.3295632, "longitude": -121.9111906, "population": 0, "elevation": 493.0, "source": "osm"}, {"name": "Wilkeson", "country": "", "latitude": 47.1053802, "longitude": -122.045667, "population": 499, "elevation": 245.0, "source": "osm"}, {"name": "Carlton", "country": "", "latitude": 45.2942822, "longitude": -123.176494, "population": 2180, "elevation": 198.0, "source": "osm"}, {"name": "Wilsonville", "country": "", "latitude": 45.3099218, "longitude": -122.76816, "population": 26664, "elevation": 47.0, "source": "osm"}, {"name": "Celilo Village", "country": "", "latitude": 45.6464884, "longitude": -120.963969, "population": 0, "elevation": 66.0, "source": "osm"}, {"name": "Cascade Locks", "country": "", "latitude": 45.669513, "longitude": -121.890402, "population": 1109, "elevation": 46.0, "source": "osm"}, {"name": "Algona", "country": "", "latitude": 47.2784027, "longitude": -122.2542238, "population": 3014, "elevation": 25.0, "source": "osm"}, {"name": "Government Camp", "country": "", "latitude": 45.3041033, "longitude": -121.7547596, "population": 0, "elevation": 1184.0, "source": "osm"}, {"name": "Gresham", "country": "", "latitude": 45.4978623, "longitude": -122.4329883, "population": 114247, "elevation": null, "source": "osm"}, {"name": "Happy Valley", "country": "", "latitude": 45.428679, "longitude": -122.497174, "population": 23733, "elevation": null, "source": "osm"}, {"name": "Parkland", "country": "", "latitude": 47.155846, "longitude": -122.437031, "population": 38623, "elevation": 115.0, "source": "osm"}, {"name": "Canby", "country": "", "latitude": 45.2629088, "longitude": -122.6925983, "population": 18171, "elevation": 48.0, "source": "osm"}, {"name": "Springdale", "country": "", "latitude": 45.519009, "longitude": -122.3298128, "population": 21226, "elevation": 94.0, "source": "osm"}, {"name": "Carson", "country": "", "latitude": 45.7259894, "longitude": -121.8203942, "population": 2279, "elevation": 143.0, "source": "osm"}, {"name": "Butteville", "country": "", "latitude": 45.2623415, "longitude": -122.840374, "population": 0, "elevation": null, "source": "osm"}, {"name": "Normandy Park", "country": "", "latitude": 47.4351528, "longitude": -122.339601, "population": 6335, "elevation": 100.0, "source": "osm"}, {"name": "Gervais", "country": "", "latitude": 45.1084663, "longitude": -122.897893, "population": 2393, "elevation": 57.0, "source": "osm"}, {"name": "Fife Heights", "country": "", "latitude": 47.2589889, "longitude": -122.3456775, "population": 1882, "elevation": 124.0, "source": "osm"}, {"name": "Waller", "country": "", "latitude": 47.2006554, "longitude": -122.3692883, "population": 8189, "elevation": 119.0, "source": "osm"}, {"name": "Sheridan", "country": "", "latitude": 45.0992814, "longitude": -123.394829, "population": 5666, "elevation": 58.0, "source": "osm"}, {"name": "Tacoma", "country": "", "latitude": 47.2455013, "longitude": -122.438329, "population": 219346, "elevation": null, "source": "osm"}, {"name": "Union", "country": "", "latitude": 47.3546107, "longitude": -123.097793, "population": 631, "elevation": null, "source": "osm"}, {"name": "Auburn", "country": "", "latitude": 47.3075369, "longitude": -122.2301808, "population": 87256, "elevation": null, "source": "osm"}, {"name": "Portland", "country": "", "latitude": 45.5202471, "longitude": -122.674194, "population": 652503, "elevation": null, "source": "osm"}, {"name": "Battle Ground", "country": "", "latitude": 45.7813532, "longitude": -122.5337433, "population": 20743, "elevation": null, "source": "osm"}, {"name": "Renton", "country": "", "latitude": 47.4799078, "longitude": -122.2034496, "population": 106785, "elevation": null, "source": "osm"}, {"name": "Olympia", "country": "", "latitude": 47.0451022, "longitude": -122.8950075, "population": 55605, "elevation": null, "source": "osm"}, {"name": "The Dalles", "country": "", "latitude": 45.6015056, "longitude": -121.1841587, "population": 13620, "elevation": null, "source": "osm"}, {"name": "Cle Elum", "country": "", "latitude": 47.1952417, "longitude": -120.940063, "population": 2157, "elevation": null, "source": "osm"}, {"name": "Wood Village", "country": "", "latitude": 45.5370464, "longitude": -122.4184703, "population": 4548, "elevation": null, "source": "osm"}, {"name": "Fairview", "country": "", "latitude": 45.5385457, "longitude": -122.4330512, "population": 10424, "elevation": null, "source": "osm"}, {"name": "SeaTac", "country": "", "latitude": 47.4449086, "longitude": -122.283084, "population": 31454, "elevation": null, "source": "osm"}, {"name": "Banks", "country": "", "latitude": 45.6185986, "longitude": -123.1143011, "population": 1987, "elevation": null, "source": "osm"}, {"name": "Boring", "country": "", "latitude": 45.432664, "longitude": -122.3695057, "population": 8522, "elevation": null, "source": "osm"}, {"name": "Lakeland North", "country": "", "latitude": 47.3387338, "longitude": -122.2830968, "population": 0, "elevation": null, "source": "osm"}, {"name": "Lakeland South", "country": "", "latitude": 47.2690691, "longitude": -122.2837515, "population": 0, "elevation": null, "source": "osm"}, {"name": "Maywood Park", "country": "", "latitude": 45.5526736, "longitude": -122.561336, "population": 822, "elevation": null, "source": "osm"}, {"name": "North Bend", "country": "", "latitude": 47.4957757, "longitude": -121.784889, "population": 7461, "elevation": null, "source": "osm"}, {"name": "Lafayette", "country": "", "latitude": 45.2441045, "longitude": -123.1131631, "population": 0, "elevation": null, "source": "osm"}, {"name": "Hobart Village", "country": "", "latitude": 47.3506124, "longitude": -121.9465369, "population": 0, "elevation": null, "source": "osm"}, {"name": "Adelphia Village", "country": "", "latitude": 47.3529774, "longitude": -121.9471227, "population": 0, "elevation": null, "source": "osm"}, {"name": "Carlton", "country": "", "latitude": 45.2941263, "longitude": -123.1774073, "population": 0, "elevation": null, "source": "osm"}, {"name": "Pacific", "country": "", "latitude": 47.258488, "longitude": -122.250034, "population": 0, "elevation": null, "source": "osm"}, {"name": "Edgewood", "country": "", "latitude": 47.2306645, "longitude": -122.287414, "population": 0, "elevation": null, "source": "osm"}, {"name": "Fife", "country": "", "latitude": 47.2322295, "longitude": -122.3600165, "population": 0, "elevation": null, "source": "osm"}, {"name": "Gig Harbor", "country": "", "latitude": 47.3326335, "longitude": -122.5976435, "population": 0, "elevation": null, "source": "osm"}, {"name": "Puyallup", "country": "", "latitude": 47.1828969, "longitude": -122.2863473, "population": 0, "elevation": null, "source": "osm"}, {"name": "Steilacoom", "country": "", "latitude": 47.1724665, "longitude": -122.5949448, "population": 0, "elevation": null, "source": "osm"}, {"name": "University Place", "country": "", "latitude": 47.2155325, "longitude": -122.5446749, "population": 0, "elevation": null, "source": "osm"}, {"name": "Burien", "country": "", "latitude": 47.4691543, "longitude": -122.3500559, "population": 0, "elevation": null, "source": "osm"}, {"name": "Normandy Park", "country": "", "latitude": 47.4310407, "longitude": -122.3443152, "population": 0, "elevation": null, "source": "osm"}, {"name": "Federal Way", "country": "", "latitude": 47.3076753, "longitude": -122.3453325, "population": 0, "elevation": null, "source": "osm"}, {"name": "Newcastle", "country": "", "latitude": 47.5309445, "longitude": -122.161374, "population": 0, "elevation": null, "source": "osm"}, {"name": "North Bend", "country": "", "latitude": 47.4931656, "longitude": -121.7874854, "population": 5731, "elevation": null, "source": "osm"}, {"name": "Riverpoint", "country": "", "latitude": 47.4845315, "longitude": -121.7153265, "population": 0, "elevation": null, "source": "osm"}, {"name": "Riverbend", "country": "", "latitude": 47.4698035, "longitude": -121.7548995, "population": 0, "elevation": null, "source": "osm"}, {"name": "Tukwila", "country": "", "latitude": 47.4806605, "longitude": -122.279355, "population": 0, "elevation": null, "source": "osm"}, {"name": "Seattle", "country": "", "latitude": 47.6075763, "longitude": -122.3420645, "population": 0, "elevation": null, "source": "osm"}, {"name": "White Salmon", "country": "", "latitude": 45.7275796, "longitude": -121.4841584, "population": 0, "elevation": null, "source": "osm"}, {"name": "Lacey", "country": "", "latitude": 47.0493435, "longitude": -122.7888, "population": 0, "elevation": null, "source": "osm"}, {"name": "Chehalis", "country": "", "latitude": 46.6641195, "longitude": -122.963556, "population": 0, "elevation": null, "source": "osm"}, {"name": "South Cle Elum", "country": "", "latitude": 47.186886, "longitude": -120.951874, "population": 0, "elevation": null, "source": "osm"}, {"name": "Waller", "country": "", "latitude": 47.2082733, "longitude": -122.359468, "population": 0, "elevation": null, "source": "osm"}, {"name": "Algona", "country": "", "latitude": 47.280882, "longitude": -122.249177, "population": 0, "elevation": null, "source": "osm"}, {"name": "Ruston", "country": "", "latitude": 47.2985717, "longitude": -122.5104278, "population": 0, "elevation": null, "source": "osm"}, {"name": "Longview", "country": "", "latitude": 46.142294, "longitude": -122.9655535, "population": 0, "elevation": null, "source": "osm"}, {"name": "Covington", "country": "", "latitude": 47.3660665, "longitude": -122.101598, "population": 0, "elevation": null, "source": "osm"}, {"name": "Auburn", "country": "", "latitude": 47.295508, "longitude": -122.2120682, "population": 0, "elevation": null, "source": "osm"}, {"name": "Milton", "country": "", "latitude": 47.251237, "longitude": -122.3157055, "population": 0, "elevation": null, "source": "osm"}, {"name": "Bonney Lake", "country": "", "latitude": 47.1812115, "longitude": -122.162519, "population": 0, "elevation": null, "source": "osm"}, {"name": "Buckley", "country": "", "latitude": 47.1623471, "longitude": -122.0262255, "population": 0, "elevation": null, "source": "osm"}, {"name": "Carbonado", "country": "", "latitude": 47.081264, "longitude": -122.054204, "population": 0, "elevation": null, "source": "osm"}, {"name": "DuPont", "country": "", "latitude": 47.1086389, "longitude": -122.653937, "population": 0, "elevation": null, "source": "osm"}, {"name": "Eatonville", "country": "", "latitude": 46.8693885, "longitude": -122.270681, "population": 0, "elevation": null, "source": "osm"}, {"name": "Lakewood", "country": "", "latitude": 47.1581001, "longitude": -122.5219414, "population": 0, "elevation": null, "source": "osm"}, {"name": "Orting", "country": "", "latitude": 47.098043, "longitude": -122.212527, "population": 0, "elevation": null, "source": "osm"}, {"name": "Roy", "country": "", "latitude": 47.001557, "longitude": -122.5433114, "population": 0, "elevation": null, "source": "osm"}, {"name": "Sumner", "country": "", "latitude": 47.22131, "longitude": -122.232654, "population": 0, "elevation": null, "source": "osm"}, {"name": "Wilkeson", "country": "", "latitude": 47.104941, "longitude": -122.0493235, "population": 0, "elevation": null, "source": "osm"}, {"name": "Woodland", "country": "", "latitude": 45.9134085, "longitude": -122.7456222, "population": 0, "elevation": null, "source": "osm"}, {"name": "Castle Rock", "country": "", "latitude": 46.2682, "longitude": -122.8991515, "population": 0, "elevation": null, "source": "osm"}, {"name": "Kalama", "country": "", "latitude": 46.002711, "longitude": -122.8320355, "population": 0, "elevation": null, "source": "osm"}, {"name": "Kelso", "country": "", "latitude": 46.1248905, "longitude": -122.8906855, "population": 0, "elevation": null, "source": "osm"}, {"name": "Cathlamet", "country": "", "latitude": 46.2094775, "longitude": -123.383677, "population": 0, "elevation": null, "source": "osm"}, {"name": "Shelton", "country": "", "latitude": 47.2201465, "longitude": -123.112279, "population": 0, "elevation": null, "source": "osm"}, {"name": "Black Diamond", "country": "", "latitude": 47.312907, "longitude": -122.013835, "population": 0, "elevation": null, "source": "osm"}, {"name": "Enumclaw", "country": "", "latitude": 47.2047203, "longitude": -121.983561, "population": 0, "elevation": null, "source": "osm"}, {"name": "Issaquah", "country": "", "latitude": 47.543223, "longitude": -122.0431355, "population": 0, "elevation": null, "source": "osm"}, {"name": "Kent", "country": "", "latitude": 47.392365, "longitude": -122.1526869, "population": 0, "elevation": null, "source": "osm"}, {"name": "Maple Valley", "country": "", "latitude": 47.3689765, "longitude": -122.0320735, "population": 0, "elevation": null, "source": "osm"}, {"name": "Renton", "country": "", "latitude": 47.481175, "longitude": -122.1872525, "population": 0, "elevation": null, "source": "osm"}, {"name": "Snoqualmie", "country": "", "latitude": 47.527838, "longitude": -121.8383135, "population": 10670, "elevation": null, "source": "osm"}, {"name": "Bingen", "country": "", "latitude": 45.7144796, "longitude": -121.4664618, "population": 0, "elevation": null, "source": "osm"}, {"name": "Yelm", "country": "", "latitude": 46.942694, "longitude": -122.6250879, "population": 0, "elevation": null, "source": "osm"}, {"name": "Tumwater", "country": "", "latitude": 46.984226, "longitude": -122.916699, "population": 0, "elevation": null, "source": "osm"}, {"name": "Tenino", "country": "", "latitude": 46.8534928, "longitude": -122.8604811, "population": 0, "elevation": null, "source": "osm"}, {"name": "Rainier", "country": "", "latitude": 46.8924805, "longitude": -122.6870025, "population": 0, "elevation": null, "source": "osm"}, {"name": "Olympia", "country": "", "latitude": 47.0394865, "longitude": -122.897041, "population": 0, "elevation": null, "source": "osm"}, {"name": "Bucoda", "country": "", "latitude": 46.7975006, "longitude": -122.8691145, "population": 0, "elevation": null, "source": "osm"}, {"name": "Oakville", "country": "", "latitude": 46.8392917, "longitude": -123.234434, "population": 0, "elevation": null, "source": "osm"}, {"name": "McCleary", "country": "", "latitude": 47.0587375, "longitude": -123.2744503, "population": 0, "elevation": null, "source": "osm"}, {"name": "Elma", "country": "", "latitude": 47.0072409, "longitude": -123.4075043, "population": 0, "elevation": null, "source": "osm"}, {"name": "North Bonneville", "country": "", "latitude": 45.6416295, "longitude": -121.9583928, "population": 0, "elevation": null, "source": "osm"}, {"name": "Stevenson", "country": "", "latitude": 45.6942485, "longitude": -121.8936181, "population": 0, "elevation": null, "source": "osm"}, {"name": "Centralia", "country": "", "latitude": 46.7241019, "longitude": -122.9719216, "population": 0, "elevation": null, "source": "osm"}, {"name": "Morton", "country": "", "latitude": 46.559667, "longitude": -122.282123, "population": 0, "elevation": null, "source": "osm"}, {"name": "Mossyrock", "country": "", "latitude": 46.530516, "longitude": -122.4835465, "population": 0, "elevation": null, "source": "osm"}, {"name": "Napavine", "country": "", "latitude": 46.5889515, "longitude": -122.901796, "population": 0, "elevation": null, "source": "osm"}, {"name": "Pe Ell", "country": "", "latitude": 46.57173, "longitude": -123.2974215, "population": 0, "elevation": null, "source": "osm"}, {"name": "Toledo", "country": "", "latitude": 46.440829, "longitude": -122.849584, "population": 0, "elevation": null, "source": "osm"}, {"name": "Vader", "country": "", "latitude": 46.403916, "longitude": -122.9559275, "population": 0, "elevation": null, "source": "osm"}, {"name": "Winlock", "country": "", "latitude": 46.493627, "longitude": -122.9348865, "population": 0, "elevation": null, "source": "osm"}, {"name": "Roslyn", "country": "", "latitude": 47.2200443, "longitude": -120.9932901, "population": 0, "elevation": null, "source": "osm"}, {"name": "Cle Elum", "country": "", "latitude": 47.1955684, "longitude": -120.9580515, "population": 0, "elevation": null, "source": "osm"}, {"name": "Port Orchard", "country": "", "latitude": 47.5193345, "longitude": -122.6617966, "population": 0, "elevation": null, "source": "osm"}, {"name": "Bremerton", "country": "", "latitude": 47.5342434, "longitude": -122.700971, "population": 39056, "elevation": null, "source": "osm"}, {"name": "Tacoma", "country": "", "latitude": 47.2428954, "longitude": -122.4552074, "population": 0, "elevation": null, "source": "osm"}]