[{"name": "Fort Macleod", "country": "", "latitude": 49.7257719, "longitude": -113.405385, "population": 0, "elevation": null, "source": "osm"}, {"name": "Cranbrook", "country": "CA", "latitude": 49.5107477, "longitude": -115.7672772, "population": 0, "elevation": null, "source": "osm"}, {"name": "Fernie", "country": "", "latitude": 49.5041747, "longitude": -115.062867, "population": 0, "elevation": null, "source": "osm"}, {"name": "Wardner", "country": "", "latitude": 49.4164576, "longitude": -115.4229661, "population": 0, "elevation": null, "source": "osm"}, {"name": "Cowley", "country": "", "latitude": 49.56901, "longitude": -114.073325, "population": 0, "elevation": null, "source": "osm"}, {"name": "Pincher Creek", "country": "", "latitude": 49.485667, "longitude": -113.9502919, "population": 0, "elevation": null, "source": "osm"}, {"name": "Glenwood", "country": "", "latitude": 49.366667, "longitude": -113.516667, "population": 0, "elevation": null, "source": "osm"}, {"name": "Elko", "country": "", "latitude": 49.3000043, "longitude": -115.1166707, "population": 0, "elevation": null, "source": "osm"}, {"name": "Whitefish", "country": "", "latitude": 48.4108018, "longitude": -114.334624, "population": 9943, "elevation": null, "source": "osm"}, {"name": "Kalispell", "country": "", "latitude": 48.202158, "longitude": -114.315321, "population": 29409, "elevation": null, "source": "osm"}, {"name": "Polson", "country": "", "latitude": 47.6905295, "longitude": -114.163761, "population": 5262, "elevation": null, "source": "osm"}, {"name": "Hungry Horse", "country": "", "latitude": 48.3857979, "longitude": -114.060953, "population": 0, "elevation": 945.0, "source": "osm"}, {"name": "Ronan", "country": "", "latitude": 47.5288233, "longitude": -114.101501, "population": 2008, "elevation": 929.0, "source": "osm"}, {"name": "Bigfork", "country": "", "latitude": 48.0623541, "longitude": -114.0732836, "population": 0, "elevation": 908.0, "source": "osm"}, {"name": "Rexford", "country": "", "latitude": 48.899408, "longitude": -115.172115, "population": 80, "elevation": 777.0, "source": "osm"}, {"name": "Elmo", "country": "", "latitude": 47.830498, "longitude": -114.349569, "population": 0, "elevation": 889.0, "source": "osm"}, {"name": "Lakeside", "country": "", "latitude": 48.0206683, "longitude": -114.2257824, "population": 0, "elevation": 887.0, "source": "osm"}, {"name": "Pablo", "country": "", "latitude": 47.6002197, "longitude": -114.1190886, "population": 0, "elevation": 942.0, "source": "osm"}, {"name": "Fortine", "country": "", "latitude": 48.7644075, "longitude": -114.903242, "population": 435, "elevation": 906.0, "source": "osm"}, {"name": "Hot Springs", "country": "", "latitude": 47.6091041, "longitude": -114.668741, "population": 569, "elevation": 866.0, "source": "osm"}, {"name": "Stryker", "country": "", "latitude": 48.6740568, "longitude": -114.771765, "population": 22, "elevation": 1005.0, "source": "osm"}, {"name": "Trego", "country": "", "latitude": 48.7057058, "longitude": -114.869453, "population": 885, "elevation": 950.0, "source": "osm"}, {"name": "Eureka", "country": "", "latitude": 48.8799647, "longitude": -115.0535, "population": 1547, "elevation": 787.0, "source": "osm"}, {"name": "Thompson Falls", "country": "", "latitude": 47.5971287, "longitude": -115.344309, "population": 1403, "elevation": 779.0, "source": "osm"}, {"name": "Troy", "country": "", "latitude": 48.4615199, "longitude": -115.8949854, "population": 994, "elevation": 579.0, "source": "osm"}, {"name": "Libby", "country": "", "latitude": 48.3883645, "longitude": -115.5558612, "population": 2662, "elevation": 639.0, "source": "osm"}, {"name": "Sparwood", "country": "", "latitude": 49.7332695, "longitude": -114.885847, "population": 4000, "elevation": null, "source": "osm"}, {"name": "Jaffray", "country": "", "latitude": 49.3710945, "longitude": -115.3010387, "population": 810, "elevation": 823.0, "source": "osm"}, {"name": "Baynes Lake", "country": "", "latitude": 49.2290943, "longitude": -115.2216444, "population": 0, "elevation": null, "source": "osm"}, {"name": "Waldo", "country": "", "latitude": 49.2002004, "longitude": -115.2153621, "population": 0, "elevation": null, "source": "osm"}, {"name": "Granum", "country": "", "latitude": 49.870771, "longitude": -113.5144321, "population": 557, "elevation": 991.0, "source": "osm"}, {"name": "Kragmont", "country": "", "latitude": 49.1782533, "longitude": -115.2198225, "population": 0, "elevation": null, "source": "osm"}, {"name": "Wasa", "country": "", "latitude": 49.789526, "longitude": -115.7465995, "population": 0, "elevation": null, "source": "osm"}, {"name": "Hill Spring", "country": "", "latitude": 49.294435, "longitude": -113.627736, "population": 0, "elevation": null, "source": "osm"}, {"name": "Columbia Falls", "country": "", "latitude": 48.3697168, "longitude": -114.191582, "population": 5930, "elevation": null, "source": "osm"}, {"name": "West Glacier", "country": "", "latitude": 48.4963369, "longitude": -113.982443, "population": 150, "elevation": null, "source": "osm"}, {"name": "Crowsnest Pass", "country": "", "latitude": 49.6290592, "longitude": -114.4728589, "population": 0, "elevation": null, "source": "osm"}, {"name": "Olney", "country": "", "latitude": 48.5485799, "longitude": -114.578178, "population": 113, "elevation": 966.0, "source": "osm"}, {"name": "Noxon", "country": "", "latitude": 47.9951247, "longitude": -115.780307, "population": 218, "elevation": 666.0, "source": "osm"}, {"name": "Trout Creek", "country": "", "latitude": 47.8370305, "longitude": -115.598067, "population": 242, "elevation": 723.0, "source": "osm"}, {"name": "Brocket", "country": "", "latitude": 49.5461099, "longitude": -113.7564325, "population": 0, "elevation": null, "source": "osm"}, {"name": "Columbia Falls", "country": "", "latitude": 48.3711295, "longitude": -114.191883, "population": 0, "elevation": null, "source": "osm"}, {"name": "Kalispell", "country": "", "latitude": 48.2134059, "longitude": -114.3236574, "population": 0, "elevation": null, "source": "osm"}, {"name": "Whitefish", "country": "", "latitude": 48.429567, "longitude": -114.3704065, "population": 0, "elevation": null, "source": "osm"}, {"name": "Hot Springs", "country": "", "latitude": 47.60933, "longitude": -114.671494, "population": 0, "elevation": null, "source": "osm"}, {"name": "Thompson Falls", "country": "", "latitude": 47.5983685, "longitude": -115.3379305, "population": 0, "elevation": null, "source": "osm"}, {"name": "Ronan", "country": "", "latitude": 47.5280415, "longitude": -114.0998365, "population": 0, "elevation": null, "source": "osm"}, {"name": "Polson", "country": "", "latitude": 47.688146, "longitude": -114.145722, "population": 0, "elevation": null, "source": "osm"}, {"name": "Troy", "country": "", "latitude": 48.46459, "longitude": -115.8929905, "population": 0, "elevation": null, "source": "osm"}, {"name": "Rexford", "country": "", "latitude": 48.900077, "longitude": -115.1720645, "population": 0, "elevation": null, "source": "osm"}, {"name": "Libby", "country": "", "latitude": 48.386977, "longitude": -115.5590675, "population": 0, "elevation": null, "source": "osm"}, {"name": "Eureka", "country": "", "latitude": 48.8749605, "longitude": -115.0488285, "population": 0, "elevation": null, "source": "osm"}]