[{"name": "Nanton", "country": "", "latitude": 50.3481989, "longitude": -113.770256, "population": 0, "elevation": null, "source": "osm"}, {"name": "Elkford", "country": "", "latitude": 50.0244558, "longitude": -114.921826, "population": 0, "elevation": null, "source": "osm"}, {"name": "Parkland", "country": "", "latitude": 50.2562009, "longitude": -113.6544038, "population": 0, "elevation": null, "source": "osm"}, {"name": "Fairmont Hot Springs", "country": "", "latitude": 50.3377592, "longitude": -115.861694, "population": 0, "elevation": null, "source": "osm"}, {"name": "Claresholm", "country": "", "latitude": 50.0239458, "longitude": -113.5800285, "population": 0, "elevation": null, "source": "osm"}, {"name": "Canal Flats", "country": "", "latitude": 50.1596927, "longitude": -115.8076908, "population": 700, "elevation": null, "source": "osm"}, {"name": "Stavely", "country": "", "latitude": 50.1621453, "longitude": -113.6402944, "population": 0, "elevation": null, "source": "osm"}]