[{"name": "Bald Mountain", "latitude": 53.0045695, "longitude": -121.5196175, "elevation": 1888.0, "source": "osm", "_tags": {"ele": "1888", "name": "Bald Mountain", "natural": "peak", "source": "NRCan-CanVec-10.0"}}, {"name": "Cornish Mountain", "latitude": 53.1360749, "longitude": -121.5965696, "elevation": 1510.0, "source": "osm", "_tags": {"ele": "1510", "name": "Cornish Mountain", "natural": "peak", "source": "NRCan-CanVec-10.0"}}, {"name": "Cow Mountain", "latitude": 53.0631291, "longitude": -121.5668191, "elevation": 1778.0, "source": "osm", "_tags": {"ele": "1778", "name": "Cow Mountain", "natural": "peak", "source": "NRCan-CanVec-10.0"}}, {"name": "Dragon Mountain", "latitude": 53.0993399, "longitude": -121.7946266, "elevation": 1712.0, "source": "osm", "_tags": {"ele": "1712", "name": "Dragon Mountain", "natural": "peak", "source": "NRCan-CanVec-10.0"}}, {"name": "Eaglenest Mountain", "latitude": 53.0901838, "longitude": -121.7774469, "elevation": 1744.0, "source": "osm", "_tags": {"ele": "1744", "name": "Eaglenest Mountain", "natural": "peak", "source": "NRCan-CanVec-10.0"}}, {"name": "Elk Mountain", "latitude": 53.0151883, "longitude": -121.5593241, "elevation": 1868.0, "source": "osm", "_tags": {"ele": "1868", "name": "Elk Mountain", "natural": "peak", "source": "NRCan-CanVec-10.0"}}, {"name": "Grub Mountain", "latitude": 53.017176, "longitude": -121.7252235, "elevation": 1590.0, "source": "osm", "_tags": {"ele": "1590", "name": "Grub Mountain", "natural": "peak", "source": "NRCan-CanVec-10.0"}}, {"name": "Hardscrabble Mountain", "latitude": 53.1586953, "longitude": -121.6456561, "elevation": 1720.0, "source": "osm", "_tags": {"ele": "1720", "name": "Hardscrabble Mountain", "natural": "peak", "source": "NRCan-CanVec-10.0"}}, {"name": "Island Mountain", "latitude": 53.1122107, "longitude": -121.6303076, "elevation": 1778.0, "source": "osm", "_tags": {"ele": "1778", "name": "Island Mountain", "natural": "peak", "source": "NRCan-CanVec-10.0"}}, {"name": "Mount Agnes", "latitude": 53.0023087, "longitude": -121.5427991, "elevation": 1975.0, "source": "osm", "_tags": {"ele": "1975", "name": "Mount Agnes", "natural": "peak", "source": "NRCan-CanVec-10.0"}}, {"name": "Mount Amador", "latitude": 53.0501703, "longitude": -121.6374043, "elevation": 1774.0, "source": "osm", "_tags": {"ele": "1774", "name": "Mount Amador", "natural": "peak", "source": "NRCan-CanVec-10.0"}}, {"name": "Mount Anderson", "latitude": 53.042505, "longitude": -121.7749704, "elevation": 1676.0, "source": "osm", "_tags": {"ele": "1676", "name": "Mount Anderson", "natural": "peak", "source": "NRCan-CanVec-10.0"}}, {"name": "Mount Burns", "latitude": 53.0531727, "longitude": -121.6640874, "elevation": 1714.0, "source": "osm", "_tags": {"ele": "1714", "name": "Mount Burns", "natural": "peak", "source": "NRCan-CanVec-10.0"}}, {"name": "Mount Nelson", "latitude": 53.0786127, "longitude": -121.7229313, "elevation": 1699.0, "source": "osm", "_tags": {"ele": "1699", "name": "Mount Nelson", "natural": "peak", "source": "NRCan-CanVec-10.0"}}, {"name": "Mount Pinkerton", "latitude": 53.0333148, "longitude": -121.6152166, "elevation": 1787.0, "source": "osm", "_tags": {"ele": "1787", "name": "Mount Pinkerton", "natural": "peak", "source": "NRCan-CanVec-10.0"}}, {"name": "Mount Proserpine", "latitude": 53.0130107, "longitude": -121.5024084, "elevation": 1841.0, "source": "osm", "_tags": {"ele": "1841", "name": "Mount Proserpine", "natural": "peak", "source": "NRCan-CanVec-10.0"}}, {"name": "Mount Tom", "latitude": 53.1559348, "longitude": -121.7064093, "elevation": 1716.0, "source": "osm", "_tags": {"ele": "1716", "name": "Mount Tom", "natural": "peak", "source": "NRCan-CanVec-10.0"}}, {"name": "Mount Van Winkle", "latitude": 53.0022451, "longitude": -121.691643, "elevation": 1706.0, "source": "osm", "_tags": {"ele": "1706", "name": "Mount Van Winkle", "natural": "peak", "source": "NRCan-CanVec-10.0"}}, {"name": "Mount Wiley", "latitude": 53.1707972, "longitude": -121.6554215, "elevation": 1805.0, "source": "osm", "_tags": {"ele": "1805", "name": "Mount Wiley", "natural": "peak", "source": "NRCan-CanVec-10.0"}}, {"name": "Pinegrove Mountain", "latitude": 53.072949, "longitude": -121.9707889, "elevation": 1528.0, "source": "osm", "_tags": {"ele": "1528", "name": "Pinegrove Mountain", "natural": "peak", "source": "NRCan-CanVec-10.0"}}, {"name": "Quesnel Highland", "latitude": 53.0635271, "longitude": -121.6158862, "elevation": 1262.0, "source": "osm", "_tags": {"ele": "1262", "name": "Quesnel Highland", "natural": "peak", "source": "NRCan-CanVec-10.0"}}, {"name": "Richfield Mountain", "latitude": 53.0408172, "longitude": -121.5503587, "elevation": 1802.0, "source": "osm", "_tags": {"ele": "1802", "name": "Richfield Mountain", "natural": "peak", "source": "NRCan-CanVec-10.0"}}, {"name": "Sovereign Mountain", "latitude": 53.0067295, "longitude": -121.8681833, "elevation": 1677.0, "source": "osm", "_tags": {"ele": "1677", "name": "Sovereign Mountain", "natural": "peak", "source": "NRCan-CanVec-10.0"}}, {"name": "Two Sisters Mountain", "latitude": 53.2058031, "longitude": -121.5430327, "elevation": 2107.0, "source": "osm", "_tags": {"ele": "2107", "name": "Two Sisters Mountain", "natural": "peak", "source": "NRCan-CanVec-10.0"}}, {"name": "Valley Mountain", "latitude": 53.1040638, "longitude": -121.5158469, "elevation": 1525.0, "source": "osm", "_tags": {"ele": "1525", "name": "Valley Mountain", "natural": "peak", "source": "NRCan-CanVec-10.0"}}, {"name": "Mount Conklin", "latitude": 53.0627459, "longitude": -121.4938471, "elevation": 1529.0, "source": "osm", "_tags": {"ele": "1529", "name": "Mount Conklin", "natural": "peak", "source": "NRCan-CanVec-10.0"}}, {"name": "Mount Greenberry", "latitude": 53.1119846, "longitude": -121.4493133, "elevation": 1886.0, "source": "osm", "_tags": {"ele": "1886", "name": "Mount Greenberry", "natural": "peak", "source": "NRCan-CanVec-10.0"}}, {"name": "Mount Murray", "latitude": 53.1299599, "longitude": -121.4576582, "elevation": 1968.0, "source": "osm", "_tags": {"ele": "1968", "name": "Mount Murray", "natural": "peak", "source": "NRCan-CanVec-10.0"}}, {"name": "Sliding Mountain", "latitude": 53.1502768, "longitude": -121.4798477, "elevation": 1929.0, "source": "osm", "_tags": {"ele": "1929", "name": "Sliding Mountain", "natural": "peak", "source": "NRCan-CanVec-10.0"}}, {"name": "Waverly Mountain", "latitude": 53.096573, "longitude": -121.4263759, "elevation": 1733.0, "source": "osm", "_tags": {"ele": "1733", "name": "Waverly Mountain", "natural": "peak", "source": "NRCan-CanVec-10.0"}}, {"name": "Kangaroo Mountain", "latitude": 52.7316512, "longitude": -121.721743, "elevation": 1455.0, "source": "osm", "_tags": {"ele": "1455", "name": "Kangaroo Mountain", "natural": "peak", "source": "NRCan-CanVec-10.0"}}, {"name": "Coyote Hill", "latitude": 52.7590529, "longitude": -121.6968093, "elevation": 1335.0, "source": "osm", "_tags": {"ele": "1335", "name": "Coyote Hill", "natural": "peak", "source": "NRCan-CanVec-10.0"}}, {"name": "Duck Creek Mountain", "latitude": 52.8112912, "longitude": -121.5972349, "elevation": 1564.0, "source": "osm", "_tags": {"ele": "1564", "name": "Duck Creek Mountain", "natural": "peak", "source": "NRCan-CanVec-10.0"}}, {"name": "Keithley Creek Mountain", "latitude": 52.8208643, "longitude": -121.6338159, "elevation": 1707.0, "source": "osm", "_tags": {"ele": "1707", "name": "Keithley Creek Mountain", "natural": "peak", "source": "NRCan-CanVec-10.0"}}, {"name": "Cariboo Mountain", "latitude": 52.8577619, "longitude": -121.6471329, "elevation": 1928.0, "source": "osm", "_tags": {"ele": "1928", "name": "Cariboo Mountain", "natural": "peak", "source": "NRCan-CanVec-10.0"}}, {"name": "Yanks Peak", "latitude": 52.8461486, "longitude": -121.43119, "elevation": 1902.0, "source": "osm", "_tags": {"ele": "1902", "name": "Yanks Peak", "natural": "peak"}}, {"name": "Barkerville Mountain", "latitude": 53.0781991, "longitude": -121.5456626, "elevation": null, "source": "osm", "_tags": {"name": "Barkerville Mountain", "natural": "peak"}}]