[{"name": "Khawachen Mountain", "latitude": 53.4410403, "longitude": -127.5504282, "elevation": 2325.0, "source": "osm", "_tags": {"ele": "2325", "name": "Khawachen Mountain", "natural": "peak"}}, {"name": "Seel Peak", "latitude": 53.5292007, "longitude": -127.4887388, "elevation": 2085.0, "source": "osm", "_tags": {"ele": "2085", "name": "Seel Peak", "natural": "peak"}}, {"name": "Piano Peak", "latitude": 53.5086641, "longitude": -127.3280087, "elevation": 2096.0, "source": "osm", "_tags": {"ele": "2096", "name": "Piano Peak", "natural": "peak"}}, {"name": "Eyre Peak", "latitude": 53.4623984, "longitude": -127.4821723, "elevation": 2130.0, "source": "osm", "_tags": {"ele": "2130", "name": "Eyre Peak", "natural": "peak"}}, {"name": "Douce Peak", "latitude": 53.4342476, "longitude": -127.3746354, "elevation": 2070.0, "source": "osm", "_tags": {"ele": "2070", "name": "Douce Peak", "natural": "peak"}}, {"name": "Mount Irma", "latitude": 53.374131, "longitude": -127.3566792, "elevation": 2166.0, "source": "osm", "_tags": {"ele": "2166", "name": "Mount Irma", "natural": "peak"}}, {"name": "Foresight Mountain", "latitude": 53.0831251, "longitude": -127.3009915, "elevation": 2246.0, "source": "osm", "_tags": {"ele": "2246", "name": "Foresight Mountain", "natural": "peak", "source": "NRCan-CanVec-10.0"}}, {"name": "Chatsquot Mountain", "latitude": 53.1436489, "longitude": -127.4629556, "elevation": 2248.0, "source": "osm", "_tags": {"ele": "2248", "name": "Chatsquot Mountain", "natural": "peak", "source": "NRCan-CanVec-10.0"}}, {"name": "Mount Blane", "latitude": 53.1070909, "longitude": -127.7081204, "elevation": 1658.0, "source": "osm", "_tags": {"ele": "1658", "name": "Mount Blane", "natural": "peak", "source": "NRCan-CanVec-10.0"}}, {"name": "Mount Gamsby", "latitude": 53.169689, "longitude": -127.6544042, "elevation": 1567.0, "source": "osm", "_tags": {"ele": "1567", "name": "Mount Gamsby", "natural": "peak", "source": "NRCan-CanVec-10.0"}}, {"name": "Tsaytis Mountain", "latitude": 53.2184707, "longitude": -127.7252005, "elevation": 1862.0, "source": "osm", "_tags": {"ele": "1862", "name": "Tsaytis Mountain", "natural": "peak", "source": "NRCan-CanVec-10.0"}}, {"name": "Black Dome", "latitude": 53.283304, "longitude": -127.5428952, "elevation": 2000.0, "source": "osm", "_tags": {"ele": "2000", "name": "Black Dome", "natural": "peak", "source": "NRCan-CanVec-10.0"}}, {"name": "Lindquist Peak", "latitude": 53.3693457, "longitude": -127.2956409, "elevation": 1777.0, "source": "osm", "_tags": {"ele": "1777", "name": "Lindquist Peak", "natural": "peak", "source": "NRCan-CanVec-10.0"}}, {"name": "Sias Mountain", "latitude": 53.4265178, "longitude": -127.4001508, "elevation": 1964.0, "source": "osm", "_tags": {"ele": "1964", "name": "Sias Mountain", "natural": "peak", "source": "NRCan-CanVec-10.0"}}, {"name": "Sandifer Peak", "latitude": 53.5067363, "longitude": -127.723823, "elevation": 2060.0, "source": "osm", "_tags": {"ele": "2060", "name": "Sandifer Peak", "natural": "peak", "source": "NRCan-CanVec-10.0"}}, {"name": "Marmor Peak", "latitude": 53.1316153, "longitude": -128.2321128, "elevation": 2026.0, "source": "osm", "_tags": {"ele": "2026", "name": "Marmor Peak", "natural": "peak", "source": "NRCan-CanVec-10.0"}}, {"name": "Sharp Peak", "latitude": 53.4012824, "longitude": -128.0161519, "elevation": 1500.0, "source": "osm", "_tags": {"ele": "1500", "name": "Sharp Peak", "natural": "peak", "source": "NRCan-CanVec-10.0"}}, {"name": "Sugarloaf Peak", "latitude": 53.4364154, "longitude": -128.0074103, "elevation": 1776.0, "source": "osm", "_tags": {"ele": "1776", "name": "Sugarloaf Peak", "natural": "peak", "source": "NRCan-CanVec-10.0"}}]