[{"name": "Mount Prince", "latitude": 54.4050584, "longitude": -123.9691635, "elevation": 1236.0, "source": "osm", "_tags": {"ele": "1236", "name": "Mount Prince", "natural": "peak", "source": "NRCan-CanVec-7.0"}}, {"name": "Sinkut Mountain", "latitude": 53.8164719, "longitude": -123.9733754, "elevation": 1471.0, "source": "osm", "_tags": {"ele": "1471", "name": "Sinkut Mountain", "natural": "peak", "source": "NRCan-CanVec-7.0"}}, {"name": "Bobtail Mountain", "latitude": 53.6656075, "longitude": -123.3849711, "elevation": 1420.0, "source": "osm", "_tags": {"ele": "1420", "name": "Bobtail Mountain", "natural": "peak", "source": "NRCan-CanVec-7.0"}}, {"name": "Murray Ridge", "latitude": 54.5169604, "longitude": -124.1459686, "elevation": 1126.0, "source": "osm", "_tags": {"ele": "1126", "name": "Murray Ridge", "natural": "peak", "source": "NRCan-CanVec-10.0"}}, {"name": "Iron Knoll", "latitude": 53.5889325, "longitude": -124.2622938, "elevation": 1272.0, "source": "osm", "_tags": {"ele": "1272", "name": "Iron Knoll", "natural": "peak", "source": "NRCan-CanVec-10.0"}}]