[{"name": "Cruiser Mountain", "latitude": 55.6512361, "longitude": -121.874851, "elevation": 1247.0, "source": "osm", "_tags": {"ele": "1247", "name": "Cruiser Mountain", "natural": "peak", "source": "NRCan-CanVec-7.0"}}, {"name": "Submarine Mountain", "latitude": 55.6245554, "longitude": -121.8868585, "elevation": 1027.0, "source": "osm", "_tags": {"ele": "1027", "name": "Submarine Mountain", "natural": "peak", "source": "NRCan-CanVec-7.0"}}, {"name": "Mount Wabi", "latitude": 55.668418, "longitude": -121.5822688, "elevation": 1006.0, "source": "osm", "_tags": {"ele": "1006", "name": "Mount Wabi", "natural": "peak", "source": "NRCan-CanVec-7.0", "wikidata": "Q22556854"}}, {"name": "Mount Wartenbe", "latitude": 55.6495558, "longitude": -121.3943381, "elevation": 1224.0, "source": "osm", "_tags": {"ele": "1224", "name": "Mount Wartenbe", "natural": "peak", "source": "NRCan-CanVec-7.0", "wikidata": "Q22557183"}}, {"name": "Butler Ridge", "latitude": 56.0557483, "longitude": -122.1236953, "elevation": 775.0, "source": "osm", "_tags": {"ele": "775", "name": "Butler Ridge", "natural": "peak", "source": "NRCan-CanVec-7.0"}}, {"name": "Bullhead Mountain", "latitude": 56.046217, "longitude": -122.1312489, "elevation": 1121.0, "source": "osm", "_tags": {"ele": "1121", "name": "Bullhead Mountain", "natural": "peak", "source": "NRCan-CanVec-7.0", "wikidata": "Q22607721"}}, {"name": "Butler Ridge", "latitude": 56.1499729, "longitude": -122.2350073, "elevation": 1400.0, "source": "osm", "_tags": {"ele": "1400", "name": "Butler Ridge", "natural": "peak", "source": "NRCan-CanVec-7.0"}}, {"name": "Old Baldy", "latitude": 55.7097329, "longitude": -121.6424678, "elevation": 904.0, "source": "osm", "_tags": {"ele": "904", "name": "Old Baldy", "natural": "peak"}}, {"name": "Portage Mountain", "latitude": 55.9860095, "longitude": -122.1415133, "elevation": 1425.0, "source": "osm", "_tags": {"ele": "1425", "name": "Portage Mountain", "natural": "peak", "wikidata": "Q22555081"}}]