[{"name": "Drybrough Peak", "latitude": 57.2031692, "longitude": -126.9200025, "elevation": 2070.0, "source": "osm", "_tags": {"ele": "2070", "name": "Drybrough Peak", "natural": "peak", "source": "NRCan-CanVec-10.0", "wikidata": "Q22596721"}}, {"name": "", "latitude": 57.1783196, "longitude": -126.9429017, "elevation": 1617.0, "source": "osm", "_tags": {"ele": "1617", "natural": "peak"}}, {"name": "", "latitude": 57.1830646, "longitude": -126.9841863, "elevation": 1695.0, "source": "osm", "_tags": {"ele": "1695", "natural": "peak"}}, {"name": "", "latitude": 57.1763656, "longitude": -126.9774915, "elevation": 1722.0, "source": "osm", "_tags": {"ele": "1722", "natural": "peak"}}, {"name": "Mount Hartley", "latitude": 57.4328108, "longitude": -126.765462, "elevation": 2367.0, "source": "osm", "_tags": {"ele": "2367", "name": "Mount Hartley", "natural": "peak", "source": "NRCan-CanVec-10.0", "wikidata": "Q22435295"}}, {"name": "Mount Katharine", "latitude": 57.4231421, "longitude": -126.779116, "elevation": 2329.0, "source": "osm", "_tags": {"ele": "2329", "name": "Mount Katharine", "natural": "peak", "source": "NRCan-CanVec-10.0"}}, {"name": "The Pillar", "latitude": 57.2967095, "longitude": -126.882096, "elevation": 2019.0, "source": "osm", "_tags": {"ele": "2019", "name": "The Pillar", "natural": "peak", "source": "NRCan-CanVec-10.0"}}, {"name": "Bend Mountain", "latitude": 57.3680618, "longitude": -126.6718499, "elevation": 2154.0, "source": "osm", "_tags": {"ele": "2154", "name": "Bend Mountain", "natural": "peak", "source": "NRCan-CanVec-10.0"}}, {"name": "", "latitude": 57.2713403, "longitude": -126.3187409, "elevation": 2193.0, "source": "osm", "_tags": {"ele": "2193", "natural": "peak"}}, {"name": "Whudzi Mountain", "latitude": 57.3491194, "longitude": -126.4645989, "elevation": 2001.0, "source": "osm", "_tags": {"ele": "2001", "name": "Whudzi Mountain", "natural": "peak", "source": "NRCan-CanVec-10.0", "wikidata": "Q22613865"}}, {"name": "Bronlund Peak", "latitude": 57.4280825, "longitude": -126.6755408, "elevation": 2609.0, "source": "osm", "_tags": {"ele": "2609", "name": "Bronlund Peak", "natural": "peak"}}, {"name": "Niven Peak", "latitude": 56.7638144, "longitude": -126.8617098, "elevation": 2122.0, "source": "osm", "_tags": {"ele": "2122", "name": "Niven Peak", "natural": "peak", "source": "NRCan-CanVec-10.0", "wikidata": "Q22355896"}}, {"name": "Mount Jorgensen", "latitude": 56.910629, "longitude": -126.9507676, "elevation": 1896.0, "source": "osm", "_tags": {"ele": "1896", "name": "Mount Jorgensen", "natural": "peak", "source": "NRCan-CanVec-10.0", "wikidata": "Q22439228"}}, {"name": "Mount Forrest", "latitude": 56.8821285, "longitude": -126.8014825, "elevation": 1968.0, "source": "osm", "_tags": {"ele": "1968", "name": "Mount Forrest", "natural": "peak", "source": "NRCan-CanVec-10.0", "wikidata": "Q22430615"}}, {"name": "Fredrikson Peak", "latitude": 56.9810641, "longitude": -126.576606, "elevation": 2172.0, "source": "osm", "_tags": {"ele": "2172", "name": "Fredrikson Peak", "natural": "peak", "source": "NRCan-CanVec-10.0"}}, {"name": "Jensen Peak", "latitude": 56.9408152, "longitude": -126.3834926, "elevation": 2167.0, "source": "osm", "_tags": {"ele": "2167", "name": "Jensen Peak", "natural": "peak", "source": "NRCan-CanVec-10.0", "wikidata": "Q22475242"}}, {"name": "South Pass Peak", "latitude": 56.6871838, "longitude": -127.1792097, "elevation": 1893.0, "source": "osm", "_tags": {"ele": "1893", "name": "South Pass Peak", "natural": "peak", "source": "NRCan-CanVec-10.0"}}, {"name": "Bird Hill", "latitude": 56.5781165, "longitude": -127.2278063, "elevation": 1861.0, "source": "osm", "_tags": {"ele": "1861", "name": "Bird Hill", "natural": "peak", "source": "NRCan-CanVec-10.0"}}, {"name": "Dewar Peak", "latitude": 56.7274935, "longitude": -126.7917696, "elevation": 2171.0, "source": "osm", "_tags": {"ele": "2171", "name": "Dewar Peak", "natural": "peak", "source": "NRCan-CanVec-10.0"}}, {"name": "Savage Mountain", "latitude": 56.6596886, "longitude": -126.6877489, "elevation": 2226.0, "source": "osm", "_tags": {"ele": "2226", "name": "Savage Mountain", "natural": "peak", "source": "NRCan-CanVec-10.0"}}, {"name": "Sustut Peak", "latitude": 56.5864748, "longitude": -126.5814585, "elevation": 2477.0, "source": "osm", "_tags": {"ele": "2477", "name": "Sustut Peak", "natural": "peak", "source": "NRCan-CanVec-10.0"}}, {"name": "Isolated Mountain", "latitude": 56.5375403, "longitude": -126.3954732, "elevation": 1749.0, "source": "osm", "_tags": {"ele": "1749", "name": "Isolated Mountain", "natural": "peak", "source": "NRCan-CanVec-10.0"}}, {"name": "Asitka Peak", "latitude": 56.5985121, "longitude": -126.432406, "elevation": 2151.0, "source": "osm", "_tags": {"ele": "2151", "name": "Asitka Peak", "natural": "peak", "source": "NRCan-CanVec-10.0"}}, {"name": "Dennis Peak", "latitude": 57.0092865, "longitude": -126.9813947, "elevation": 1999.0, "source": "osm", "_tags": {"ele": "1999", "name": "Dennis Peak", "natural": "peak", "source": "NRCan-CanVec-10.0"}}, {"name": "Bar Butte", "latitude": 57.0527471, "longitude": -126.8792218, "elevation": 1210.0, "source": "osm", "_tags": {"ele": "1210", "name": "Bar Butte", "natural": "peak", "source": "NRCan-CanVec-10.0"}}, {"name": "Thomas Peak", "latitude": 57.068089, "longitude": -126.9983364, "elevation": 2009.0, "source": "osm", "_tags": {"ele": "2009", "name": "Thomas Peak", "natural": "peak", "source": "NRCan-CanVec-10.0"}}, {"name": "Giegerich Peak", "latitude": 57.1748647, "longitude": -126.6144979, "elevation": 2419.0, "source": "osm", "_tags": {"ele": "2419", "name": "Giegerich Peak", "natural": "peak", "source": "NRCan-CanVec-10.0"}}, {"name": "Serrated Peak", "latitude": 57.0128362, "longitude": -126.5889688, "elevation": 2209.0, "source": "osm", "_tags": {"ele": "2209", "name": "Serrated Peak", "natural": "peak", "source": "NRCan-CanVec-10.0", "wikidata": "Q22564269"}}, {"name": "Mount Rognaas", "latitude": 57.0573499, "longitude": -127.2110927, "elevation": 1933.0, "source": "osm", "_tags": {"ele": "1933", "name": "Mount Rognaas", "natural": "peak", "source": "NRCan-CanVec-10.0", "wikidata": "Q22552297"}}, {"name": "Mount Gordonia", "latitude": 57.4685331, "longitude": -127.0608598, "elevation": 1846.0, "source": "osm", "_tags": {"ele": "1846", "name": "Mount Gordonia", "natural": "peak", "source": "NRCan-CanVec-10.0"}}, {"name": "Oxide Peak", "latitude": 57.4789472, "longitude": -127.1479752, "elevation": 1917.0, "source": "osm", "_tags": {"ele": "1917", "name": "Oxide Peak", "natural": "peak", "source": "NRCan-CanVec-10.0", "wikidata": "Q22463230"}}, {"name": "Bronlund Peak", "latitude": 57.4233838, "longitude": -126.6807919, "elevation": 2293.0, "source": "osm", "_tags": {"ele": "2293", "name": "Bronlund Peak", "natural": "peak", "source": "NRCan-CanVec-10.0"}}, {"name": "Mount Graves", "latitude": 57.3806605, "longitude": -126.9801249, "elevation": 2065.0, "source": "osm", "_tags": {"ele": "2065", "name": "Mount Graves", "natural": "peak", "source": "NRCan-CanVec-10.0"}}, {"name": "Mount Estabrook", "latitude": 57.4297361, "longitude": -126.9554853, "elevation": 2106.0, "source": "osm", "_tags": {"ele": "2106", "name": "Mount Estabrook", "natural": "peak", "source": "NRCan-CanVec-10.0", "wikidata": "Q22428914"}}, {"name": "The MacGregors", "latitude": 57.4705334, "longitude": -126.8489215, "elevation": 2268.0, "source": "osm", "_tags": {"ele": "2268", "name": "The MacGregors", "natural": "peak", "source": "NRCan-CanVec-10.0"}}, {"name": "Toodoggone Peak", "latitude": 57.4381087, "longitude": -126.9408297, "elevation": 2190.0, "source": "osm", "_tags": {"ele": "2190", "name": "Toodoggone Peak", "natural": "peak", "source": "NRCan-CanVec-10.0"}}, {"name": "Breccia Peak", "latitude": 57.5363714, "longitude": -127.1492139, "elevation": 2348.0, "source": "osm", "_tags": {"ele": "2348", "name": "Breccia Peak", "natural": "peak", "source": "NRCan-CanVec-10.0"}}, {"name": "Contact Peak", "latitude": 57.5117993, "longitude": -127.0633371, "elevation": 2278.0, "source": "osm", "_tags": {"ele": "2278", "name": "Contact Peak", "natural": "peak", "source": "NRCan-CanVec-10.0"}}]