[{"name": "Murillo el Cuende", "country": "", "latitude": 42.3978449, "longitude": -1.6304866, "population": 40, "elevation": 341.0, "source": "osm"}, {"name": "Falces", "country": "", "latitude": 42.3877644, "longitude": -1.7938282, "population": 2367, "elevation": 295.0, "source": "osm"}, {"name": "Cadreita", "country": "", "latitude": 42.2181824, "longitude": -1.6930439, "population": 2186, "elevation": 286.0, "source": "osm"}, {"name": "Mendigorria", "country": "", "latitude": 42.6262078, "longitude": -1.8340213, "population": 1181, "elevation": 386.0, "source": "osm"}, {"name": "Larraga", "country": "", "latitude": 42.5580517, "longitude": -1.8500707, "population": 2082, "elevation": 383.0, "source": "osm"}, {"name": "Berbinzana", "country": "", "latitude": 42.5267418, "longitude": -1.8344769, "population": 670, "elevation": 318.0, "source": "osm"}, {"name": "Caparroso", "country": "", "latitude": 42.3395614, "longitude": -1.6543719, "population": 2775, "elevation": 303.0, "source": "osm"}, {"name": "Pitillas", "country": "", "latitude": 42.4226867, "longitude": -1.6203754, "population": 530, "elevation": 352.0, "source": "osm"}, {"name": "Noáin / Noain", "country": "", "latitude": 42.7627828, "longitude": -1.6341152, "population": 6928, "elevation": 490.0, "source": "osm"}, {"name": "Pamplona / Iruña", "country": "", "latitude": 42.8181992, "longitude": -1.6440089, "population": 205762, "elevation": 450.0, "source": "osm"}, {"name": "Azagra", "country": "", "latitude": 42.311403, "longitude": -1.8946708, "population": 3731, "elevation": 289.0, "source": "osm"}, {"name": "Yesa", "country": "", "latitude": 42.620176, "longitude": -1.2021437, "population": 272, "elevation": 490.0, "source": "osm"}, {"name": "Tudela", "country": "", "latitude": 42.063972, "longitude": -1.6053391, "population": 37699, "elevation": 264.0, "source": "osm"}, {"name": "Alfaro", "country": "", "latitude": 42.1785741, "longitude": -1.7492454, "population": 9782, "elevation": 300.0, "source": "osm"}, {"name": "Rincón de Soto", "country": "", "latitude": 42.2346465, "longitude": -1.8504938, "population": 4021, "elevation": 286.0, "source": "osm"}, {"name": "Miranda de Arga", "country": "", "latitude": 42.4829542, "longitude": -1.8269034, "population": 913, "elevation": 315.0, "source": "osm"}, {"name": "Cervera del Río Alhama", "country": "", "latitude": 42.0058319, "longitude": -1.9554794, "population": 1304, "elevation": 557.0, "source": "osm"}, {"name": "Aldeanueva de Ebro", "country": "", "latitude": 42.2293469, "longitude": -1.8880858, "population": 2726, "elevation": 339.0, "source": "osm"}, {"name": "Mélida", "country": "", "latitude": 42.3593658, "longitude": -1.5474177, "population": 715, "elevation": 349.0, "source": "osm"}, {"name": "Lerga", "country": "", "latitude": 42.5667872, "longitude": -1.5006508, "population": 48, "elevation": 615.0, "source": "osm"}, {"name": "Barásoain", "country": "", "latitude": 42.6051018, "longitude": -1.6453574, "population": 602, "elevation": 526.0, "source": "osm"}, {"name": "Garínoain", "country": "", "latitude": 42.6005691, "longitude": -1.6453061, "population": 516, "elevation": 536.0, "source": "osm"}, {"name": "Beire", "country": "", "latitude": 42.4539464, "longitude": -1.6217023, "population": 301, "elevation": 371.0, "source": "osm"}, {"name": "Eslava", "country": "", "latitude": 42.5643609, "longitude": -1.4594701, "population": 103, "elevation": 545.0, "source": "osm"}, {"name": "Funes", "country": "", "latitude": 42.3140552, "longitude": -1.8030376, "population": 2543, "elevation": 278.0, "source": "osm"}, {"name": "Fontellas", "country": "", "latitude": 42.0281362, "longitude": -1.5761274, "population": 997, "elevation": 277.0, "source": "osm"}, {"name": "Dévanos", "country": "", "latitude": 41.9035478, "longitude": -1.9473175, "population": 77, "elevation": 935.0, "source": "osm"}, {"name": "Ejea de los Caballeros", "country": "", "latitude": 42.1264892, "longitude": -1.1382958, "population": 14406, "elevation": 321.0, "source": "osm"}, {"name": "Sádaba", "country": "", "latitude": 42.2818248, "longitude": -1.2710096, "population": 1139, "elevation": 439.0, "source": "osm"}, {"name": "Castiliscar", "country": "", "latitude": 42.3763826, "longitude": -1.2736403, "population": 217, "elevation": 499.0, "source": "osm"}, {"name": "Sos del Rey Católico", "country": "", "latitude": 42.4969991, "longitude": -1.2150631, "population": 496, "elevation": 638.0, "source": "osm"}, {"name": "Orkoien", "country": "", "latitude": 42.8234903, "longitude": -1.7022679, "population": 4051, "elevation": 446.0, "source": "osm"}, {"name": "Etxauri", "country": "", "latitude": 42.7932285, "longitude": -1.7900237, "population": 636, "elevation": 413.0, "source": "osm"}, {"name": "Ciriza / Ziritza", "country": "", "latitude": 42.7918412, "longitude": -1.8241361, "population": 158, "elevation": 460.0, "source": "osm"}, {"name": "Echarri / Etxarri", "country": "", "latitude": 42.7807766, "longitude": -1.8251709, "population": 64, "elevation": 398.0, "source": "osm"}, {"name": "Belascoáin / Beraskoain", "country": "", "latitude": 42.7562505, "longitude": -1.8324903, "population": 138, "elevation": 423.0, "source": "osm"}, {"name": "Artazu", "country": "", "latitude": 42.6913086, "longitude": -1.8401742, "population": 115, "elevation": 470.0, "source": "osm"}, {"name": "Mañeru", "country": "", "latitude": 42.6695386, "longitude": -1.8620743, "population": 445, "elevation": 458.0, "source": "osm"}, {"name": "Igea", "country": "", "latitude": 42.0686394, "longitude": -2.0092614, "population": 648, "elevation": 546.0, "source": "osm"}, {"name": "Navascués / Nabaskoze", "country": "", "latitude": 42.7185668, "longitude": -1.1160102, "population": 80, "elevation": 642.0, "source": "osm"}, {"name": "Ororbia", "country": "", "latitude": 42.8164756, "longitude": -1.7470153, "population": 758, "elevation": 394.0, "source": "osm"}, {"name": "Aoiz / Agoitz", "country": "", "latitude": 42.7862771, "longitude": -1.3694757, "population": 2969, "elevation": 505.0, "source": "osm"}, {"name": "Lumbier", "country": "", "latitude": 42.6522082, "longitude": -1.3083408, "population": 1326, "elevation": 465.0, "source": "osm"}, {"name": "Abárzuza / Abartzuza", "country": "", "latitude": 42.7268475, "longitude": -2.0225275, "population": 506, "elevation": 557.0, "source": "osm"}, {"name": "Astráin", "country": "", "latitude": 42.7561547, "longitude": -1.7399106, "population": 329, "elevation": 521.0, "source": "osm"}, {"name": "Legarda", "country": "", "latitude": 42.7113388, "longitude": -1.7727104, "population": 133, "elevation": 455.0, "source": "osm"}, {"name": "Obanos", "country": "", "latitude": 42.6808183, "longitude": -1.7851016, "population": 917, "elevation": 414.0, "source": "osm"}, {"name": "Novillas", "country": "", "latitude": 41.9339098, "longitude": -1.394695, "population": 509, "elevation": 239.0, "source": "osm"}, {"name": "Santacara", "country": "", "latitude": 42.3755477, "longitude": -1.5477333, "population": 863, "elevation": 342.0, "source": "osm"}, {"name": "Rada", "country": "", "latitude": 42.3199318, "longitude": -1.5739109, "population": 610, "elevation": null, "source": "osm"}, {"name": "Carcastillo", "country": "", "latitude": 42.3800209, "longitude": -1.4445327, "population": 2166, "elevation": 353.0, "source": "osm"}, {"name": "Cáseda", "country": "", "latitude": 42.5242929, "longitude": -1.3674903, "population": 944, "elevation": 436.0, "source": "osm"}, {"name": "Sarriguren", "country": "", "latitude": 42.8105858, "longitude": -1.5926872, "population": 16219, "elevation": 458.0, "source": "osm"}, {"name": "Badostáin", "country": "", "latitude": 42.7990403, "longitude": -1.5956406, "population": 335, "elevation": 490.0, "source": "osm"}, {"name": "Calahorra", "country": "", "latitude": 42.3035212, "longitude": -1.9648758, "population": 24971, "elevation": 358.0, "source": "osm"}, {"name": "Allo", "country": "", "latitude": 42.5673713, "longitude": -2.0211169, "population": 971, "elevation": 422.0, "source": "osm"}, {"name": "Olite / Erriberri", "country": "", "latitude": 42.4813623, "longitude": -1.6512224, "population": 3980, "elevation": 391.0, "source": "osm"}, {"name": "Tauste", "country": "", "latitude": 41.9202822, "longitude": -1.2543731, "population": 6353, "elevation": 264.0, "source": "osm"}, {"name": "Borja", "country": "", "latitude": 41.8348235, "longitude": -1.5337542, "population": 4978, "elevation": 456.0, "source": "osm"}, {"name": "Tarazona", "country": "", "latitude": 41.9065093, "longitude": -1.7216461, "population": 10323, "elevation": 476.0, "source": "osm"}, {"name": "Paternáin", "country": "", "latitude": 42.7848621, "longitude": -1.7440172, "population": 407, "elevation": 439.0, "source": "osm"}, {"name": "Mutilva / Mutiloa", "country": "", "latitude": 42.7894395, "longitude": -1.6171023, "population": 11823, "elevation": 439.0, "source": "osm"}, {"name": "Fitero", "country": "", "latitude": 42.0557224, "longitude": -1.8565659, "population": 2143, "elevation": 446.0, "source": "osm"}, {"name": "Cascante", "country": "", "latitude": 41.9993288, "longitude": -1.6786611, "population": 4021, "elevation": 347.0, "source": "osm"}, {"name": "Olaz / Olatz", "country": "", "latitude": 42.8203302, "longitude": -1.5875323, "population": 697, "elevation": null, "source": "osm"}, {"name": "Beriáin", "country": "", "latitude": 42.7334799, "longitude": -1.6447836, "population": 1148, "elevation": 498.0, "source": "osm"}, {"name": "Cárcar", "country": "", "latitude": 42.3913267, "longitude": -1.9747429, "population": 1120, "elevation": 402.0, "source": "osm"}, {"name": "Añorbe", "country": "", "latitude": 42.6585023, "longitude": -1.7138474, "population": 628, "elevation": 568.0, "source": "osm"}, {"name": "Tirapu", "country": "", "latitude": 42.6566786, "longitude": -1.7029388, "population": 54, "elevation": 495.0, "source": "osm"}, {"name": "Tiebas / Tebas", "country": "", "latitude": 42.6941017, "longitude": -1.6389836, "population": 435, "elevation": 569.0, "source": "osm"}, {"name": "Peralta / Azkoien", "country": "", "latitude": 42.3385459, "longitude": -1.7970061, "population": 5920, "elevation": 290.0, "source": "osm"}, {"name": "Oteiza", "country": "", "latitude": 42.6194776, "longitude": -1.9537957, "population": 923, "elevation": 515.0, "source": "osm"}, {"name": "Unzué/Untzue", "country": "", "latitude": 42.6515162, "longitude": -1.626276, "population": 146, "elevation": 650.0, "source": "osm"}, {"name": "Burlada / Burlata", "country": "", "latitude": 42.8230299, "longitude": -1.614076, "population": 20865, "elevation": 426.0, "source": "osm"}, {"name": "San Felices", "country": "", "latitude": 41.9384552, "longitude": -2.025826, "population": 60, "elevation": 952.0, "source": "osm"}, {"name": "Vozmediano", "country": "", "latitude": 41.8382377, "longitude": -1.8559358, "population": 36, "elevation": 889.0, "source": "osm"}, {"name": "Salinas de Pamplona", "country": "", "latitude": 42.7537132, "longitude": -1.6493846, "population": 275, "elevation": 551.0, "source": "osm"}, {"name": "Gazólaz", "country": "", "latitude": 42.7916465, "longitude": -1.7175431, "population": 83, "elevation": 455.0, "source": "osm"}, {"name": "Undiano / Undio", "country": "", "latitude": 42.758341, "longitude": -1.7641742, "population": 258, "elevation": 525.0, "source": "osm"}, {"name": "Esparza", "country": "", "latitude": 42.7563153, "longitude": -1.6838886, "population": 382, "elevation": 534.0, "source": "osm"}, {"name": "Biurrun", "country": "", "latitude": 42.692662, "longitude": -1.6783849, "population": 195, "elevation": 611.0, "source": "osm"}, {"name": "Güesa / Gorza", "country": "", "latitude": 42.8061528, "longitude": -1.0951832, "population": 24, "elevation": 653.0, "source": "osm"}, {"name": "Javier", "country": "", "latitude": 42.5911918, "longitude": -1.2086914, "population": 113, "elevation": 446.0, "source": "osm"}, {"name": "Monreal / Elo", "country": "", "latitude": 42.7048477, "longitude": -1.5072472, "population": 499, "elevation": 547.0, "source": "osm"}, {"name": "Enériz / Eneritz", "country": "", "latitude": 42.6712536, "longitude": -1.7280262, "population": 301, "elevation": 423.0, "source": "osm"}, {"name": "Cirauqui / Zirauki", "country": "", "latitude": 42.6756793, "longitude": -1.890971, "population": 466, "elevation": 473.0, "source": "osm"}, {"name": "Dicastillo", "country": "", "latitude": 42.5945083, "longitude": -2.0283583, "population": 574, "elevation": 559.0, "source": "osm"}, {"name": "Ribaforada", "country": "", "latitude": 41.9981387, "longitude": -1.5126628, "population": 3711, "elevation": 263.0, "source": "osm"}, {"name": "Unciti", "country": "", "latitude": 42.7475379, "longitude": -1.5019366, "population": 76, "elevation": 603.0, "source": "osm"}, {"name": "Urroz-Villa / Urrotz-Hiria", "country": "", "latitude": 42.7783083, "longitude": -1.4594263, "population": 384, "elevation": 525.0, "source": "osm"}, {"name": "Lizoain", "country": "", "latitude": 42.7992698, "longitude": -1.4677975, "population": 63, "elevation": 535.0, "source": "osm"}, {"name": "Zulueta", "country": "", "latitude": 42.7453593, "longitude": -1.5800028, "population": 326, "elevation": 478.0, "source": "osm"}, {"name": "Elorz / Elortz", "country": "", "latitude": 42.7332422, "longitude": -1.5613933, "population": 336, "elevation": 488.0, "source": "osm"}, {"name": "Castejón", "country": "", "latitude": 42.1684263, "longitude": -1.6907803, "population": 4430, "elevation": 278.0, "source": "osm"}, {"name": "Zizur Mayor / Zizur Nagusia", "country": "", "latitude": 42.7887152, "longitude": -1.692616, "population": 15715, "elevation": 467.0, "source": "osm"}, {"name": "Uterga", "country": "", "latitude": 42.7102068, "longitude": -1.7596807, "population": 169, "elevation": 492.0, "source": "osm"}, {"name": "Muruzábal", "country": "", "latitude": 42.6887624, "longitude": -1.7705509, "population": 244, "elevation": 438.0, "source": "osm"}, {"name": "Undués de Lerda", "country": "", "latitude": 42.5654577, "longitude": -1.1688986, "population": 44, "elevation": 632.0, "source": "osm"}, {"name": "Mallén", "country": "", "latitude": 41.9046128, "longitude": -1.4205413, "population": 2934, "elevation": 270.0, "source": "osm"}, {"name": "Tulebras", "country": "", "latitude": 41.9772744, "longitude": -1.6767605, "population": 148, "elevation": 373.0, "source": "osm"}, {"name": "Gallipienzo / Galipentzu", "country": "", "latitude": 42.5243351, "longitude": -1.4100849, "population": 34, "elevation": 565.0, "source": "osm"}, {"name": "Cordovilla", "country": "", "latitude": 42.7875965, "longitude": -1.6469619, "population": 882, "elevation": 463.0, "source": "osm"}, {"name": "Murillo el Fruto", "country": "", "latitude": 42.3909899, "longitude": -1.4599999, "population": 674, "elevation": 362.0, "source": "osm"}, {"name": "Grávalos", "country": "", "latitude": 42.1083069, "longitude": -2.0001963, "population": 170, "elevation": 746.0, "source": "osm"}, {"name": "Vera de Moncayo", "country": "", "latitude": 41.8240065, "longitude": -1.6880772, "population": 314, "elevation": 628.0, "source": "osm"}, {"name": "Úcar", "country": "", "latitude": 42.6758238, "longitude": -1.7065464, "population": 152, "elevation": 506.0, "source": "osm"}, {"name": "Villatuerta", "country": "", "latitude": 42.6595159, "longitude": -1.9934011, "population": 1231, "elevation": 443.0, "source": "osm"}, {"name": "Ágreda", "country": "", "latitude": 41.8548465, "longitude": -1.9214614, "population": 3012, "elevation": 928.0, "source": "osm"}, {"name": "Puente la Reina / Gares", "country": "", "latitude": 42.6717107, "longitude": -1.8155291, "population": 2906, "elevation": 347.0, "source": "osm"}, {"name": "Aguilar del Río Alhama", "country": "", "latitude": 41.9624974, "longitude": -1.993993, "population": 381, "elevation": 638.0, "source": "osm"}, {"name": "Trasmoz", "country": "", "latitude": 41.82655, "longitude": -1.7228713, "population": 82, "elevation": 718.0, "source": "osm"}, {"name": "El Buste", "country": "", "latitude": 41.88607, "longitude": -1.6014515, "population": 64, "elevation": 676.0, "source": "osm"}, {"name": "Magallón", "country": "", "latitude": 41.8326084, "longitude": -1.4609335, "population": 1107, "elevation": 382.0, "source": "osm"}, {"name": "Gallur", "country": "", "latitude": 41.8690263, "longitude": -1.3182962, "population": 2433, "elevation": 234.0, "source": "osm"}, {"name": "Adiós / Adios", "country": "", "latitude": 42.6866956, "longitude": -1.7359099, "population": 172, "elevation": 478.0, "source": "osm"}, {"name": "Cizur Menor", "country": "", "latitude": 42.7867067, "longitude": -1.6765416, "population": 2311, "elevation": 467.0, "source": "osm"}, {"name": "Valverde", "country": "", "latitude": 41.9805594, "longitude": -1.8634329, "population": 205, "elevation": 610.0, "source": "osm"}, {"name": "Buñuel", "country": "", "latitude": 41.9797495, "longitude": -1.444881, "population": 2296, "elevation": 241.0, "source": "osm"}, {"name": "Muniáin de la Solana", "country": "", "latitude": 42.6203624, "longitude": -2.0125485, "population": 312, "elevation": 516.0, "source": "osm"}, {"name": "Layana", "country": "", "latitude": 42.2971738, "longitude": -1.244821, "population": 96, "elevation": 487.0, "source": "osm"}, {"name": "Uncastillo", "country": "", "latitude": 42.3608364, "longitude": -1.1310597, "population": 608, "elevation": 626.0, "source": "osm"}, {"name": "Liédena", "country": "", "latitude": 42.6191551, "longitude": -1.2748872, "population": 321, "elevation": 444.0, "source": "osm"}, {"name": "Aibar / Oibar", "country": "", "latitude": 42.592021, "longitude": -1.3599999, "population": 769, "elevation": 560.0, "source": "osm"}, {"name": "Sangüesa / Zangoza", "country": "", "latitude": 42.5754899, "longitude": -1.283336, "population": 4590, "elevation": 400.0, "source": "osm"}, {"name": "Autol", "country": "", "latitude": 42.2130714, "longitude": -2.0057815, "population": 4831, "elevation": 426.0, "source": "osm"}, {"name": "Ablitas", "country": "", "latitude": 41.9732671, "longitude": -1.6395971, "population": 2601, "elevation": 388.0, "source": "osm"}, {"name": "Aos", "country": "", "latitude": 42.7567294, "longitude": -1.3864265, "population": 54, "elevation": 476.0, "source": "osm"}, {"name": "Ardanaz de Izagaondoa", "country": "", "latitude": 42.7359058, "longitude": -1.4217498, "population": 36, "elevation": 644.0, "source": "osm"}, {"name": "Arizala / Aritzala", "country": "", "latitude": 42.7285158, "longitude": -1.999957, "population": 84, "elevation": null, "source": "osm"}, {"name": "Arraiza / Arraitza", "country": "", "latitude": 42.767587, "longitude": -1.8062607, "population": 89, "elevation": null, "source": "osm"}, {"name": "Ayesa", "country": "", "latitude": 42.5710983, "longitude": -1.4214783, "population": 43, "elevation": null, "source": "osm"}, {"name": "Barañáin / Barañain", "country": "", "latitude": 42.8048344, "longitude": -1.6810202, "population": 19575, "elevation": 433.0, "source": "osm"}, {"name": "Barillas", "country": "", "latitude": 41.971012, "longitude": -1.6627478, "population": 255, "elevation": 389.0, "source": "osm"}, {"name": "Bidaurreta", "country": "", "latitude": 42.7753457, "longitude": -1.8350395, "population": 165, "elevation": null, "source": "osm"}, {"name": "Cabanillas", "country": "", "latitude": 42.0328841, "longitude": -1.5254634, "population": 1379, "elevation": null, "source": "osm"}, {"name": "Domeño", "country": "", "latitude": 42.675519, "longitude": -1.239478, "population": 44, "elevation": 489.0, "source": "osm"}, {"name": "Echarren de Guirguillano", "country": "", "latitude": 42.7244834, "longitude": -1.8785078, "population": 27, "elevation": 561.0, "source": "osm"}, {"name": "Fustiñana", "country": "", "latitude": 42.0212249, "longitude": -1.4857389, "population": 2457, "elevation": null, "source": "osm"}, {"name": "Gallués / Galoze", "country": "", "latitude": 42.7841441, "longitude": -1.0960939, "population": 4, "elevation": 643.0, "source": "osm"}, {"name": "Idocin", "country": "", "latitude": 42.6884347, "longitude": -1.4715206, "population": 55, "elevation": 605.0, "source": "osm"}, {"name": "Leache / Leatxe", "country": "", "latitude": 42.607675, "longitude": -1.4069932, "population": 37, "elevation": null, "source": "osm"}, {"name": "Leoz / Leotz", "country": "", "latitude": 42.6452194, "longitude": -1.5190074, "population": 22, "elevation": 764.0, "source": "osm"}, {"name": "Lezaun", "country": "", "latitude": 42.7778491, "longitude": -1.9942909, "population": 244, "elevation": 812.0, "source": "osm"}, {"name": "Monteagudo", "country": "", "latitude": 41.9620037, "longitude": -1.6939437, "population": 1096, "elevation": null, "source": "osm"}, {"name": "Morentin", "country": "", "latitude": 42.6123241, "longitude": -2.0136591, "population": 116, "elevation": null, "source": "osm"}, {"name": "Muez", "country": "", "latitude": 42.7547023, "longitude": -1.9336544, "population": 33, "elevation": 527.0, "source": "osm"}, {"name": "Orísoain", "country": "", "latitude": 42.6010504, "longitude": -1.6039299, "population": 70, "elevation": null, "source": "osm"}, {"name": "Petilla de Aragón", "country": "", "latitude": 42.4614023, "longitude": -1.0926115, "population": 28, "elevation": 842.0, "source": "osm"}, {"name": "Salinas de Oro / Jaitz", "country": "", "latitude": 42.7754085, "longitude": -1.8893416, "population": 109, "elevation": null, "source": "osm"}, {"name": "San Vicente / Donebikendi", "country": "", "latitude": 42.6863732, "longitude": -1.3250785, "population": 25, "elevation": 472.0, "source": "osm"}, {"name": "Agón", "country": "", "latitude": 41.8564455, "longitude": -1.4533153, "population": 134, "elevation": 321.0, "source": "osm"}, {"name": "Albeta", "country": "", "latitude": 41.8267352, "longitude": -1.500093, "population": 139, "elevation": 414.0, "source": "osm"}, {"name": "Asín", "country": "", "latitude": 42.283691, "longitude": -1.0466465, "population": 100, "elevation": 586.0, "source": "osm"}, {"name": "Biota", "country": "", "latitude": 42.2621423, "longitude": -1.1873682, "population": 839, "elevation": 484.0, "source": "osm"}, {"name": "Bisimbre", "country": "", "latitude": 41.8560133, "longitude": -1.4433266, "population": 84, "elevation": 321.0, "source": "osm"}, {"name": "Boquiñeni", "country": "", "latitude": 41.8481709, "longitude": -1.2519755, "population": 775, "elevation": 225.0, "source": "osm"}, {"name": "Fréscano", "country": "", "latitude": 41.8743176, "longitude": -1.449546, "population": 200, "elevation": 301.0, "source": "osm"}, {"name": "Grisel", "country": "", "latitude": 41.8711041, "longitude": -1.7273562, "population": 83, "elevation": 621.0, "source": "osm"}, {"name": "Isuerre", "country": "", "latitude": 42.4883445, "longitude": -1.0559251, "population": 33, "elevation": 658.0, "source": "osm"}, {"name": "Lituénigo", "country": "", "latitude": 41.8357678, "longitude": -1.7608154, "population": 123, "elevation": 756.0, "source": "osm"}, {"name": "Los Fayos", "country": "", "latitude": 41.8799535, "longitude": -1.7830246, "population": 128, "elevation": 562.0, "source": "osm"}, {"name": "Maleján", "country": "", "latitude": 41.8278952, "longitude": -1.5493198, "population": 268, "elevation": 468.0, "source": "osm"}, {"name": "Malón", "country": "", "latitude": 41.9526553, "longitude": -1.673031, "population": 416, "elevation": 423.0, "source": "osm"}, {"name": "Navardún", "country": "", "latitude": 42.5128138, "longitude": -1.1459925, "population": 32, "elevation": 493.0, "source": "osm"}, {"name": "Novallas", "country": "", "latitude": 41.9468728, "longitude": -1.6957722, "population": 833, "elevation": 434.0, "source": "osm"}, {"name": "Pradilla de Ebro", "country": "", "latitude": 41.8607994, "longitude": -1.2629402, "population": 558, "elevation": 227.0, "source": "osm"}, {"name": "San Martín de la Virgen de Moncayo", "country": "", "latitude": 41.8371044, "longitude": -1.7914544, "population": 257, "elevation": 807.0, "source": "osm"}, {"name": "Santa Cruz de Moncayo", "country": "", "latitude": 41.8825575, "longitude": -1.7573134, "population": 119, "elevation": 628.0, "source": "osm"}, {"name": "Torrellas", "country": "", "latitude": 41.8941511, "longitude": -1.771178, "population": 219, "elevation": 567.0, "source": "osm"}, {"name": "Urriés", "country": "", "latitude": 42.5192918, "longitude": -1.1292528, "population": 47, "elevation": 552.0, "source": "osm"}, {"name": "Vierlas", "country": "", "latitude": 41.9274611, "longitude": -1.6806119, "population": 85, "elevation": 455.0, "source": "osm"}, {"name": "Santa Engracia", "country": "", "latitude": 41.9410471, "longitude": -1.3256529, "population": 263, "elevation": 285.0, "source": "osm"}, {"name": "Murchante", "country": "", "latitude": 42.0309725, "longitude": -1.655853, "population": 4236, "elevation": 322.0, "source": "osm"}, {"name": "Valtierra", "country": "", "latitude": 42.1934365, "longitude": -1.6316492, "population": 2424, "elevation": 265.0, "source": "osm"}, {"name": "Corella", "country": "", "latitude": 42.1152097, "longitude": -1.7893729, "population": 8526, "elevation": 370.0, "source": "osm"}, {"name": "Cintruénigo", "country": "", "latitude": 42.0799132, "longitude": -1.8034973, "population": 8261, "elevation": 392.0, "source": "osm"}, {"name": "Figarol", "country": "", "latitude": 42.3509083, "longitude": -1.3681656, "population": 256, "elevation": null, "source": "osm"}, {"name": "Luceni", "country": "", "latitude": 41.8285871, "longitude": -1.2392195, "population": 954, "elevation": 232.0, "source": "osm"}, {"name": "Castillonuevo / Gazteluberri", "country": "", "latitude": 42.6784626, "longitude": -1.0447115, "population": 15, "elevation": 804.0, "source": "osm"}, {"name": "Remolinos", "country": "", "latitude": 41.8386475, "longitude": -1.1768198, "population": 1004, "elevation": 227.0, "source": "osm"}, {"name": "Cortes", "country": "", "latitude": 41.9235302, "longitude": -1.4206848, "population": 3149, "elevation": 255.0, "source": "osm"}, {"name": "Olóriz / Oloritz", "country": "", "latitude": 42.6350351, "longitude": -1.6132927, "population": 74, "elevation": 597.0, "source": "osm"}, {"name": "Esquíroz", "country": "", "latitude": 42.7750768, "longitude": -1.6562555, "population": 346, "elevation": 423.0, "source": "osm"}, {"name": "Pueyo / Puiu", "country": "", "latitude": 42.565559, "longitude": -1.6483398, "population": 303, "elevation": 502.0, "source": "osm"}, {"name": "Tafalla", "country": "", "latitude": 42.5278279, "longitude": -1.6744823, "population": 10671, "elevation": 440.0, "source": "osm"}, {"name": "San Adrián", "country": "", "latitude": 42.3327818, "longitude": -1.9336689, "population": 6422, "elevation": 311.0, "source": "osm"}, {"name": "Artajona", "country": "", "latitude": 42.5876058, "longitude": -1.7644227, "population": 1762, "elevation": 404.0, "source": "osm"}, {"name": "Andosilla", "country": "", "latitude": 42.3776047, "longitude": -1.9434186, "population": 2878, "elevation": 316.0, "source": "osm"}, {"name": "Iratxeta", "country": "", "latitude": 42.637754, "longitude": -1.5475538, "population": 58, "elevation": 713.0, "source": "osm"}, {"name": "Sada", "country": "", "latitude": 42.5871778, "longitude": -1.3983063, "population": 130, "elevation": 510.0, "source": "osm"}, {"name": "Imárcoain", "country": "", "latitude": 42.7367563, "longitude": -1.6154645, "population": 434, "elevation": null, "source": "osm"}, {"name": "Irurozqui", "country": "", "latitude": 42.7578942, "longitude": -1.2564198, "population": 40, "elevation": null, "source": "osm"}, {"name": "San Martín de Unx", "country": "", "latitude": 42.5237233, "longitude": -1.5616093, "population": 377, "elevation": 602.0, "source": "osm"}, {"name": "Ujué/Uxue", "country": "", "latitude": 42.5061582, "longitude": -1.499409, "population": 171, "elevation": 803.0, "source": "osm"}, {"name": "Arguedas", "country": "", "latitude": 42.1758188, "longitude": -1.5970062, "population": 2310, "elevation": 264.0, "source": "osm"}, {"name": "Lerín", "country": "", "latitude": 42.4827069, "longitude": -1.9727192, "population": 1782, "elevation": null, "source": "osm"}, {"name": "Milagro", "country": "", "latitude": 42.2418183, "longitude": -1.7628016, "population": 3549, "elevation": 295.0, "source": "osm"}, {"name": "Gorráiz / Gorraitz", "country": "", "latitude": 42.8215788, "longitude": -1.581325, "population": 3696, "elevation": 459.0, "source": "osm"}, {"name": "Marcilla", "country": "", "latitude": 42.3258784, "longitude": -1.7380991, "population": 2831, "elevation": null, "source": "osm"}, {"name": "Villafranca", "country": "", "latitude": 42.2774311, "longitude": -1.7471458, "population": 3000, "elevation": 286.0, "source": "osm"}, {"name": "Ribaforada", "country": "", "latitude": 41.9979549, "longitude": -1.5110604, "population": 3701, "elevation": null, "source": "osm"}, {"name": "Novallas", "country": "", "latitude": 41.9470272, "longitude": -1.6955343, "population": 0, "elevation": null, "source": "osm"}]