[{"name": "Foix", "country": "", "latitude": 42.9638998, "longitude": 1.6053807, "population": 9472, "elevation": null, "source": "osm"}, {"name": "Castelnaudary", "country": "", "latitude": 43.3192021, "longitude": 1.9533495, "population": 12448, "elevation": null, "source": "osm"}, {"name": "Laroque-d'Olmes", "country": "", "latitude": 42.9685362, "longitude": 1.8703475, "population": 2371, "elevation": null, "source": "osm"}, {"name": "Mazères", "country": "", "latitude": 43.2501677, "longitude": 1.6776298, "population": 3868, "elevation": null, "source": "osm"}, {"name": "Tarascon-sur-Ariège", "country": "", "latitude": 42.8458016, "longitude": 1.6067586, "population": 3034, "elevation": null, "source": "osm"}, {"name": "Noé", "country": "", "latitude": 43.3545352, "longitude": 1.2749497, "population": 2949, "elevation": null, "source": "osm"}, {"name": "Carbonne", "country": "", "latitude": 43.2958159, "longitude": 1.2250686, "population": 5737, "elevation": null, "source": "osm"}, {"name": "Cazères", "country": "", "latitude": 43.2056788, "longitude": 1.0865093, "population": 4781, "elevation": null, "source": "osm"}, {"name": "Saverdun", "country": "", "latitude": 43.2336968, "longitude": 1.5754613, "population": 4815, "elevation": null, "source": "osm"}, {"name": "Saint-Jean-du-Falga", "country": "", "latitude": 43.0842576, "longitude": 1.6254308, "population": 2860, "elevation": null, "source": "osm"}, {"name": "La Tour-du-Crieu", "country": "", "latitude": 43.1013375, "longitude": 1.6505217, "population": 3246, "elevation": null, "source": "osm"}, {"name": "Lavelanet", "country": "", "latitude": 42.9332121, "longitude": 1.8487179, "population": 6035, "elevation": null, "source": "osm"}, {"name": "Lézat-sur-Lèze", "country": "", "latitude": 43.2773, "longitude": 1.34623, "population": 2349, "elevation": null, "source": "osm"}, {"name": "Mirepoix", "country": "", "latitude": 43.0880677, "longitude": 1.874318, "population": 3120, "elevation": null, "source": "osm"}, {"name": "Auterive", "country": "", "latitude": 43.3524028, "longitude": 1.4775095, "population": 10126, "elevation": null, "source": "osm"}, {"name": "Cintegabelle", "country": "", "latitude": 43.3141053, "longitude": 1.5313506, "population": 2978, "elevation": null, "source": "osm"}, {"name": "Montesquieu-Volvestre", "country": "", "latitude": 43.2086251, "longitude": 1.2301306, "population": 3096, "elevation": null, "source": "osm"}, {"name": "Varilhes", "country": "", "latitude": 43.0424295, "longitude": 1.6272972, "population": 3495, "elevation": null, "source": "osm"}, {"name": "Eycheil", "country": "", "latitude": 42.9678109, "longitude": 1.1635881, "population": 535, "elevation": null, "source": "osm"}, {"name": "Airoux", "country": "", "latitude": 43.3633816, "longitude": 1.8663957, "population": 176, "elevation": null, "source": "osm"}, {"name": "Baraigne", "country": "", "latitude": 43.3305, "longitude": 1.82413, "population": 168, "elevation": null, "source": "osm"}, {"name": "Belflou", "country": "", "latitude": 43.3177472, "longitude": 1.7858711, "population": 111, "elevation": null, "source": "osm"}, {"name": "Belpech", "country": "", "latitude": 43.1980845, "longitude": 1.7519163, "population": 1342, "elevation": null, "source": "osm"}, {"name": "Cazalrenoux", "country": "", "latitude": 43.198291, "longitude": 1.949297, "population": 98, "elevation": null, "source": "osm"}, {"name": "Fendeille", "country": "", "latitude": 43.2694572, "longitude": 1.9435941, "population": 568, "elevation": null, "source": "osm"}, {"name": "Fajac-la-Relenque", "country": "", "latitude": 43.2804, "longitude": 1.72473, "population": 51, "elevation": null, "source": "osm"}, {"name": "Fonters-du-Razès", "country": "", "latitude": 43.2287317, "longitude": 1.9355588, "population": 76, "elevation": null, "source": "osm"}, {"name": "Generville", "country": "", "latitude": 43.2120274, "longitude": 1.9312861, "population": 54, "elevation": null, "source": "osm"}, {"name": "Gaja-la-Selve", "country": "", "latitude": 43.1949882, "longitude": 1.8960637, "population": 137, "elevation": null, "source": "osm"}, {"name": "La Louvière-Lauragais", "country": "", "latitude": 43.2632, "longitude": 1.75256, "population": 81, "elevation": null, "source": "osm"}, {"name": "Lafage", "country": "", "latitude": 43.1746, "longitude": 1.86374, "population": 95, "elevation": null, "source": "osm"}, {"name": "Labastide-d'Anjou", "country": "", "latitude": 43.3461414, "longitude": 1.8519505, "population": 1271, "elevation": null, "source": "osm"}, {"name": "Mayreville", "country": "", "latitude": 43.2390283, "longitude": 1.8403998, "population": 84, "elevation": null, "source": "osm"}, {"name": "Mas-Saintes-Puelles", "country": "", "latitude": 43.3132747, "longitude": 1.8761147, "population": 933, "elevation": null, "source": "osm"}, {"name": "Mireval-Lauragais", "country": "", "latitude": 43.2542571, "longitude": 1.9582234, "population": 191, "elevation": null, "source": "osm"}, {"name": "Mézerville", "country": "", "latitude": 43.2601, "longitude": 1.79132, "population": 97, "elevation": null, "source": "osm"}, {"name": "Montferrand", "country": "", "latitude": 43.364438, "longitude": 1.8208365, "population": 636, "elevation": null, "source": "osm"}, {"name": "Molleville", "country": "", "latitude": 43.3116, "longitude": 1.83393, "population": 144, "elevation": null, "source": "osm"}, {"name": "Molandier", "country": "", "latitude": 43.247, "longitude": 1.71829, "population": 247, "elevation": null, "source": "osm"}, {"name": "Montauriol", "country": "", "latitude": 43.2778, "longitude": 1.83538, "population": 82, "elevation": null, "source": "osm"}, {"name": "Plavilla", "country": "", "latitude": 43.1483, "longitude": 1.91478, "population": 131, "elevation": null, "source": "osm"}, {"name": "Plaigne", "country": "", "latitude": 43.1735932, "longitude": 1.8124512, "population": 119, "elevation": null, "source": "osm"}, {"name": "Peyrens", "country": "", "latitude": 43.3617038, "longitude": 1.9603607, "population": 461, "elevation": null, "source": "osm"}, {"name": "Peyrefitte-sur-l'Hers", "country": "", "latitude": 43.2473824, "longitude": 1.8285515, "population": 77, "elevation": null, "source": "osm"}, {"name": "Pech-Luna", "country": "", "latitude": 43.2163, "longitude": 1.84329, "population": 75, "elevation": null, "source": "osm"}, {"name": "Payra-sur-l'Hers", "country": "", "latitude": 43.266555, "longitude": 1.8553589, "population": 207, "elevation": null, "source": "osm"}, {"name": "Puginier", "country": "", "latitude": 43.3769388, "longitude": 1.9279309, "population": 154, "elevation": null, "source": "osm"}, {"name": "Saint-Amans", "country": "", "latitude": 43.2282787, "longitude": 1.8861364, "population": 61, "elevation": null, "source": "osm"}, {"name": "Saint-Gaudéric", "country": "", "latitude": 43.1283132, "longitude": 1.9469981, "population": 112, "elevation": null, "source": "osm"}, {"name": "Saint-Julien-de-Briola", "country": "", "latitude": 43.1593362, "longitude": 1.9433635, "population": 83, "elevation": null, "source": "osm"}, {"name": "Ribouisse", "country": "", "latitude": 43.1828732, "longitude": 1.8976688, "population": 106, "elevation": null, "source": "osm"}, {"name": "Ricaud", "country": "", "latitude": 43.3463573, "longitude": 1.8893018, "population": 319, "elevation": null, "source": "osm"}, {"name": "Salles-sur-l'Hers", "country": "", "latitude": 43.2939, "longitude": 1.78435, "population": 733, "elevation": null, "source": "osm"}, {"name": "Souilhanels", "country": "", "latitude": 43.3510931, "longitude": 1.9175836, "population": 355, "elevation": null, "source": "osm"}, {"name": "Soupex", "country": "", "latitude": 43.3762, "longitude": 1.8963, "population": 237, "elevation": null, "source": "osm"}, {"name": "Saint-Michel-de-Lanès", "country": "", "latitude": 43.3242, "longitude": 1.75798, "population": 483, "elevation": null, "source": "osm"}, {"name": "Sainte-Camelle", "country": "", "latitude": 43.269, "longitude": 1.80548, "population": 121, "elevation": null, "source": "osm"}, {"name": "Tréville", "country": "", "latitude": 43.3847, "longitude": 1.95481, "population": 108, "elevation": null, "source": "osm"}, {"name": "Tréziers", "country": "", "latitude": 43.0569082, "longitude": 1.9538571, "population": 102, "elevation": null, "source": "osm"}, {"name": "Villeneuve-la-Comptal", "country": "", "latitude": 43.2879965, "longitude": 1.9222293, "population": 1391, "elevation": null, "source": "osm"}, {"name": "Aignes", "country": "", "latitude": 43.3202377, "longitude": 1.5884775, "population": 239, "elevation": null, "source": "osm"}, {"name": "Auribail", "country": "", "latitude": 43.3522099, "longitude": 1.3824205, "population": 196, "elevation": null, "source": "osm"}, {"name": "Ausseing", "country": "", "latitude": 43.1526, "longitude": 1.01713, "population": 85, "elevation": null, "source": "osm"}, {"name": "Avignonet-Lauragais", "country": "", "latitude": 43.3664114, "longitude": 1.784854, "population": 1628, "elevation": null, "source": "osm"}, {"name": "Bax", "country": "", "latitude": 43.2266122, "longitude": 1.287938, "population": 96, "elevation": null, "source": "osm"}, {"name": "Beaumont-sur-Lèze", "country": "", "latitude": 43.3804045, "longitude": 1.3581843, "population": 1620, "elevation": null, "source": "osm"}, {"name": "Beauteville", "country": "", "latitude": 43.3472712, "longitude": 1.7375798, "population": 195, "elevation": null, "source": "osm"}, {"name": "Belbèze-en-Comminges", "country": "", "latitude": 43.1332, "longitude": 1.02504, "population": 113, "elevation": null, "source": "osm"}, {"name": "Bois-de-la-Pierre", "country": "", "latitude": 43.3445, "longitude": 1.15074, "population": 453, "elevation": null, "source": "osm"}, {"name": "Bérat", "country": "", "latitude": 43.3793823, "longitude": 1.1759296, "population": 3071, "elevation": null, "source": "osm"}, {"name": "Boussens", "country": "", "latitude": 43.1765718, "longitude": 0.9728531, "population": 1081, "elevation": null, "source": "osm"}, {"name": "Caignac", "country": "", "latitude": 43.3209, "longitude": 1.71124, "population": 421, "elevation": null, "source": "osm"}, {"name": "Castagnède", "country": "", "latitude": 43.0538801, "longitude": 0.9761516, "population": 183, "elevation": null, "source": "osm"}, {"name": "Castelnau-Picampeau", "country": "", "latitude": 43.3054413, "longitude": 1.0160305, "population": 217, "elevation": null, "source": "osm"}, {"name": "Castagnac", "country": "", "latitude": 43.2283043, "longitude": 1.3536677, "population": 309, "elevation": null, "source": "osm"}, {"name": "Cassagne", "country": "", "latitude": 43.1246, "longitude": 0.987927, "population": 647, "elevation": null, "source": "osm"}, {"name": "Caujac", "country": "", "latitude": 43.2986056, "longitude": 1.4689621, "population": 866, "elevation": null, "source": "osm"}, {"name": "Casties-Labrande", "country": "", "latitude": 43.3294, "longitude": 1.0119, "population": 101, "elevation": null, "source": "osm"}, {"name": "Couladère", "country": "", "latitude": 43.2000205, "longitude": 1.0911201, "population": 411, "elevation": null, "source": "osm"}, {"name": "Esperce", "country": "", "latitude": 43.2973588, "longitude": 1.4008404, "population": 267, "elevation": null, "source": "osm"}, {"name": "Escoulis", "country": "", "latitude": 43.1118, "longitude": 1.0283, "population": 78, "elevation": null, "source": "osm"}, {"name": "Francon", "country": "", "latitude": 43.2598, "longitude": 0.971861, "population": 239, "elevation": null, "source": "osm"}, {"name": "Gensac-sur-Garonne", "country": "", "latitude": 43.2177, "longitude": 1.13252, "population": 449, "elevation": null, "source": "osm"}, {"name": "Fustignac", "country": "", "latitude": 43.2984256, "longitude": 0.9829763, "population": 75, "elevation": null, "source": "osm"}, {"name": "Gaillac-Toulza", "country": "", "latitude": 43.2550738, "longitude": 1.47117, "population": 1322, "elevation": null, "source": "osm"}, {"name": "Grazac", "country": "", "latitude": 43.3115399, "longitude": 1.4559759, "population": 762, "elevation": null, "source": "osm"}, {"name": "Goutevernisse", "country": "", "latitude": 43.2118677, "longitude": 1.1741052, "population": 187, "elevation": null, "source": "osm"}, {"name": "Gibel", "country": "", "latitude": 43.293, "longitude": 1.68006, "population": 383, "elevation": null, "source": "osm"}, {"name": "Gratens", "country": "", "latitude": 43.3218745, "longitude": 1.1158161, "population": 721, "elevation": null, "source": "osm"}, {"name": "Gouzens", "country": "", "latitude": 43.1865, "longitude": 1.18784, "population": 81, "elevation": null, "source": "osm"}, {"name": "Lacaugne", "country": "", "latitude": 43.2864, "longitude": 1.27076, "population": 241, "elevation": null, "source": "osm"}, {"name": "Labastide-Clermont", "country": "", "latitude": 43.3493258, "longitude": 1.1218302, "population": 675, "elevation": null, "source": "osm"}, {"name": "Lagarde", "country": "", "latitude": 43.3458525, "longitude": 1.7131572, "population": 435, "elevation": null, "source": "osm"}, {"name": "Lafitte-Vigordane", "country": "", "latitude": 43.2993668, "longitude": 1.1631965, "population": 1179, "elevation": null, "source": "osm"}, {"name": "Lagrâce-Dieu", "country": "", "latitude": 43.3398148, "longitude": 1.421158, "population": 561, "elevation": null, "source": "osm"}, {"name": "Lautignac", "country": "", "latitude": 43.382, "longitude": 1.05769, "population": 254, "elevation": null, "source": "osm"}, {"name": "Lavelanet-de-Comminges", "country": "", "latitude": 43.2558346, "longitude": 1.1188632, "population": 651, "elevation": null, "source": "osm"}, {"name": "Latour", "country": "", "latitude": 43.2006, "longitude": 1.28175, "population": 79, "elevation": null, "source": "osm"}, {"name": "Latrape", "country": "", "latitude": 43.245, "longitude": 1.28708, "population": 416, "elevation": null, "source": "osm"}, {"name": "Le Plan", "country": "", "latitude": 43.1671631, "longitude": 1.1202138, "population": 432, "elevation": null, "source": "osm"}, {"name": "Le Fousseret", "country": "", "latitude": 43.281098, "longitude": 1.0650888, "population": 1887, "elevation": null, "source": "osm"}, {"name": "Marliac", "country": "", "latitude": 43.2277229, "longitude": 1.4751769, "population": 131, "elevation": null, "source": "osm"}, {"name": "Marignac-Lasclares", "country": "", "latitude": 43.3061021, "longitude": 1.0979441, "population": 475, "elevation": null, "source": "osm"}, {"name": "Longages", "country": "", "latitude": 43.3555742, "longitude": 1.2399766, "population": 3280, "elevation": null, "source": "osm"}, {"name": "Miremont", "country": "", "latitude": 43.3699202, "longitude": 1.4155473, "population": 2744, "elevation": null, "source": "osm"}, {"name": "Mondavezan", "country": "", "latitude": 43.2400297, "longitude": 1.0377567, "population": 918, "elevation": null, "source": "osm"}, {"name": "Monestrol", "country": "", "latitude": 43.334, "longitude": 1.67052, "population": 49, "elevation": null, "source": "osm"}, {"name": "Marquefave", "country": "", "latitude": 43.317, "longitude": 1.24532, "population": 956, "elevation": null, "source": "osm"}, {"name": "Marsoulas", "country": "", "latitude": 43.1069196, "longitude": 0.9989134, "population": 136, "elevation": null, "source": "osm"}, {"name": "Massabrac", "country": "", "latitude": 43.2254896, "longitude": 1.3716952, "population": 109, "elevation": null, "source": "osm"}, {"name": "Mauran", "country": "", "latitude": 43.1893105, "longitude": 1.0321757, "population": 205, "elevation": null, "source": "osm"}, {"name": "Martres-Tolosane", "country": "", "latitude": 43.1979551, "longitude": 1.0102826, "population": 2397, "elevation": null, "source": "osm"}, {"name": "Mauressac", "country": "", "latitude": 43.3241396, "longitude": 1.4349552, "population": 492, "elevation": null, "source": "osm"}, {"name": "Mauzac", "country": "", "latitude": 43.3755, "longitude": 1.29361, "population": 1335, "elevation": null, "source": "osm"}, {"name": "Mazères-sur-Salat", "country": "", "latitude": 43.1342096, "longitude": 0.9753431, "population": 634, "elevation": null, "source": "osm"}, {"name": "Mauvaisin", "country": "", "latitude": 43.3542, "longitude": 1.54989, "population": 223, "elevation": null, "source": "osm"}, {"name": "Montgeard", "country": "", "latitude": 43.3390498, "longitude": 1.6332329, "population": 541, "elevation": null, "source": "osm"}, {"name": "Montgazin", "country": "", "latitude": 43.3095, "longitude": 1.30366, "population": 169, "elevation": null, "source": "osm"}, {"name": "Montoussin", "country": "", "latitude": 43.2762, "longitude": 1.01052, "population": 132, "elevation": null, "source": "osm"}, {"name": "Montastruc-Savès", "country": "", "latitude": 43.3613458, "longitude": 1.0201433, "population": 64, "elevation": null, "source": "osm"}, {"name": "Montaut", "country": "", "latitude": 43.356, "longitude": 1.29764, "population": 536, "elevation": null, "source": "osm"}, {"name": "Montberaud", "country": "", "latitude": 43.1543, "longitude": 1.14334, "population": 196, "elevation": null, "source": "osm"}, {"name": "Montbrun-Bocage", "country": "", "latitude": 43.1280658, "longitude": 1.2681576, "population": 543, "elevation": null, "source": "osm"}, {"name": "Montclar-de-Comminges", "country": "", "latitude": 43.1772947, "longitude": 1.0215544, "population": 72, "elevation": null, "source": "osm"}, {"name": "Montclar-Lauragais", "country": "", "latitude": 43.3613, "longitude": 1.71502, "population": 245, "elevation": null, "source": "osm"}, {"name": "Montégut-Bourjac", "country": "", "latitude": 43.2819392, "longitude": 0.9885148, "population": 133, "elevation": null, "source": "osm"}, {"name": "Plagne", "country": "", "latitude": 43.1571229, "longitude": 1.0602138, "population": 94, "elevation": null, "source": "osm"}, {"name": "Peyssies", "country": "", "latitude": 43.3215011, "longitude": 1.1772775, "population": 653, "elevation": null, "source": "osm"}, {"name": "Nailloux", "country": "", "latitude": 43.3558921, "longitude": 1.6233628, "population": 4077, "elevation": null, "source": "osm"}, {"name": "Palaminy", "country": "", "latitude": 43.2031, "longitude": 1.07152, "population": 792, "elevation": null, "source": "osm"}, {"name": "Saint-Araille", "country": "", "latitude": 43.3582548, "longitude": 0.9915752, "population": 126, "elevation": null, "source": "osm"}, {"name": "Saint-Élix-le-Château", "country": "", "latitude": 43.280331, "longitude": 1.1367153, "population": 924, "elevation": null, "source": "osm"}, {"name": "Saint-Christaud", "country": "", "latitude": 43.1899, "longitude": 1.12891, "population": 236, "elevation": null, "source": "osm"}, {"name": "Puydaniel", "country": "", "latitude": 43.3373729, "longitude": 1.4325334, "population": 564, "elevation": null, "source": "osm"}, {"name": "Pouy-de-Touges", "country": "", "latitude": 43.3436, "longitude": 1.0369, "population": 425, "elevation": null, "source": "osm"}, {"name": "Rieux-Volvestre", "country": "", "latitude": 43.2574528, "longitude": 1.2014109, "population": 2619, "elevation": null, "source": "osm"}, {"name": "Roquefort-sur-Garonne", "country": "", "latitude": 43.161543, "longitude": 0.9727296, "population": 796, "elevation": null, "source": "osm"}, {"name": "Renneville", "country": "", "latitude": 43.3811, "longitude": 1.7240346, "population": 543, "elevation": null, "source": "osm"}, {"name": "Saint-Sulpice-sur-Lèze", "country": "", "latitude": 43.3282985, "longitude": 1.3204123, "population": 2298, "elevation": null, "source": "osm"}, {"name": "Saint-Michel", "country": "", "latitude": 43.1669719, "longitude": 1.0854343, "population": 313, "elevation": null, "source": "osm"}, {"name": "Saint-Julien-sur-Garonne", "country": "", "latitude": 43.2429151, "longitude": 1.1522016, "population": 552, "elevation": null, "source": "osm"}, {"name": "Seyre", "country": "", "latitude": 43.363412, "longitude": 1.6706123, "population": 130, "elevation": null, "source": "osm"}, {"name": "Touille", "country": "", "latitude": 43.0801, "longitude": 0.97272, "population": 245, "elevation": null, "source": "osm"}, {"name": "Savères", "country": "", "latitude": 43.3703263, "longitude": 1.1053465, "population": 217, "elevation": null, "source": "osm"}, {"name": "Sénarens", "country": "", "latitude": 43.3506, "longitude": 0.975637, "population": 118, "elevation": null, "source": "osm"}, {"name": "Sana", "country": "", "latitude": 43.2277137, "longitude": 1.0120301, "population": 243, "elevation": null, "source": "osm"}, {"name": "Sajas", "country": "", "latitude": 43.3767201, "longitude": 1.0200673, "population": 111, "elevation": null, "source": "osm"}, {"name": "Salles-sur-Garonne", "country": "", "latitude": 43.273, "longitude": 1.17968, "population": 598, "elevation": null, "source": "osm"}, {"name": "Bélesta", "country": "", "latitude": 42.9029283, "longitude": 1.9340613, "population": 1078, "elevation": null, "source": "osm"}, {"name": "L'Aiguillon", "country": "", "latitude": 42.9163814, "longitude": 1.9009306, "population": 379, "elevation": null, "source": "osm"}, {"name": "Lesparrou", "country": "", "latitude": 42.9299918, "longitude": 1.904273, "population": 231, "elevation": null, "source": "osm"}, {"name": "Barrineuf", "country": "", "latitude": 42.879937, "longitude": 1.8917333, "population": 428, "elevation": null, "source": "osm"}, {"name": "Montferrier", "country": "", "latitude": 42.8946406, "longitude": 1.7934509, "population": 549, "elevation": null, "source": "osm"}, {"name": "Dreuilhe", "country": "", "latitude": 42.9470271, "longitude": 1.8607821, "population": 358, "elevation": null, "source": "osm"}, {"name": "Villeneuve-d'Olmes", "country": "", "latitude": 42.9088584, "longitude": 1.8230665, "population": 960, "elevation": null, "source": "osm"}, {"name": "Saint-Jean-d'Aigues-Vives", "country": "", "latitude": 42.9247126, "longitude": 1.8706274, "population": 374, "elevation": null, "source": "osm"}, {"name": "Bénaix", "country": "", "latitude": 42.9066093, "longitude": 1.8555212, "population": 152, "elevation": null, "source": "osm"}, {"name": "Le Port", "country": "", "latitude": 42.8662832, "longitude": 1.3740316, "population": 167, "elevation": null, "source": "osm"}, {"name": "Massat", "country": "", "latitude": 42.8888745, "longitude": 1.3480455, "population": 733, "elevation": null, "source": "osm"}, {"name": "Biert", "country": "", "latitude": 42.8984488, "longitude": 1.3149569, "population": 312, "elevation": null, "source": "osm"}, {"name": "Bonac", "country": "", "latitude": 42.8770331, "longitude": 0.9743483, "population": 124, "elevation": null, "source": "osm"}, {"name": "Raissac", "country": "", "latitude": 42.9416335, "longitude": 1.8114302, "population": 54, "elevation": null, "source": "osm"}, {"name": "La Bastide-de-Bousignac", "country": "", "latitude": 43.0538011, "longitude": 1.8871544, "population": 340, "elevation": null, "source": "osm"}, {"name": "Carla-de-Roquefort", "country": "", "latitude": 42.9755442, "longitude": 1.7677121, "population": 169, "elevation": null, "source": "osm"}, {"name": "Ventenac", "country": "", "latitude": 43.006108, "longitude": 1.7340173, "population": 237, "elevation": null, "source": "osm"}, {"name": "Verniolle", "country": "", "latitude": 43.0794025, "longitude": 1.6514261, "population": 2338, "elevation": null, "source": "osm"}, {"name": "Saint-Félix-de-Rieutord", "country": "", "latitude": 43.0467137, "longitude": 1.6717996, "population": 467, "elevation": null, "source": "osm"}, {"name": "Montgailhard", "country": "", "latitude": 42.9340118, "longitude": 1.6357554, "population": 1472, "elevation": null, "source": "osm"}, {"name": "Celles", "country": "", "latitude": 42.9164951, "longitude": 1.6871039, "population": 147, "elevation": null, "source": "osm"}, {"name": "Nalzen", "country": "", "latitude": 42.9167286, "longitude": 1.757591, "population": 115, "elevation": null, "source": "osm"}, {"name": "Bompas", "country": "", "latitude": 42.8661676, "longitude": 1.6139895, "population": 194, "elevation": null, "source": "osm"}, {"name": "Soula", "country": "", "latitude": 42.9431682, "longitude": 1.6950613, "population": 173, "elevation": null, "source": "osm"}, {"name": "Canens", "country": "", "latitude": 43.2175638, "longitude": 1.3296474, "population": 60, "elevation": null, "source": "osm"}, {"name": "Lapeyrère", "country": "", "latitude": 43.2065026, "longitude": 1.3151524, "population": 61, "elevation": null, "source": "osm"}, {"name": "Cumiès", "country": "", "latitude": 43.2952303, "longitude": 1.841301, "population": 42, "elevation": null, "source": "osm"}, {"name": "Mailholas", "country": "", "latitude": 43.2509164, "longitude": 1.2512846, "population": 35, "elevation": null, "source": "osm"}, {"name": "Camon", "country": "", "latitude": 43.0210971, "longitude": 1.96668, "population": 150, "elevation": null, "source": "osm"}, {"name": "Ercé", "country": "", "latitude": 42.8491976, "longitude": 1.2883469, "population": 576, "elevation": null, "source": "osm"}, {"name": "Roquefixade", "country": "", "latitude": 42.9357198, "longitude": 1.7553056, "population": 147, "elevation": null, "source": "osm"}, {"name": "Oust", "country": "", "latitude": 42.8753153, "longitude": 1.2164434, "population": 565, "elevation": null, "source": "osm"}, {"name": "Le Carla-Bayle", "country": "", "latitude": 43.1500386, "longitude": 1.3936011, "population": 796, "elevation": null, "source": "osm"}, {"name": "Seix", "country": "", "latitude": 42.8656826, "longitude": 1.2032212, "population": 724, "elevation": null, "source": "osm"}, {"name": "La Bastide-de-Lordat", "country": "", "latitude": 43.1428306, "longitude": 1.7113678, "population": 290, "elevation": null, "source": "osm"}, {"name": "Montségur", "country": "", "latitude": 42.8707548, "longitude": 1.8337452, "population": 116, "elevation": null, "source": "osm"}, {"name": "Rimont", "country": "", "latitude": 42.9946311, "longitude": 1.2808437, "population": 536, "elevation": null, "source": "osm"}, {"name": "Lescure", "country": "", "latitude": 43.0011277, "longitude": 1.2351891, "population": 486, "elevation": null, "source": "osm"}, {"name": "La Bastide-de-Sérou", "country": "", "latitude": 43.0115497, "longitude": 1.4283987, "population": 985, "elevation": null, "source": "osm"}, {"name": "Gajan", "country": "", "latitude": 43.023311, "longitude": 1.1234182, "population": 320, "elevation": null, "source": "osm"}, {"name": "Saint-Pierre-de-Rivière", "country": "", "latitude": 42.9611666, "longitude": 1.5603415, "population": 674, "elevation": null, "source": "osm"}, {"name": "Gudas", "country": "", "latitude": 43.0100321, "longitude": 1.6742243, "population": 200, "elevation": null, "source": "osm"}, {"name": "Barjac", "country": "", "latitude": 43.0654817, "longitude": 1.1344593, "population": 43, "elevation": null, "source": "osm"}, {"name": "Marquein", "country": "", "latitude": 43.3053349, "longitude": 1.7263936, "population": 81, "elevation": null, "source": "osm"}, {"name": "Villautou", "country": "", "latitude": 43.1598862, "longitude": 1.8316209, "population": 65, "elevation": null, "source": "osm"}, {"name": "Cahuzac", "country": "", "latitude": 43.1919572, "longitude": 1.8501774, "population": 27, "elevation": null, "source": "osm"}, {"name": "Pécharic-et-le-Py", "country": "", "latitude": 43.1864204, "longitude": 1.8347211, "population": 29, "elevation": null, "source": "osm"}, {"name": "Daujas", "country": "", "latitude": 43.3689426, "longitude": 1.5459788, "population": 0, "elevation": null, "source": "osm"}, {"name": "Saint-Girons", "country": "", "latitude": 42.9841865, "longitude": 1.1464455, "population": 6250, "elevation": null, "source": "osm"}, {"name": "Lacourt", "country": "", "latitude": 42.9453273, "longitude": 1.172776, "population": 196, "elevation": null, "source": "osm"}, {"name": "Prat-Bonrepaux", "country": "", "latitude": 43.0302074, "longitude": 1.0267568, "population": 857, "elevation": null, "source": "osm"}, {"name": "Caumont", "country": "", "latitude": 43.029292, "longitude": 1.0861927, "population": 336, "elevation": null, "source": "osm"}, {"name": "Lorp", "country": "", "latitude": 43.0090629, "longitude": 1.1195059, "population": 1427, "elevation": null, "source": "osm"}, {"name": "Le Bosc", "country": "", "latitude": 42.9471182, "longitude": 1.4595868, "population": 114, "elevation": null, "source": "osm"}, {"name": "Montardit", "country": "", "latitude": 43.0714058, "longitude": 1.1976697, "population": 219, "elevation": null, "source": "osm"}, {"name": "Rivèrenert", "country": "", "latitude": 42.9573954, "longitude": 1.2295859, "population": 176, "elevation": null, "source": "osm"}, {"name": "Saurat", "country": "", "latitude": 42.8768386, "longitude": 1.5362899, "population": 678, "elevation": null, "source": "osm"}, {"name": "Rieucros", "country": "", "latitude": 43.0786222, "longitude": 1.7628129, "population": 716, "elevation": null, "source": "osm"}, {"name": "Besset", "country": "", "latitude": 43.0777198, "longitude": 1.8372817, "population": 166, "elevation": null, "source": "osm"}, {"name": "Coutens", "country": "", "latitude": 43.0749408, "longitude": 1.8251905, "population": 176, "elevation": null, "source": "osm"}, {"name": "Les Pujols", "country": "", "latitude": 43.0872827, "longitude": 1.7182536, "population": 851, "elevation": null, "source": "osm"}, {"name": "Campagne-sur-Arize", "country": "", "latitude": 43.1272892, "longitude": 1.3389026, "population": 285, "elevation": null, "source": "osm"}, {"name": "Daumazan-sur-Arize", "country": "", "latitude": 43.1444667, "longitude": 1.3068185, "population": 773, "elevation": null, "source": "osm"}, {"name": "Sabarat", "country": "", "latitude": 43.0994129, "longitude": 1.3863927, "population": 394, "elevation": null, "source": "osm"}, {"name": "Le Mas-d'Azil", "country": "", "latitude": 43.0794579, "longitude": 1.3613197, "population": 1208, "elevation": null, "source": "osm"}, {"name": "Souilhe", "country": "", "latitude": 43.3696976, "longitude": 1.9141838, "population": 329, "elevation": null, "source": "osm"}, {"name": "Arrout", "country": "", "latitude": 42.944854, "longitude": 1.0269234, "population": 92, "elevation": null, "source": "osm"}, {"name": "Balacet", "country": "", "latitude": 42.8845612, "longitude": 0.9811857, "population": 44, "elevation": null, "source": "osm"}, {"name": "Uchentein", "country": "", "latitude": 42.8878526, "longitude": 1.0010458, "population": 0, "elevation": null, "source": "osm"}, {"name": "Castillon-en-Couserans", "country": "", "latitude": 42.9213374, "longitude": 1.0308513, "population": 423, "elevation": null, "source": "osm"}, {"name": "Vira", "country": "", "latitude": 43.0515123, "longitude": 1.758539, "population": 157, "elevation": null, "source": "osm"}, {"name": "Dalou", "country": "", "latitude": 43.0330843, "longitude": 1.641696, "population": 779, "elevation": null, "source": "osm"}, {"name": "Camarade", "country": "", "latitude": 43.0857346, "longitude": 1.2861892, "population": 203, "elevation": null, "source": "osm"}, {"name": "Les Bordes-sur-Arize", "country": "", "latitude": 43.104488, "longitude": 1.370189, "population": 489, "elevation": null, "source": "osm"}, {"name": "La Bastide-de-Besplas", "country": "", "latitude": 43.1661872, "longitude": 1.2755831, "population": 377, "elevation": null, "source": "osm"}, {"name": "Lagarde", "country": "", "latitude": 43.048417, "longitude": 1.9346497, "population": 202, "elevation": null, "source": "osm"}, {"name": "Lacave", "country": "", "latitude": 43.0406651, "longitude": 0.9972411, "population": 118, "elevation": null, "source": "osm"}, {"name": "Betchat", "country": "", "latitude": 43.0912185, "longitude": 1.0107436, "population": 356, "elevation": null, "source": "osm"}, {"name": "Mercenac", "country": "", "latitude": 43.0418574, "longitude": 1.0785505, "population": 351, "elevation": null, "source": "osm"}, {"name": "Taurignan-Castet", "country": "", "latitude": 43.0410856, "longitude": 1.0907436, "population": 157, "elevation": null, "source": "osm"}, {"name": "Arnave", "country": "", "latitude": 42.8532562, "longitude": 1.6484609, "population": 215, "elevation": null, "source": "osm"}, {"name": "Bédeille", "country": "", "latitude": 43.0873579, "longitude": 1.1033499, "population": 71, "elevation": null, "source": "osm"}, {"name": "Tourtouse", "country": "", "latitude": 43.0930451, "longitude": 1.1244334, "population": 162, "elevation": null, "source": "osm"}, {"name": "Fabas", "country": "", "latitude": 43.1080429, "longitude": 1.105013, "population": 345, "elevation": null, "source": "osm"}, {"name": "Bagert", "country": "", "latitude": 43.0779305, "longitude": 1.0827285, "population": 36, "elevation": null, "source": "osm"}, {"name": "Argein", "country": "", "latitude": 42.9313459, "longitude": 0.9932753, "population": 192, "elevation": null, "source": "osm"}, {"name": "Moulis", "country": "", "latitude": 42.9604715, "longitude": 1.0924298, "population": 782, "elevation": null, "source": "osm"}, {"name": "Montégut-en-Couserans", "country": "", "latitude": 42.9819206, "longitude": 1.0933945, "population": 77, "elevation": null, "source": "osm"}, {"name": "Villeneuve", "country": "", "latitude": 42.9382895, "longitude": 0.9815856, "population": 41, "elevation": null, "source": "osm"}, {"name": "Cescau", "country": "", "latitude": 42.9315166, "longitude": 1.0384724, "population": 161, "elevation": null, "source": "osm"}, {"name": "Aucazein", "country": "", "latitude": 42.9360611, "longitude": 0.9745276, "population": 58, "elevation": null, "source": "osm"}, {"name": "Engomer", "country": "", "latitude": 42.9473325, "longitude": 1.0591912, "population": 312, "elevation": null, "source": "osm"}, {"name": "Audressein", "country": "", "latitude": 42.9290291, "longitude": 1.023398, "population": 147, "elevation": null, "source": "osm"}, {"name": "Bethmale", "country": "", "latitude": 42.8887095, "longitude": 1.055816, "population": 92, "elevation": null, "source": "osm"}, {"name": "Salsein", "country": "", "latitude": 42.9099326, "longitude": 1.0092673, "population": 47, "elevation": null, "source": "osm"}, {"name": "Balaguères", "country": "", "latitude": 42.9562169, "longitude": 1.0386531, "population": 197, "elevation": null, "source": "osm"}, {"name": "Sor", "country": "", "latitude": 42.9203775, "longitude": 1.0096276, "population": 27, "elevation": null, "source": "osm"}, {"name": "Arrien-en-Bethmale", "country": "", "latitude": 42.8963168, "longitude": 1.0416505, "population": 112, "elevation": null, "source": "osm"}, {"name": "Montoulieu", "country": "", "latitude": 42.9075309, "longitude": 1.6284436, "population": 413, "elevation": null, "source": "osm"}, {"name": "Cérizols", "country": "", "latitude": 43.1286816, "longitude": 1.0608906, "population": 139, "elevation": null, "source": "osm"}, {"name": "Leychert", "country": "", "latitude": 42.9456719, "longitude": 1.7257013, "population": 108, "elevation": null, "source": "osm"}, {"name": "Bénac", "country": "", "latitude": 42.9548257, "longitude": 1.5309366, "population": 173, "elevation": null, "source": "osm"}, {"name": "Brassac", "country": "", "latitude": 42.9460893, "longitude": 1.5368803, "population": 621, "elevation": null, "source": "osm"}, {"name": "Vernajoul", "country": "", "latitude": 42.9857777, "longitude": 1.6056397, "population": 710, "elevation": null, "source": "osm"}, {"name": "Boussenac", "country": "", "latitude": 42.9003627, "longitude": 1.3404767, "population": 233, "elevation": null, "source": "osm"}, {"name": "Saint-Martin-de-Caralp", "country": "", "latitude": 42.9905954, "longitude": 1.543715, "population": 367, "elevation": null, "source": "osm"}, {"name": "Alzen", "country": "", "latitude": 42.9889728, "longitude": 1.4718402, "population": 266, "elevation": null, "source": "osm"}, {"name": "Pailhès", "country": "", "latitude": 43.1024911, "longitude": 1.4427612, "population": 499, "elevation": null, "source": "osm"}, {"name": "Montégut-Plantaurel", "country": "", "latitude": 43.0679462, "longitude": 1.491242, "population": 327, "elevation": null, "source": "osm"}, {"name": "Sainte-Croix-Volvestre", "country": "", "latitude": 43.1263293, "longitude": 1.1738659, "population": 641, "elevation": null, "source": "osm"}, {"name": "Artigat", "country": "", "latitude": 43.1354732, "longitude": 1.4402561, "population": 558, "elevation": null, "source": "osm"}, {"name": "Escosse", "country": "", "latitude": 43.1237831, "longitude": 1.549689, "population": 364, "elevation": null, "source": "osm"}, {"name": "Lescousse", "country": "", "latitude": 43.1535296, "longitude": 1.5123116, "population": 81, "elevation": null, "source": "osm"}, {"name": "Saint-Martin-d'Oydes", "country": "", "latitude": 43.1696911, "longitude": 1.4955874, "population": 241, "elevation": null, "source": "osm"}, {"name": "Saint-Michel", "country": "", "latitude": 43.1348771, "longitude": 1.501896, "population": 86, "elevation": null, "source": "osm"}, {"name": "Unzent", "country": "", "latitude": 43.1746971, "longitude": 1.5280412, "population": 117, "elevation": null, "source": "osm"}, {"name": "Esplas", "country": "", "latitude": 43.1881441, "longitude": 1.4995397, "population": 106, "elevation": null, "source": "osm"}, {"name": "Cadarcet", "country": "", "latitude": 43.0139106, "longitude": 1.4995835, "population": 216, "elevation": null, "source": "osm"}, {"name": "Dun", "country": "", "latitude": 43.0277954, "longitude": 1.8006599, "population": 642, "elevation": null, "source": "osm"}, {"name": "Limbrassac", "country": "", "latitude": 43.0171346, "longitude": 1.8441446, "population": 120, "elevation": null, "source": "osm"}, {"name": "Pradettes", "country": "", "latitude": 42.9893827, "longitude": 1.8195055, "population": 44, "elevation": null, "source": "osm"}, {"name": "Le Vernet", "country": "", "latitude": 43.1858975, "longitude": 1.6014216, "population": 704, "elevation": null, "source": "osm"}, {"name": "Malegoude", "country": "", "latitude": 43.1128218, "longitude": 1.938947, "population": 40, "elevation": null, "source": "osm"}, {"name": "Sainte-Foi", "country": "", "latitude": 43.1282349, "longitude": 1.915015, "population": 30, "elevation": null, "source": "osm"}, {"name": "Moulin-Neuf", "country": "", "latitude": 43.0765378, "longitude": 1.9476264, "population": 238, "elevation": null, "source": "osm"}, {"name": "Cazals-des-Baylès", "country": "", "latitude": 43.0873885, "longitude": 1.9471114, "population": 56, "elevation": null, "source": "osm"}, {"name": "Roumengoux", "country": "", "latitude": 43.07163, "longitude": 1.9350093, "population": 165, "elevation": null, "source": "osm"}, {"name": "Cos", "country": "", "latitude": 42.9768891, "longitude": 1.568609, "population": 368, "elevation": null, "source": "osm"}, {"name": "Sainte-Colombe-sur-l'Hers", "country": "", "latitude": 42.9521302, "longitude": 1.9661803, "population": 441, "elevation": null, "source": "osm"}, {"name": "Aigues-Vives", "country": "", "latitude": 42.9955309, "longitude": 1.8757809, "population": 634, "elevation": null, "source": "osm"}, {"name": "Troye-d'Ariège", "country": "", "latitude": 43.0272619, "longitude": 1.8786818, "population": 108, "elevation": null, "source": "osm"}, {"name": "Cazavet", "country": "", "latitude": 43.0033009, "longitude": 1.0437476, "population": 196, "elevation": null, "source": "osm"}, {"name": "Mauvezin-de-Prat", "country": "", "latitude": 43.0306771, "longitude": 0.9961747, "population": 101, "elevation": null, "source": "osm"}, {"name": "La Bastide-du-Salat", "country": "", "latitude": 43.0563964, "longitude": 0.9870103, "population": 202, "elevation": null, "source": "osm"}, {"name": "Quié", "country": "", "latitude": 42.8453556, "longitude": 1.5933023, "population": 298, "elevation": null, "source": "osm"}, {"name": "Villeneuve-du-Paréage", "country": "", "latitude": 43.1547725, "longitude": 1.6374338, "population": 765, "elevation": null, "source": "osm"}, {"name": "Saint-Félix-de-Tournegat", "country": "", "latitude": 43.1311859, "longitude": 1.748013, "population": 152, "elevation": null, "source": "osm"}, {"name": "Ludiès", "country": "", "latitude": 43.1177399, "longitude": 1.7142078, "population": 96, "elevation": null, "source": "osm"}, {"name": "Le Carlaret", "country": "", "latitude": 43.1283291, "longitude": 1.7103781, "population": 274, "elevation": null, "source": "osm"}, {"name": "Saint-Amadou", "country": "", "latitude": 43.1113034, "longitude": 1.7237896, "population": 261, "elevation": null, "source": "osm"}, {"name": "Montaut", "country": "", "latitude": 43.1875818, "longitude": 1.6436147, "population": 695, "elevation": null, "source": "osm"}, {"name": "Castelnau-Durban", "country": "", "latitude": 43.0004704, "longitude": 1.3406998, "population": 454, "elevation": null, "source": "osm"}, {"name": "Montjoie-en-Couserans", "country": "", "latitude": 42.9993988, "longitude": 1.1609641, "population": 1002, "elevation": null, "source": "osm"}, {"name": "Montels", "country": "", "latitude": 43.0055179, "longitude": 1.4711029, "population": 151, "elevation": null, "source": "osm"}, {"name": "Suzan", "country": "", "latitude": 43.026063, "longitude": 1.4364822, "population": 20, "elevation": null, "source": "osm"}, {"name": "Mauvezin-de-Sainte-Croix", "country": "", "latitude": 43.0787102, "longitude": 1.2285624, "population": 51, "elevation": null, "source": "osm"}, {"name": "Thouars-sur-Arize", "country": "", "latitude": 43.1852605, "longitude": 1.2414059, "population": 43, "elevation": null, "source": "osm"}, {"name": "Fornex", "country": "", "latitude": 43.1667563, "longitude": 1.24732, "population": 110, "elevation": null, "source": "osm"}, {"name": "Cazaux", "country": "", "latitude": 43.052569, "longitude": 1.5096567, "population": 41, "elevation": null, "source": "osm"}, {"name": "Loubens", "country": "", "latitude": 43.0446009, "longitude": 1.5457108, "population": 286, "elevation": null, "source": "osm"}, {"name": "Crampagna", "country": "", "latitude": 43.0286717, "longitude": 1.607383, "population": 924, "elevation": null, "source": "osm"}, {"name": "Loubières", "country": "", "latitude": 43.0084823, "longitude": 1.6010439, "population": 358, "elevation": null, "source": "osm"}, {"name": "Baulou", "country": "", "latitude": 43.0156398, "longitude": 1.5334081, "population": 167, "elevation": null, "source": "osm"}, {"name": "Aigues-Juntes", "country": "", "latitude": 43.0558896, "longitude": 1.4705075, "population": 58, "elevation": null, "source": "osm"}, {"name": "Gabre", "country": "", "latitude": 43.0753365, "longitude": 1.4175557, "population": 124, "elevation": null, "source": "osm"}, {"name": "Allières", "country": "", "latitude": 43.0361187, "longitude": 1.3662951, "population": 74, "elevation": null, "source": "osm"}, {"name": "Durban-sur-Arize", "country": "", "latitude": 43.0186057, "longitude": 1.3445463, "population": 176, "elevation": null, "source": "osm"}, {"name": "Montseron", "country": "", "latitude": 43.0114866, "longitude": 1.3295759, "population": 106, "elevation": null, "source": "osm"}, {"name": "Clermont", "country": "", "latitude": 43.0388329, "longitude": 1.2996425, "population": 117, "elevation": null, "source": "osm"}, {"name": "Montfa", "country": "", "latitude": 43.0988754, "longitude": 1.2845632, "population": 90, "elevation": null, "source": "osm"}, {"name": "Saint-Ybars", "country": "", "latitude": 43.2379894, "longitude": 1.3860534, "population": 688, "elevation": 290.0, "source": "osm"}, {"name": "Sainte-Suzanne", "country": "", "latitude": 43.2103396, "longitude": 1.3876563, "population": 239, "elevation": null, "source": "osm"}, {"name": "Saint-Quirc", "country": "", "latitude": 43.2763259, "longitude": 1.5024749, "population": 370, "elevation": null, "source": "osm"}, {"name": "Lissac", "country": "", "latitude": 43.2691762, "longitude": 1.5111157, "population": 245, "elevation": null, "source": "osm"}, {"name": "Labatut", "country": "", "latitude": 43.2615137, "longitude": 1.5164372, "population": 177, "elevation": null, "source": "osm"}, {"name": "Canté", "country": "", "latitude": 43.2548287, "longitude": 1.5326515, "population": 202, "elevation": null, "source": "osm"}, {"name": "Brie", "country": "", "latitude": 43.2058369, "longitude": 1.5180751, "population": 210, "elevation": null, "source": "osm"}, {"name": "Bonnac", "country": "", "latitude": 43.1653318, "longitude": 1.5940375, "population": 783, "elevation": null, "source": "osm"}, {"name": "Mérigon", "country": "", "latitude": 43.0878482, "longitude": 1.1934468, "population": 111, "elevation": null, "source": "osm"}, {"name": "Contrazy", "country": "", "latitude": 43.059419, "longitude": 1.2144882, "population": 67, "elevation": null, "source": "osm"}, {"name": "Montesquieu-Avantès", "country": "", "latitude": 43.0231973, "longitude": 1.1969967, "population": 257, "elevation": null, "source": "osm"}, {"name": "Lasserre", "country": "", "latitude": 43.0720137, "longitude": 1.1727739, "population": 252, "elevation": null, "source": "osm"}, {"name": "Taurignan-Vieux", "country": "", "latitude": 43.0290818, "longitude": 1.1154994, "population": 208, "elevation": null, "source": "osm"}, {"name": "Artix", "country": "", "latitude": 43.0685487, "longitude": 1.5652481, "population": 115, "elevation": null, "source": "osm"}, {"name": "Le Prieu", "country": "", "latitude": 43.0771041, "longitude": 1.5715659, "population": 58, "elevation": null, "source": "osm"}, {"name": "Benagues", "country": "", "latitude": 43.0773414, "longitude": 1.6102691, "population": 515, "elevation": null, "source": "osm"}, {"name": "Saint-Victor-Rouzaud", "country": "", "latitude": 43.0931178, "longitude": 1.5522606, "population": 219, "elevation": null, "source": "osm"}, {"name": "Monesple", "country": "", "latitude": 43.1005703, "longitude": 1.4643362, "population": 27, "elevation": null, "source": "osm"}, {"name": "Madière", "country": "", "latitude": 43.1062141, "longitude": 1.5147264, "population": 261, "elevation": null, "source": "osm"}, {"name": "Lanoux", "country": "", "latitude": 43.1179013, "longitude": 1.4245145, "population": 58, "elevation": null, "source": "osm"}, {"name": "Castéras", "country": "", "latitude": 43.1289947, "longitude": 1.3994733, "population": 22, "elevation": null, "source": "osm"}, {"name": "Castex", "country": "", "latitude": 43.1650645, "longitude": 1.3139499, "population": 95, "elevation": null, "source": "osm"}, {"name": "Loubaut", "country": "", "latitude": 43.1889432, "longitude": 1.2849447, "population": 26, "elevation": null, "source": "osm"}, {"name": "Méras", "country": "", "latitude": 43.1820072, "longitude": 1.3114917, "population": 100, "elevation": null, "source": "osm"}, {"name": "Sieuras", "country": "", "latitude": 43.1839066, "longitude": 1.3374513, "population": 97, "elevation": null, "source": "osm"}, {"name": "Bézac", "country": "", "latitude": 43.1485929, "longitude": 1.5753874, "population": 467, "elevation": null, "source": "osm"}, {"name": "Saint-Amans", "country": "", "latitude": 43.1571597, "longitude": 1.5471304, "population": 0, "elevation": null, "source": "osm"}, {"name": "Durfort", "country": "", "latitude": 43.2062764, "longitude": 1.4572131, "population": 184, "elevation": null, "source": "osm"}, {"name": "Justiniac", "country": "", "latitude": 43.2121943, "longitude": 1.4922892, "population": 59, "elevation": null, "source": "osm"}, {"name": "Le Fossat", "country": "", "latitude": 43.1740986, "longitude": 1.4065487, "population": 1051, "elevation": null, "source": "osm"}, {"name": "Villeneuve-du-Latou", "country": "", "latitude": 43.2037587, "longitude": 1.4324414, "population": 154, "elevation": null, "source": "osm"}, {"name": "Belloc", "country": "", "latitude": 43.0136924, "longitude": 1.9303451, "population": 83, "elevation": null, "source": "osm"}, {"name": "Manses", "country": "", "latitude": 43.100189, "longitude": 1.8123984, "population": 117, "elevation": null, "source": "osm"}, {"name": "Lapenne", "country": "", "latitude": 43.1460545, "longitude": 1.7498603, "population": 119, "elevation": null, "source": "osm"}, {"name": "Gaudiès", "country": "", "latitude": 43.1759575, "longitude": 1.73124, "population": 240, "elevation": null, "source": "osm"}, {"name": "La Bastide-sur-l'Hers", "country": "", "latitude": 42.95633, "longitude": 1.9089971, "population": 674, "elevation": null, "source": "osm"}, {"name": "Le Peyrat", "country": "", "latitude": 42.9557283, "longitude": 1.9201091, "population": 486, "elevation": null, "source": "osm"}, {"name": "Régat", "country": "", "latitude": 42.9890758, "longitude": 1.8865313, "population": 89, "elevation": null, "source": "osm"}, {"name": "Saint-Paul-de-Jarrat", "country": "", "latitude": 42.9122162, "longitude": 1.6609269, "population": 1346, "elevation": null, "source": "osm"}, {"name": "Freychenet", "country": "", "latitude": 42.9083494, "longitude": 1.7196175, "population": 82, "elevation": null, "source": "osm"}, {"name": "Péreille", "country": "", "latitude": 42.9360519, "longitude": 1.8050241, "population": 190, "elevation": null, "source": "osm"}, {"name": "Sautel", "country": "", "latitude": 42.9766263, "longitude": 1.8097712, "population": 127, "elevation": null, "source": "osm"}, {"name": "Esclagne", "country": "", "latitude": 42.9804601, "longitude": 1.8491683, "population": 124, "elevation": null, "source": "osm"}, {"name": "Saint-Quentin-la-Tour", "country": "", "latitude": 43.0328307, "longitude": 1.900377, "population": 329, "elevation": null, "source": "osm"}, {"name": "Saint-Julien-de-Gras-Capou", "country": "", "latitude": 43.0373214, "longitude": 1.8562155, "population": 79, "elevation": null, "source": "osm"}, {"name": "Saint-Sernin", "country": "", "latitude": 43.2332948, "longitude": 1.8034485, "population": 42, "elevation": null, "source": "osm"}, {"name": "Ilhat", "country": "", "latitude": 42.9590648, "longitude": 1.779972, "population": 125, "elevation": null, "source": "osm"}, {"name": "Lieurac", "country": "", "latitude": 42.9823862, "longitude": 1.7870836, "population": 184, "elevation": null, "source": "osm"}, {"name": "Roquefort-les-Cascades", "country": "", "latitude": 42.9581815, "longitude": 1.7630588, "population": 86, "elevation": null, "source": "osm"}, {"name": "Pradières", "country": "", "latitude": 42.9665045, "longitude": 1.6520469, "population": 123, "elevation": null, "source": "osm"}, {"name": "Arabaux", "country": "", "latitude": 42.9846967, "longitude": 1.6429941, "population": 80, "elevation": null, "source": "osm"}, {"name": "L'Herm", "country": "", "latitude": 42.9724292, "longitude": 1.6858757, "population": 192, "elevation": null, "source": "osm"}, {"name": "Saint-Jean-de-Verges", "country": "", "latitude": 43.0123688, "longitude": 1.6114072, "population": 1291, "elevation": null, "source": "osm"}, {"name": "Ségura", "country": "", "latitude": 43.0368275, "longitude": 1.6907194, "population": 191, "elevation": null, "source": "osm"}, {"name": "Coussa", "country": "", "latitude": 43.0640206, "longitude": 1.679778, "population": 290, "elevation": null, "source": "osm"}, {"name": "Trémoulet", "country": "", "latitude": 43.157658, "longitude": 1.716891, "population": 113, "elevation": null, "source": "osm"}, {"name": "Vals", "country": "", "latitude": 43.0962069, "longitude": 1.7602709, "population": 88, "elevation": null, "source": "osm"}, {"name": "Teilhet", "country": "", "latitude": 43.0925142, "longitude": 1.7776985, "population": 159, "elevation": null, "source": "osm"}, {"name": "Les Issards", "country": "", "latitude": 43.0783483, "longitude": 1.7355451, "population": 250, "elevation": null, "source": "osm"}, {"name": "Tourtrol", "country": "", "latitude": 43.0685992, "longitude": 1.7989808, "population": 253, "elevation": null, "source": "osm"}, {"name": "Arvigna", "country": "", "latitude": 43.0613941, "longitude": 1.738846, "population": 230, "elevation": null, "source": "osm"}, {"name": "Malléon", "country": "", "latitude": 43.0317832, "longitude": 1.7113292, "population": 81, "elevation": null, "source": "osm"}, {"name": "Calzan", "country": "", "latitude": 43.0389279, "longitude": 1.7376043, "population": 41, "elevation": null, "source": "osm"}, {"name": "Viviès", "country": "", "latitude": 43.064114, "longitude": 1.7831595, "population": 154, "elevation": null, "source": "osm"}, {"name": "Mercus-Garrabet", "country": "", "latitude": 42.8797454, "longitude": 1.6305693, "population": 1215, "elevation": null, "source": "osm"}, {"name": "Tabre", "country": "", "latitude": 42.989453, "longitude": 1.8592376, "population": 347, "elevation": null, "source": "osm"}, {"name": "Gourvieille", "country": "", "latitude": 43.3396691, "longitude": 1.782792, "population": 73, "elevation": null, "source": "osm"}, {"name": "Montgauch", "country": "", "latitude": 43.0019816, "longitude": 1.0787444, "population": 116, "elevation": null, "source": "osm"}, {"name": "Alos", "country": "", "latitude": 42.907309, "longitude": 1.1438308, "population": 118, "elevation": null, "source": "osm"}, {"name": "Erp", "country": "", "latitude": 42.941803, "longitude": 1.2012713, "population": 132, "elevation": null, "source": "osm"}, {"name": "Soulan", "country": "", "latitude": 42.9129549, "longitude": 1.232764, "population": 382, "elevation": null, "source": "osm"}, {"name": "Esplas-de-Sérou", "country": "", "latitude": 42.9756869, "longitude": 1.3775051, "population": 175, "elevation": null, "source": "osm"}, {"name": "Larbont", "country": "", "latitude": 42.9929363, "longitude": 1.3960362, "population": 61, "elevation": null, "source": "osm"}, {"name": "Nescus", "country": "", "latitude": 42.991839, "longitude": 1.4315107, "population": 59, "elevation": null, "source": "osm"}, {"name": "Soueix", "country": "", "latitude": 42.89261, "longitude": 1.21057, "population": 429, "elevation": null, "source": "osm"}, {"name": "Rieux-de-Pelleport", "country": "", "latitude": 43.05682, "longitude": 1.60909, "population": 1268, "elevation": null, "source": "osm"}, {"name": "Ussat", "country": "", "latitude": 42.83029, "longitude": 1.6194, "population": 309, "elevation": null, "source": "osm"}, {"name": "Capens", "country": "", "latitude": 43.33602, "longitude": 1.25844, "population": 664, "elevation": null, "source": "osm"}, {"name": "Francazal", "country": "", "latitude": 43.01836, "longitude": 0.99581, "population": 29, "elevation": null, "source": "osm"}, {"name": "Ganac", "country": "", "latitude": 42.9471082, "longitude": 1.5624514, "population": 734, "elevation": null, "source": "osm"}, {"name": "Montagagne", "country": "", "latitude": 42.9758135, "longitude": 1.4108641, "population": 79, "elevation": null, "source": "osm"}, {"name": "Sentenac-de-Sérou", "country": "", "latitude": 42.9724529, "longitude": 1.3880934, "population": 53, "elevation": null, "source": "osm"}, {"name": "Bédeilhac", "country": "", "latitude": 42.8724554, "longitude": 1.5643824, "population": 197, "elevation": null, "source": "osm"}, {"name": "Gourbit", "country": "", "latitude": 42.84353, "longitude": 1.53231, "population": 75, "elevation": null, "source": "osm"}, {"name": "Surba", "country": "", "latitude": 42.858816, "longitude": 1.5759531, "population": 326, "elevation": null, "source": "osm"}, {"name": "Rabat-les-Trois-Seigneurs", "country": "", "latitude": 42.8555, "longitude": 1.55279, "population": 366, "elevation": null, "source": "osm"}, {"name": "Arignac", "country": "", "latitude": 42.87051, "longitude": 1.60011, "population": 712, "elevation": null, "source": "osm"}, {"name": "Ferrières-sur-Ariège", "country": "", "latitude": 42.9427221, "longitude": 1.6164435, "population": 761, "elevation": null, "source": "osm"}, {"name": "Sentenac-d'Oust", "country": "", "latitude": 42.8761403, "longitude": 1.1776675, "population": 104, "elevation": null, "source": "osm"}, {"name": "Lescuns", "country": "", "latitude": 43.2409, "longitude": 1.0127, "population": 74, "elevation": null, "source": "osm"}, {"name": "Prayols", "country": "", "latitude": 42.9261437, "longitude": 1.624453, "population": 367, "elevation": null, "source": "osm"}, {"name": "Lahitère", "country": "", "latitude": 43.138684, "longitude": 1.1929686, "population": 57, "elevation": null, "source": "osm"}, {"name": "Aleu", "country": "", "latitude": 42.8925049, "longitude": 1.2661976, "population": 126, "elevation": null, "source": "osm"}, {"name": "Burret", "country": "", "latitude": 42.953612, "longitude": 1.4804851, "population": 44, "elevation": null, "source": "osm"}, {"name": "Léran", "country": "", "latitude": 42.9887383, "longitude": 1.9109191, "population": 617, "elevation": null, "source": "osm"}, {"name": "Pamiers", "country": "", "latitude": 43.1147515, "longitude": 1.6082177, "population": 16394, "elevation": null, "source": "osm"}, {"name": "Rogalle", "country": "", "latitude": 42.8892613, "longitude": 1.191655, "population": 0, "elevation": null, "source": "osm"}, {"name": "Calmont", "country": "", "latitude": 43.287009, "longitude": 1.6333671, "population": 2393, "elevation": null, "source": "osm"}, {"name": "Le Ségala", "country": "", "latitude": 43.3396208, "longitude": 1.8360491, "population": 0, "elevation": null, "source": "osm"}, {"name": "Serres-sur-Arget", "country": "", "latitude": 42.9692608, "longitude": 1.5189894, "population": 725, "elevation": null, "source": "osm"}, {"name": "Picarrou", "country": "", "latitude": 43.2935834, "longitude": 1.5723091, "population": 0, "elevation": null, "source": "osm"}, {"name": "Balagué", "country": "", "latitude": 42.9657952, "longitude": 1.0204511, "population": 0, "elevation": null, "source": "osm"}, {"name": "Sentaraille", "country": "", "latitude": 43.028088, "longitude": 1.1057968, "population": 0, "elevation": null, "source": "osm"}, {"name": "Saint-Lizier", "country": "", "latitude": 43.0025191, "longitude": 1.1354926, "population": 1377, "elevation": null, "source": "osm"}, {"name": "Encourtiech", "country": "", "latitude": 42.958512, "longitude": 1.1827845, "population": 95, "elevation": null, "source": "osm"}, {"name": "Bonrepaux", "country": "", "latitude": 43.0396917, "longitude": 1.0337529, "population": 0, "elevation": null, "source": "osm"}, {"name": "Allens", "country": "", "latitude": 42.8448987, "longitude": 1.6682562, "population": 0, "elevation": null, "source": "osm"}, {"name": "Serres", "country": "", "latitude": 42.8495257, "longitude": 1.6638476, "population": 0, "elevation": null, "source": "osm"}, {"name": "Caussidières", "country": "", "latitude": 43.3835455, "longitude": 1.5681551, "population": 0, "elevation": null, "source": "osm"}, {"name": "Les Bordes-sur-Lez", "country": "", "latitude": 42.8984626, "longitude": 1.0299131, "population": 213, "elevation": null, "source": "osm"}, {"name": "Aynat", "country": "", "latitude": 42.8784967, "longitude": 1.5639237, "population": 0, "elevation": null, "source": "osm"}, {"name": "Antras", "country": "", "latitude": 42.8945706, "longitude": 1.6629226, "population": 0, "elevation": null, "source": "osm"}, {"name": "Fougax", "country": "", "latitude": 42.8850877, "longitude": 1.8985695, "population": 0, "elevation": null, "source": "osm"}, {"name": "Cazenave", "country": "", "latitude": 42.8401507, "longitude": 1.672169, "population": 61, "elevation": null, "source": "osm"}, {"name": "Belpech", "country": "", "latitude": 43.199838, "longitude": 1.7489289, "population": 0, "elevation": null, "source": "osm"}, {"name": "Le Port", "country": "", "latitude": 42.8693359, "longitude": 1.3729744, "population": 0, "elevation": null, "source": "osm"}]