[{"name": "Cremona", "country": "", "latitude": 45.1334796, "longitude": 10.0248716, "population": 59561, "elevation": 45.0, "source": "osm"}, {"name": "Mantova", "country": "", "latitude": 45.1566683, "longitude": 10.7917191, "population": 47790, "elevation": null, "source": "osm"}, {"name": "Cigole", "country": "", "latitude": 45.3086363, "longitude": 10.1893747, "population": 1523, "elevation": null, "source": "osm"}, {"name": "Acquafredda", "country": "", "latitude": 45.307378, "longitude": 10.414677, "population": 1409, "elevation": null, "source": "osm"}, {"name": "Alfianello", "country": "", "latitude": 45.266975, "longitude": 10.148172, "population": 2347, "elevation": null, "source": "osm"}, {"name": "Manerbio", "country": "", "latitude": 45.355777, "longitude": 10.13517, "population": 12611, "elevation": null, "source": "osm"}, {"name": "Milzano", "country": "", "latitude": 45.273575, "longitude": 10.199273, "population": 1483, "elevation": null, "source": "osm"}, {"name": "Orzivecchi", "country": "", "latitude": 45.4206595, "longitude": 9.9617289, "population": 2286, "elevation": null, "source": "osm"}, {"name": "Orzinuovi", "country": "", "latitude": 45.4020363, "longitude": 9.9243428, "population": 11175, "elevation": null, "source": "osm"}, {"name": "San Paolo", "country": "", "latitude": 45.370576, "longitude": 10.026767, "population": 3884, "elevation": null, "source": "osm"}, {"name": "Gambara", "country": "", "latitude": 45.2552458, "longitude": 10.2934106, "population": 4533, "elevation": null, "source": "osm"}, {"name": "Ghedi", "country": "", "latitude": 45.4015124, "longitude": 10.2768169, "population": 15627, "elevation": null, "source": "osm"}, {"name": "Gottolengo", "country": "", "latitude": 45.2910328, "longitude": 10.2698286, "population": 4933, "elevation": null, "source": "osm"}, {"name": "Isorella", "country": "", "latitude": 45.3091728, "longitude": 10.3221777, "population": 3533, "elevation": null, "source": "osm"}, {"name": "San Gervasio Bresciano", "country": "", "latitude": 45.307376, "longitude": 10.148671, "population": 2485, "elevation": null, "source": "osm"}, {"name": "Pozzolengo", "country": "", "latitude": 45.4059696, "longitude": 10.6313729, "population": 2900, "elevation": null, "source": "osm"}, {"name": "Verolanuova", "country": "", "latitude": 45.3285814, "longitude": 10.0760863, "population": 7539, "elevation": null, "source": "osm"}, {"name": "Borgo San Giacomo", "country": "", "latitude": 45.346975, "longitude": 9.968467, "population": 4603, "elevation": null, "source": "osm"}, {"name": "Bagnolo Mella", "country": "", "latitude": 45.429079, "longitude": 10.18437, "population": 11375, "elevation": null, "source": "osm"}, {"name": "Barbariga", "country": "", "latitude": 45.4054188, "longitude": 10.0548109, "population": 2180, "elevation": null, "source": "osm"}, {"name": "Bassano Bresciano", "country": "", "latitude": 45.327176, "longitude": 10.12837, "population": 1800, "elevation": null, "source": "osm"}, {"name": "Leno", "country": "", "latitude": 45.3670119, "longitude": 10.2184518, "population": 12541, "elevation": null, "source": "osm"}, {"name": "Montichiari", "country": "", "latitude": 45.415181, "longitude": 10.390675, "population": 19101, "elevation": null, "source": "osm"}, {"name": "Fiesse", "country": "", "latitude": 45.231475, "longitude": 10.324177, "population": 1931, "elevation": null, "source": "osm"}, {"name": "Carpenedolo", "country": "", "latitude": 45.3646065, "longitude": 10.4293846, "population": 13024, "elevation": null, "source": "osm"}, {"name": "Calvisano", "country": "", "latitude": 45.3480525, "longitude": 10.345921, "population": 7416, "elevation": null, "source": "osm"}, {"name": "Seniga", "country": "", "latitude": 45.242674, "longitude": 10.177973, "population": 1573, "elevation": null, "source": "osm"}, {"name": "Verolavecchia", "country": "", "latitude": 45.3270123, "longitude": 10.0572562, "population": 3814, "elevation": null, "source": "osm"}, {"name": "Villachiara", "country": "", "latitude": 45.355375, "longitude": 9.930966, "population": 1239, "elevation": null, "source": "osm"}, {"name": "Quinzano d'Oglio", "country": "", "latitude": 45.310875, "longitude": 10.008568, "population": 5851, "elevation": null, "source": "osm"}, {"name": "Pavone del Mella", "country": "", "latitude": 45.3012594, "longitude": 10.2084735, "population": 2595, "elevation": null, "source": "osm"}, {"name": "Pontevico", "country": "", "latitude": 45.274374, "longitude": 10.092471, "population": 6484, "elevation": null, "source": "osm"}, {"name": "Pralboino", "country": "", "latitude": 45.2679989, "longitude": 10.2174131, "population": 2622, "elevation": null, "source": "osm"}, {"name": "Offlaga", "country": "", "latitude": 45.3861328, "longitude": 10.117457, "population": 3365, "elevation": null, "source": "osm"}, {"name": "Visano", "country": "", "latitude": 45.318378, "longitude": 10.372376, "population": 1700, "elevation": null, "source": "osm"}, {"name": "Corte de' Cortesi", "country": "", "latitude": 45.2730795, "longitude": 10.0070561, "population": 993, "elevation": null, "source": "osm"}, {"name": "Casalbuttano", "country": "", "latitude": 45.251873, "longitude": 9.961668, "population": 4093, "elevation": null, "source": "osm"}, {"name": "Ca' De Mari", "country": "", "latitude": 45.1568734, "longitude": 10.1156022, "population": 1634, "elevation": null, "source": "osm"}, {"name": "Gabbioneta", "country": "", "latitude": 45.2161874, "longitude": 10.2215208, "population": 845, "elevation": null, "source": "osm"}, {"name": "Pozzaglio", "country": "", "latitude": 45.2003707, "longitude": 10.0503375, "population": 1202, "elevation": null, "source": "osm"}, {"name": "Pescarolo", "country": "", "latitude": 45.1949504, "longitude": 10.1866296, "population": 1621, "elevation": null, "source": "osm"}, {"name": "Persico Dosimo", "country": "", "latitude": 45.1823484, "longitude": 10.0892489, "population": 2657, "elevation": null, "source": "osm"}, {"name": "Gerre de' Caprioli", "country": "", "latitude": 45.0902086, "longitude": 10.0514072, "population": 0, "elevation": null, "source": "osm"}, {"name": "Sesto Cremonese", "country": "", "latitude": 45.1764963, "longitude": 9.9148339, "population": 3113, "elevation": null, "source": "osm"}, {"name": "Rivarolo del Re ed Uniti", "country": "", "latitude": 45.027972, "longitude": 10.469783, "population": 1919, "elevation": null, "source": "osm"}, {"name": "Azzanello", "country": "", "latitude": 45.3128687, "longitude": 9.9215972, "population": 670, "elevation": null, "source": "osm"}, {"name": "Bordolano", "country": "", "latitude": 45.2939854, "longitude": 9.9867101, "population": 567, "elevation": null, "source": "osm"}, {"name": "Bonemerse", "country": "", "latitude": 45.11367, "longitude": 10.077473, "population": 1490, "elevation": null, "source": "osm"}, {"name": "Volongo", "country": "", "latitude": 45.2122916, "longitude": 10.3018212, "population": 620, "elevation": null, "source": "osm"}, {"name": "Torre de' Picenardi", "country": "", "latitude": 45.143573, "longitude": 10.286877, "population": 2104, "elevation": null, "source": "osm"}, {"name": "Tornata", "country": "", "latitude": 45.104373, "longitude": 10.430781, "population": 521, "elevation": null, "source": "osm"}, {"name": "Stagno Lombardo", "country": "", "latitude": 45.0731571, "longitude": 10.0892046, "population": 1587, "elevation": null, "source": "osm"}, {"name": "Spineda", "country": "", "latitude": 45.0603009, "longitude": 10.5133806, "population": 620, "elevation": null, "source": "osm"}, {"name": "Spinadesco", "country": "", "latitude": 45.1487508, "longitude": 9.9296724, "population": 1574, "elevation": null, "source": "osm"}, {"name": "Pieve San Giacomo", "country": "", "latitude": 45.1294621, "longitude": 10.1876161, "population": 1424, "elevation": null, "source": "osm"}, {"name": "Pieve d'Olmi", "country": "", "latitude": 45.08957, "longitude": 10.123675, "population": 1315, "elevation": null, "source": "osm"}, {"name": "Piadena", "country": "", "latitude": 45.1308551, "longitude": 10.3687468, "population": 3432, "elevation": null, "source": "osm"}, {"name": "Corte de' Frati", "country": "", "latitude": 45.2200295, "longitude": 10.0966845, "population": 1368, "elevation": null, "source": "osm"}, {"name": "Castelverde", "country": "", "latitude": 45.188771, "longitude": 9.99557, "population": 5561, "elevation": null, "source": "osm"}, {"name": "Castelvisconti", "country": "", "latitude": 45.305374, "longitude": 9.941067, "population": 350, "elevation": null, "source": "osm"}, {"name": "Casalmorano", "country": "", "latitude": 45.286373, "longitude": 9.899666, "population": 1653, "elevation": null, "source": "osm"}, {"name": "Cappella de' Picenardi", "country": "", "latitude": 45.158573, "longitude": 10.229976, "population": 424, "elevation": null, "source": "osm"}, {"name": "Casalmaggiore", "country": "", "latitude": 44.9863857, "longitude": 10.4153504, "population": 15265, "elevation": null, "source": "osm"}, {"name": "Calvatone", "country": "", "latitude": 45.128574, "longitude": 10.441281, "population": 1248, "elevation": null, "source": "osm"}, {"name": "San Giovanni in Croce", "country": "", "latitude": 45.078872, "longitude": 10.37518, "population": 1543, "elevation": null, "source": "osm"}, {"name": "San Daniele Po", "country": "", "latitude": 45.06377, "longitude": 10.182276, "population": 1412, "elevation": null, "source": "osm"}, {"name": "Scandolara Ravara", "country": "", "latitude": 45.0531197, "longitude": 10.3016995, "population": 1585, "elevation": null, "source": "osm"}, {"name": "San Martino del Lago", "country": "", "latitude": 45.0732478, "longitude": 10.3168597, "population": 476, "elevation": null, "source": "osm"}, {"name": "Malagnino", "country": "", "latitude": 45.134771, "longitude": 10.114774, "population": 1145, "elevation": null, "source": "osm"}, {"name": "Motta Baluffi", "country": "", "latitude": 45.0550973, "longitude": 10.2592469, "population": 987, "elevation": null, "source": "osm"}, {"name": "Paderno Ponchielli", "country": "", "latitude": 45.238872, "longitude": 9.930268, "population": 1499, "elevation": null, "source": "osm"}, {"name": "Drizzona", "country": "", "latitude": 45.142174, "longitude": 10.350279, "population": 371, "elevation": null, "source": "osm"}, {"name": "Grontardo", "country": "", "latitude": 45.201873, "longitude": 10.150773, "population": 1301, "elevation": null, "source": "osm"}, {"name": "Isola Dovarese", "country": "", "latitude": 45.1762691, "longitude": 10.3129568, "population": 1243, "elevation": null, "source": "osm"}, {"name": "Cingia de' Botti", "country": "", "latitude": 45.085071, "longitude": 10.275478, "population": 1277, "elevation": null, "source": "osm"}, {"name": "Derovere", "country": "", "latitude": 45.109972, "longitude": 10.247977, "population": 350, "elevation": null, "source": "osm"}, {"name": "Casteldidone", "country": "", "latitude": 45.069472, "longitude": 10.406281, "population": 569, "elevation": null, "source": "osm"}, {"name": "Cella Dati", "country": "", "latitude": 45.095271, "longitude": 10.221477, "population": 584, "elevation": null, "source": "osm"}, {"name": "Cicognolo", "country": "", "latitude": 45.164573, "longitude": 10.194575, "population": 850, "elevation": null, "source": "osm"}, {"name": "Ostiano", "country": "", "latitude": 45.220775, "longitude": 10.252075, "population": 3018, "elevation": null, "source": "osm"}, {"name": "Pessina Cremonese", "country": "", "latitude": 45.185474, "longitude": 10.248676, "population": 755, "elevation": null, "source": "osm"}, {"name": "Gussola", "country": "", "latitude": 45.0099833, "longitude": 10.3508132, "population": 2837, "elevation": null, "source": "osm"}, {"name": "Martignana di Po", "country": "", "latitude": 45.0111116, "longitude": 10.3797507, "population": 2002, "elevation": null, "source": "osm"}, {"name": "Olmeneta", "country": "", "latitude": 45.235873, "longitude": 10.02227, "population": 931, "elevation": null, "source": "osm"}, {"name": "Torricella del Pizzo", "country": "", "latitude": 45.0196019, "longitude": 10.2926531, "population": 655, "elevation": null, "source": "osm"}, {"name": "Vescovato", "country": "", "latitude": 45.175073, "longitude": 10.164574, "population": 3656, "elevation": null, "source": "osm"}, {"name": "Voltido", "country": "", "latitude": 45.1116474, "longitude": 10.3328342, "population": 452, "elevation": null, "source": "osm"}, {"name": "Robecco d'Oglio", "country": "", "latitude": 45.259374, "longitude": 10.076571, "population": 2245, "elevation": null, "source": "osm"}, {"name": "Scandolara Ripa d'Oglio", "country": "", "latitude": 45.221074, "longitude": 10.159773, "population": 636, "elevation": null, "source": "osm"}, {"name": "Solarolo Rainerio", "country": "", "latitude": 45.081572, "longitude": 10.35628, "population": 989, "elevation": null, "source": "osm"}, {"name": "Sospiro", "country": "", "latitude": 45.108571, "longitude": 10.157675, "population": 3255, "elevation": null, "source": "osm"}, {"name": "Ponti sul Mincio", "country": "", "latitude": 45.4125151, "longitude": 10.6872208, "population": 1912, "elevation": null, "source": "osm"}, {"name": "Piubega", "country": "", "latitude": 45.2273091, "longitude": 10.5345083, "population": 1630, "elevation": null, "source": "osm"}, {"name": "Rivarolo Mantovano", "country": "", "latitude": 45.0703092, "longitude": 10.432104, "population": 2792, "elevation": null, "source": "osm"}, {"name": "Redondesco", "country": "", "latitude": 45.166376, "longitude": 10.512282, "population": 1387, "elevation": null, "source": "osm"}, {"name": "Roverbella", "country": "", "latitude": 45.2657803, "longitude": 10.767527, "population": 7693, "elevation": null, "source": "osm"}, {"name": "Rodigo", "country": "", "latitude": 45.199577, "longitude": 10.624984, "population": 5023, "elevation": null, "source": "osm"}, {"name": "Suzzara", "country": "", "latitude": 44.991873, "longitude": 10.74309, "population": 21049, "elevation": null, "source": "osm"}, {"name": "Viadana", "country": "", "latitude": 44.9267857, "longitude": 10.520223, "population": 16933, "elevation": null, "source": "osm"}, {"name": "San Martino dall'Argine", "country": "", "latitude": 45.0990557, "longitude": 10.5183482, "population": 1857, "elevation": null, "source": "osm"}, {"name": "Solferino", "country": "", "latitude": 45.368581, "longitude": 10.566679, "population": 2294, "elevation": null, "source": "osm"}, {"name": "Pomponesco", "country": "", "latitude": 44.9287557, "longitude": 10.591879, "population": 1717, "elevation": null, "source": "osm"}, {"name": "Sabbioneta", "country": "", "latitude": 44.9984358, "longitude": 10.4885871, "population": 4288, "elevation": null, "source": "osm"}, {"name": "Monzambano", "country": "", "latitude": 45.386139, "longitude": 10.6924039, "population": 4549, "elevation": null, "source": "osm"}, {"name": "Marmirolo", "country": "", "latitude": 45.2205633, "longitude": 10.756393, "population": 7246, "elevation": null, "source": "osm"}, {"name": "Gonzaga", "country": "", "latitude": 44.9524875, "longitude": 10.822623, "population": 8054, "elevation": null, "source": "osm"}, {"name": "Goito", "country": "", "latitude": 45.2545067, "longitude": 10.6729409, "population": 10284, "elevation": null, "source": "osm"}, {"name": "Mariana Mantovana", "country": "", "latitude": 45.192876, "longitude": 10.486881, "population": 594, "elevation": null, "source": "osm"}, {"name": "Guidizzolo", "country": "", "latitude": 45.32068, "longitude": 10.580481, "population": 5178, "elevation": null, "source": "osm"}, {"name": "Cavriana", "country": "", "latitude": 45.3513347, "longitude": 10.6007909, "population": 3668, "elevation": null, "source": "osm"}, {"name": "Castiglione delle Stiviere", "country": "", "latitude": 45.3896766, "longitude": 10.4888745, "population": 18428, "elevation": null, "source": "osm"}, {"name": "Gazzuolo", "country": "", "latitude": 45.0691748, "longitude": 10.5831131, "population": 2462, "elevation": null, "source": "osm"}, {"name": "Castel Goffredo", "country": "", "latitude": 45.2952784, "longitude": 10.4729815, "population": 12573, "elevation": null, "source": "osm"}, {"name": "Bozzolo", "country": "", "latitude": 45.102474, "longitude": 10.483982, "population": 4086, "elevation": null, "source": "osm"}, {"name": "Pegognaga", "country": "", "latitude": 44.9959881, "longitude": 10.8587724, "population": 6618, "elevation": null, "source": "osm"}, {"name": "Bagnolo San Vito", "country": "", "latitude": 45.0922527, "longitude": 10.8804287, "population": 5432, "elevation": null, "source": "osm"}, {"name": "Motteggiana", "country": "", "latitude": 45.0349397, "longitude": 10.7640229, "population": 1960, "elevation": null, "source": "osm"}, {"name": "Marcaria", "country": "", "latitude": 45.120575, "longitude": 10.532783, "population": 6974, "elevation": null, "source": "osm"}, {"name": "Medole", "country": "", "latitude": 45.3242539, "longitude": 10.5144051, "population": 3317, "elevation": null, "source": "osm"}, {"name": "Gazoldo degli Ippoliti", "country": "", "latitude": 45.200277, "longitude": 10.579383, "population": 2525, "elevation": null, "source": "osm"}, {"name": "Commessaggio", "country": "", "latitude": 45.0344427, "longitude": 10.5453454, "population": 1160, "elevation": null, "source": "osm"}, {"name": "Dosolo", "country": "", "latitude": 44.953372, "longitude": 10.637588, "population": 3448, "elevation": null, "source": "osm"}, {"name": "Castellucchio", "country": "", "latitude": 45.147276, "longitude": 10.648485, "population": 4883, "elevation": null, "source": "osm"}, {"name": "Ceresara", "country": "", "latitude": 45.2651301, "longitude": 10.567035, "population": 2462, "elevation": null, "source": "osm"}, {"name": "Casalromano", "country": "", "latitude": 45.200675, "longitude": 10.369378, "population": 1468, "elevation": null, "source": "osm"}, {"name": "Casaloldo", "country": "", "latitude": 45.254777, "longitude": 10.474379, "population": 2174, "elevation": null, "source": "osm"}, {"name": "Casalmoro", "country": "", "latitude": 45.259577, "longitude": 10.404478, "population": 2049, "elevation": null, "source": "osm"}, {"name": "Canneto sull'Oglio", "country": "", "latitude": 45.1494046, "longitude": 10.3797364, "population": 4543, "elevation": null, "source": "osm"}, {"name": "Borgoforte", "country": "", "latitude": 45.051275, "longitude": 10.749289, "population": 3278, "elevation": null, "source": "osm"}, {"name": "Asola", "country": "", "latitude": 45.2211195, "longitude": 10.4130654, "population": 10059, "elevation": null, "source": "osm"}, {"name": "Acquanegra sul Chiese", "country": "", "latitude": 45.162475, "longitude": 10.43468, "population": 2936, "elevation": null, "source": "osm"}, {"name": "Cerese", "country": "", "latitude": 45.117897, "longitude": 10.7879015, "population": 10023, "elevation": null, "source": "osm"}, {"name": "Volta Mantovana", "country": "", "latitude": 45.3213025, "longitude": 10.6592238, "population": 6628, "elevation": null, "source": "osm"}, {"name": "Villafranca di Verona", "country": "", "latitude": 45.3509277, "longitude": 10.8459956, "population": 33194, "elevation": null, "source": "osm"}, {"name": "Valeggio sul Mincio", "country": "", "latitude": 45.3537509, "longitude": 10.734546, "population": 15098, "elevation": null, "source": "osm"}, {"name": "Povegliano Veronese", "country": "", "latitude": 45.3483978, "longitude": 10.8824376, "population": 7113, "elevation": null, "source": "osm"}, {"name": "Mozzecane", "country": "", "latitude": 45.3098846, "longitude": 10.8185863, "population": 6584, "elevation": null, "source": "osm"}, {"name": "Nogarole Rocca", "country": "", "latitude": 45.291882, "longitude": 10.883788, "population": 2850, "elevation": null, "source": "osm"}, {"name": "Sommacampagna", "country": "", "latitude": 45.4077839, "longitude": 10.8408526, "population": 14821, "elevation": null, "source": "osm"}, {"name": "Parma", "country": "", "latitude": 44.80153, "longitude": 10.3279843, "population": 202111, "elevation": null, "source": "osm"}, {"name": "Reggio Emilia", "country": "", "latitude": 44.6978389, "longitude": 10.6304971, "population": 133296, "elevation": 56.0, "source": "osm"}, {"name": "Prignano sulla Secchia", "country": "", "latitude": 44.4379426, "longitude": 10.6919848, "population": 3813, "elevation": null, "source": "osm"}, {"name": "Maranello", "country": "", "latitude": 44.5255217, "longitude": 10.8663607, "population": 17359, "elevation": null, "source": "osm"}, {"name": "Sassuolo", "country": "", "latitude": 44.5409769, "longitude": 10.7829023, "population": 40853, "elevation": 121.0, "source": "osm"}, {"name": "Berceto", "country": "", "latitude": 44.5106079, "longitude": 9.9896546, "population": 2434, "elevation": 808.0, "source": "osm"}, {"name": "Sissa", "country": "", "latitude": 44.9601314, "longitude": 10.2598395, "population": 0, "elevation": null, "source": "osm"}, {"name": "Solignano", "country": "", "latitude": 44.613057, "longitude": 9.97548, "population": 1773, "elevation": null, "source": "osm"}, {"name": "Sala Baganza", "country": "", "latitude": 44.7139495, "longitude": 10.2263338, "population": 4616, "elevation": null, "source": "osm"}, {"name": "Salsomaggiore Terme", "country": "", "latitude": 44.814762, "longitude": 9.979576, "population": 19831, "elevation": null, "source": "osm"}, {"name": "Tizzano Val Parma", "country": "", "latitude": 44.5205442, "longitude": 10.1991991, "population": 2126, "elevation": null, "source": "osm"}, {"name": "Torrile", "country": "", "latitude": 44.921454, "longitude": 10.3261384, "population": 779, "elevation": null, "source": "osm"}, {"name": "Terenzo", "country": "", "latitude": 44.609958, "longitude": 10.089682, "population": 1289, "elevation": null, "source": "osm"}, {"name": "Fornovo di Taro", "country": "", "latitude": 44.6919621, "longitude": 10.1009854, "population": 6100, "elevation": null, "source": "osm"}, {"name": "Lesignano de' Bagni", "country": "", "latitude": 44.6434282, "longitude": 10.3004841, "population": 5028, "elevation": 252.0, "source": "osm"}, {"name": "Fidenza", "country": "", "latitude": 44.866522, "longitude": 10.0611939, "population": 26770, "elevation": null, "source": "osm"}, {"name": "Fontevivo", "country": "", "latitude": 44.858765, "longitude": 10.17518, "population": 4874, "elevation": null, "source": "osm"}, {"name": "Polesine Parmense", "country": "", "latitude": 45.018108, "longitude": 10.0881543, "population": 697, "elevation": null, "source": "osm"}, {"name": "Roccabianca", "country": "", "latitude": 45.009369, "longitude": 10.219378, "population": 3058, "elevation": null, "source": "osm"}, {"name": "Medesano", "country": "", "latitude": 44.7567386, "longitude": 10.1398311, "population": 10828, "elevation": 134.0, "source": "osm"}, {"name": "Noceto", "country": "", "latitude": 44.8099007, "longitude": 10.1772596, "population": 13001, "elevation": null, "source": "osm"}, {"name": "Neviano degli Arduini", "country": "", "latitude": 44.5823646, "longitude": 10.315689, "population": 3727, "elevation": null, "source": "osm"}, {"name": "Pellegrino Parmense", "country": "", "latitude": 44.7331681, "longitude": 9.9275557, "population": 1285, "elevation": null, "source": "osm"}, {"name": "Palanzano", "country": "", "latitude": 44.4374371, "longitude": 10.1944619, "population": 1352, "elevation": 691.0, "source": "osm"}, {"name": "Fontanellato", "country": "", "latitude": 44.8822638, "longitude": 10.1729422, "population": 7033, "elevation": null, "source": "osm"}, {"name": "Felino", "country": "", "latitude": 44.6965871, "longitude": 10.2372047, "population": 8790, "elevation": null, "source": "osm"}, {"name": "Montechiarugolo", "country": "", "latitude": 44.6934008, "longitude": 10.4224798, "population": 10813, "elevation": null, "source": "osm"}, {"name": "Langhirano", "country": "", "latitude": 44.6130645, "longitude": 10.2661136, "population": 10315, "elevation": 265.0, "source": "osm"}, {"name": "Collecchio", "country": "", "latitude": 44.7520202, "longitude": 10.2166909, "population": 14593, "elevation": null, "source": "osm"}, {"name": "Calestano", "country": "", "latitude": 44.6007, "longitude": 10.1229945, "population": 2122, "elevation": 417.0, "source": "osm"}, {"name": "Colorno", "country": "", "latitude": 44.9265322, "longitude": 10.377117, "population": 8991, "elevation": null, "source": "osm"}, {"name": "Traversetolo", "country": "", "latitude": 44.6392123, "longitude": 10.3817954, "population": 9615, "elevation": null, "source": "osm"}, {"name": "Busseto", "country": "", "latitude": 44.9809569, "longitude": 10.0424746, "population": 7080, "elevation": null, "source": "osm"}, {"name": "Castelvetro Piacentino", "country": "", "latitude": 45.1003347, "longitude": 9.9867161, "population": 5456, "elevation": null, "source": "osm"}, {"name": "Villanova sull'Arda", "country": "", "latitude": 45.026005, "longitude": 9.9970611, "population": 1894, "elevation": null, "source": "osm"}, {"name": "Besenzone", "country": "", "latitude": 44.987157, "longitude": 9.9535782, "population": 953, "elevation": null, "source": "osm"}, {"name": "Varano de' Melegari", "country": "", "latitude": 44.68806, "longitude": 10.011479, "population": 2236, "elevation": null, "source": "osm"}, {"name": "Zibello", "country": "", "latitude": 45.018469, "longitude": 10.129676, "population": 910, "elevation": null, "source": "osm"}, {"name": "Soragna", "country": "", "latitude": 44.9281878, "longitude": 10.1235973, "population": 4358, "elevation": null, "source": "osm"}, {"name": "Trecasali", "country": "", "latitude": 44.9362237, "longitude": 10.2702605, "population": 0, "elevation": null, "source": "osm"}, {"name": "Monticelli d'Ongina", "country": "", "latitude": 45.0895109, "longitude": 9.9331646, "population": 5302, "elevation": null, "source": "osm"}, {"name": "Fiorenzuola d'Arda", "country": "", "latitude": 44.9280841, "longitude": 9.9107218, "population": 15297, "elevation": null, "source": "osm"}, {"name": "Cortemaggiore", "country": "", "latitude": 44.9963532, "longitude": 9.9310724, "population": 4172, "elevation": null, "source": "osm"}, {"name": "Alseno", "country": "", "latitude": 44.898364, "longitude": 9.961374, "population": 4661, "elevation": null, "source": "osm"}, {"name": "Gattatico", "country": "", "latitude": 44.7956839, "longitude": 10.4445566, "population": 289, "elevation": null, "source": "osm"}, {"name": "Boretto", "country": "", "latitude": 44.90187, "longitude": 10.554287, "population": 5400, "elevation": 23.0, "source": "osm"}, {"name": "Bibbiano", "country": "", "latitude": 44.6634303, "longitude": 10.4727188, "population": 10268, "elevation": null, "source": "osm"}, {"name": "Bagnolo in Piano", "country": "", "latitude": 44.762967, "longitude": 10.673293, "population": 9712, "elevation": null, "source": "osm"}, {"name": "Rolo", "country": "", "latitude": 44.8866561, "longitude": 10.8582083, "population": 3631, "elevation": null, "source": "osm"}, {"name": "Castelnovo ne' Monti", "country": "", "latitude": 44.4355622, "longitude": 10.4032946, "population": 10465, "elevation": 700.0, "source": "osm"}, {"name": "Campagnola Emilia", "country": "", "latitude": 44.83927, "longitude": 10.757093, "population": 4900, "elevation": null, "source": "osm"}, {"name": "Cadelbosco di Sopra", "country": "", "latitude": 44.7633191, "longitude": 10.5951823, "population": 10628, "elevation": null, "source": "osm"}, {"name": "San Pietro in Cerro", "country": "", "latitude": 45.0214997, "longitude": 9.948488, "population": 957, "elevation": null, "source": "osm"}, {"name": "Campegine", "country": "", "latitude": 44.7817335, "longitude": 10.5284188, "population": 4551, "elevation": null, "source": "osm"}, {"name": "Brescello", "country": "", "latitude": 44.9012244, "longitude": 10.515728, "population": 5554, "elevation": null, "source": "osm"}, {"name": "Carpineti", "country": "", "latitude": 44.4559609, "longitude": 10.5196982, "population": 4111, "elevation": null, "source": "osm"}, {"name": "Castellarano", "country": "", "latitude": 44.5102806, "longitude": 10.7286395, "population": 15232, "elevation": null, "source": "osm"}, {"name": "Casina", "country": "", "latitude": 44.5113388, "longitude": 10.4997852, "population": 4392, "elevation": null, "source": "osm"}, {"name": "Gualtieri", "country": "", "latitude": 44.9050126, "longitude": 10.6302265, "population": 6580, "elevation": null, "source": "osm"}, {"name": "Castelnovo di Sotto", "country": "", "latitude": 44.8108626, "longitude": 10.5632954, "population": 8462, "elevation": null, "source": "osm"}, {"name": "Montecchio Emilia", "country": "", "latitude": 44.7004508, "longitude": 10.4464132, "population": 10530, "elevation": null, "source": "osm"}, {"name": "Guastalla", "country": "", "latitude": 44.9211516, "longitude": 10.6539985, "population": 15225, "elevation": 25.0, "source": "osm"}, {"name": "Poviglio", "country": "", "latitude": 44.8416698, "longitude": 10.541615, "population": 6522, "elevation": null, "source": "osm"}, {"name": "Novellara", "country": "", "latitude": 44.84297, "longitude": 10.727492, "population": 11912, "elevation": null, "source": "osm"}, {"name": "Rubiera", "country": "", "latitude": 44.6532007, "longitude": 10.781081, "population": 14864, "elevation": null, "source": "osm"}, {"name": "Sant'Ilario d'Enza", "country": "", "latitude": 44.7605046, "longitude": 10.4498922, "population": 11205, "elevation": null, "source": "osm"}, {"name": "Cavriago", "country": "", "latitude": 44.6941945, "longitude": 10.5268984, "population": 9839, "elevation": null, "source": "osm"}, {"name": "Fabbrico", "country": "", "latitude": 44.8720906, "longitude": 10.8100618, "population": 6693, "elevation": null, "source": "osm"}, {"name": "Luzzara", "country": "", "latitude": 44.961655, "longitude": 10.6870685, "population": 9250, "elevation": 21.0, "source": "osm"}, {"name": "Quattro Castella", "country": "", "latitude": 44.6356048, "longitude": 10.4724248, "population": 13195, "elevation": null, "source": "osm"}, {"name": "Reggiolo", "country": "", "latitude": 44.9185339, "longitude": 10.8042114, "population": 9178, "elevation": null, "source": "osm"}, {"name": "Rio Saliceto", "country": "", "latitude": 44.8100097, "longitude": 10.8030993, "population": 5258, "elevation": null, "source": "osm"}, {"name": "San Polo d'Enza", "country": "", "latitude": 44.6258624, "longitude": 10.4222874, "population": 6083, "elevation": null, "source": "osm"}, {"name": "Vetto", "country": "", "latitude": 44.4843413, "longitude": 10.3414194, "population": 1972, "elevation": null, "source": "osm"}, {"name": "Viano", "country": "", "latitude": 44.5437293, "longitude": 10.6216195, "population": 3017, "elevation": null, "source": "osm"}, {"name": "Albinea", "country": "", "latitude": 44.6201821, "longitude": 10.6019259, "population": 8860, "elevation": null, "source": "osm"}, {"name": "Baiso", "country": "", "latitude": 44.4968268, "longitude": 10.6016783, "population": 3261, "elevation": null, "source": "osm"}, {"name": "Vezzano sul Crostolo", "country": "", "latitude": 44.6025837, "longitude": 10.5468531, "population": 3797, "elevation": null, "source": "osm"}, {"name": "Corcagnano", "country": "", "latitude": 44.7209797, "longitude": 10.3053104, "population": 0, "elevation": null, "source": "osm"}, {"name": "Pilastro", "country": "", "latitude": 44.6808623, "longitude": 10.2883953, "population": 1091, "elevation": null, "source": "osm"}, {"name": "Alberi di Vigatto", "country": "", "latitude": 44.7474897, "longitude": 10.3337697, "population": 1110, "elevation": null, "source": "osm"}, {"name": "Belvedere", "country": "", "latitude": 45.2959437, "longitude": 10.7791657, "population": 0, "elevation": null, "source": "osm"}, {"name": "Malavicina", "country": "", "latitude": 45.3008825, "longitude": 10.7871912, "population": 0, "elevation": null, "source": "osm"}, {"name": "Quistello", "country": "", "latitude": 45.3059964, "longitude": 10.7984387, "population": 0, "elevation": null, "source": "osm"}, {"name": "Pellaloco", "country": "", "latitude": 45.2849639, "longitude": 10.8153399, "population": 0, "elevation": null, "source": "osm"}, {"name": "Spezzano", "country": "", "latitude": 44.5328443, "longitude": 10.8427564, "population": 0, "elevation": null, "source": "osm"}, {"name": "Caluri", "country": "", "latitude": 45.3810685, "longitude": 10.8782913, "population": 0, "elevation": null, "source": "osm"}, {"name": "Castiglione Mantovano", "country": "", "latitude": 45.263413, "longitude": 10.8065532, "population": 0, "elevation": null, "source": "osm"}, {"name": "Pastorello", "country": "", "latitude": 44.5658817, "longitude": 10.2275626, "population": 0, "elevation": null, "source": "osm"}, {"name": "Farneta di Riccò", "country": "", "latitude": 44.4314082, "longitude": 10.8470258, "population": 0, "elevation": null, "source": "osm"}, {"name": "Torrechiara", "country": "", "latitude": 44.656766, "longitude": 10.2781141, "population": 0, "elevation": null, "source": "osm"}, {"name": "Quaderni", "country": "", "latitude": 45.3305886, "longitude": 10.7897655, "population": 0, "elevation": null, "source": "osm"}, {"name": "Vigoleno", "country": "", "latitude": 44.8165733, "longitude": 9.9004921, "population": 0, "elevation": null, "source": "osm"}, {"name": "Campione", "country": "", "latitude": 45.0799496, "longitude": 10.8220182, "population": 121, "elevation": 19.0, "source": "osm"}, {"name": "San Giacomo Po", "country": "", "latitude": 45.0668674, "longitude": 10.8731509, "population": 329, "elevation": 17.0, "source": "osm"}, {"name": "San Nicolò Po", "country": "", "latitude": 45.050447, "longitude": 10.8385224, "population": 279, "elevation": 18.0, "source": "osm"}, {"name": "Borghetto", "country": "", "latitude": 45.3525151, "longitude": 10.7245935, "population": 0, "elevation": null, "source": "osm"}, {"name": "Pozzolo sul Mincio", "country": "", "latitude": 45.3045352, "longitude": 10.7151835, "population": 0, "elevation": null, "source": "osm"}, {"name": "Veggia", "country": "", "latitude": 44.5489541, "longitude": 10.7664193, "population": 0, "elevation": null, "source": "osm"}, {"name": "Monticelli Terme", "country": "", "latitude": 44.7265026, "longitude": 10.3952777, "population": 4345, "elevation": null, "source": "osm"}, {"name": "Ozzano Taro", "country": "", "latitude": 44.7098232, "longitude": 10.1430765, "population": 1130, "elevation": null, "source": "osm"}, {"name": "Gaiano", "country": "", "latitude": 44.7252476, "longitude": 10.1738296, "population": 1074, "elevation": null, "source": "osm"}, {"name": "Baggiovara", "country": "", "latitude": 44.6071324, "longitude": 10.86322, "population": 0, "elevation": null, "source": "osm"}, {"name": "Casinalbo", "country": "", "latitude": 44.593856, "longitude": 10.8578234, "population": 0, "elevation": null, "source": "osm"}, {"name": "Castellaro Lagusello", "country": "", "latitude": 45.3745528, "longitude": 10.636609, "population": 0, "elevation": null, "source": "osm"}, {"name": "Broglie", "country": "", "latitude": 45.4275981, "longitude": 10.6617954, "population": 0, "elevation": null, "source": "osm"}, {"name": "Bosco di Corniglio", "country": "", "latitude": 44.4461409, "longitude": 10.0358148, "population": 202, "elevation": null, "source": "osm"}, {"name": "Gramignazzo", "country": "", "latitude": 44.9868751, "longitude": 10.2536056, "population": 392, "elevation": null, "source": "osm"}, {"name": "Salionze", "country": "", "latitude": 45.4039597, "longitude": 10.7212448, "population": 0, "elevation": null, "source": "osm"}, {"name": "Custoza", "country": "", "latitude": 45.3764733, "longitude": 10.7959337, "population": 0, "elevation": null, "source": "osm"}, {"name": "Camalavicina", "country": "", "latitude": 45.4160702, "longitude": 10.7246759, "population": 0, "elevation": null, "source": "osm"}, {"name": "Basilicanova", "country": "", "latitude": 44.6970869, "longitude": 10.3533734, "population": 3500, "elevation": null, "source": "osm"}, {"name": "Mamiano", "country": "", "latitude": 44.6749229, "longitude": 10.3435082, "population": 635, "elevation": null, "source": "osm"}, {"name": "Mezzano Superiore", "country": "", "latitude": 44.93295, "longitude": 10.4230941, "population": 711, "elevation": null, "source": "osm"}, {"name": "Coenzo", "country": "", "latitude": 44.9005133, "longitude": 10.4666607, "population": 323, "elevation": null, "source": "osm"}, {"name": "Lemignano", "country": "", "latitude": 44.7711928, "longitude": 10.2633709, "population": 0, "elevation": null, "source": "osm"}, {"name": "San Secondo Parmense", "country": "", "latitude": 44.9201605, "longitude": 10.229558, "population": 5037, "elevation": null, "source": "osm"}, {"name": "Lentigione", "country": "", "latitude": 44.8670978, "longitude": 10.471227, "population": 0, "elevation": null, "source": "osm"}, {"name": "San Polo", "country": "", "latitude": 44.8902978, "longitude": 10.3550043, "population": 3820, "elevation": null, "source": "osm"}, {"name": "Ragazzola", "country": "", "latitude": 45.0102089, "longitude": 10.1915051, "population": 327, "elevation": null, "source": "osm"}, {"name": "Basilicagoiano", "country": "", "latitude": 44.7076292, "longitude": 10.4032878, "population": 1110, "elevation": null, "source": "osm"}, {"name": "Castell'Aicardi", "country": "", "latitude": 44.9076091, "longitude": 10.2095057, "population": 0, "elevation": null, "source": "osm"}, {"name": "Pizzolese", "country": "", "latitude": 44.8691444, "longitude": 10.3645919, "population": 0, "elevation": null, "source": "osm"}, {"name": "Mazzabue", "country": "", "latitude": 44.9045973, "longitude": 10.4120562, "population": 0, "elevation": null, "source": "osm"}, {"name": "Casale", "country": "", "latitude": 44.9214271, "longitude": 10.4375689, "population": 965, "elevation": null, "source": "osm"}, {"name": "Mezzano Inferiore", "country": "", "latitude": 44.9125357, "longitude": 10.4626633, "population": 1285, "elevation": null, "source": "osm"}, {"name": "Rivarolo", "country": "", "latitude": 44.9040198, "longitude": 10.3152821, "population": 882, "elevation": null, "source": "osm"}, {"name": "Vicopò", "country": "", "latitude": 44.8140974, "longitude": 10.3678105, "population": 0, "elevation": null, "source": "osm"}, {"name": "Beneceto", "country": "", "latitude": 44.8136103, "longitude": 10.3824446, "population": 0, "elevation": null, "source": "osm"}, {"name": "Casaltone", "country": "", "latitude": 44.8216204, "longitude": 10.4385457, "population": 271, "elevation": null, "source": "osm"}, {"name": "Marore", "country": "", "latitude": 44.7727759, "longitude": 10.3567247, "population": 0, "elevation": null, "source": "osm"}, {"name": "Porporano", "country": "", "latitude": 44.7545362, "longitude": 10.3500385, "population": 1104, "elevation": null, "source": "osm"}, {"name": "Piazza", "country": "", "latitude": 44.6888774, "longitude": 10.3729783, "population": 343, "elevation": null, "source": "osm"}, {"name": "Martorano", "country": "", "latitude": 44.7580164, "longitude": 10.4119825, "population": 0, "elevation": null, "source": "osm"}, {"name": "Sorbolo a Levante", "country": "", "latitude": 44.8460708, "longitude": 10.46223, "population": 0, "elevation": null, "source": "osm"}, {"name": "Villa Aiola", "country": "", "latitude": 44.7154165, "longitude": 10.4795836, "population": 0, "elevation": null, "source": "osm"}, {"name": "Scandiano", "country": "", "latitude": 44.5993449, "longitude": 10.6878385, "population": 25483, "elevation": null, "source": "osm"}, {"name": "Vicofertile", "country": "", "latitude": 44.7848482, "longitude": 10.2582798, "population": 2100, "elevation": null, "source": "osm"}, {"name": "Soave", "country": "", "latitude": 45.1959027, "longitude": 10.7223886, "population": 0, "elevation": null, "source": "osm"}, {"name": "Sacca", "country": "", "latitude": 45.2265257, "longitude": 10.6635085, "population": 0, "elevation": null, "source": "osm"}, {"name": "Marengo", "country": "", "latitude": 45.2582485, "longitude": 10.7353489, "population": 0, "elevation": null, "source": "osm"}, {"name": "Buscoldo", "country": "", "latitude": 45.0931606, "longitude": 10.7008816, "population": 0, "elevation": null, "source": "osm"}, {"name": "San Silvestro", "country": "", "latitude": 45.1277699, "longitude": 10.7475587, "population": 0, "elevation": null, "source": "osm"}, {"name": "Cesole", "country": "", "latitude": 45.062323, "longitude": 10.6470946, "population": 539, "elevation": null, "source": "osm"}, {"name": "Casatico", "country": "", "latitude": 45.1416695, "longitude": 10.5533624, "population": 0, "elevation": null, "source": "osm"}, {"name": "Ospitaletto", "country": "", "latitude": 45.1362412, "longitude": 10.6081182, "population": 0, "elevation": null, "source": "osm"}, {"name": "Sarginesco", "country": "", "latitude": 45.1742676, "longitude": 10.6197095, "population": 0, "elevation": null, "source": "osm"}, {"name": "Birbesi", "country": "", "latitude": 45.2898989, "longitude": 10.5764349, "population": 0, "elevation": null, "source": "osm"}, {"name": "San Cataldo", "country": "", "latitude": 45.0718131, "longitude": 10.7849854, "population": 0, "elevation": null, "source": "osm"}, {"name": "Pietole", "country": "", "latitude": 45.1134231, "longitude": 10.8172108, "population": 0, "elevation": null, "source": "osm"}, {"name": "San Biagio", "country": "", "latitude": 45.0955366, "longitude": 10.8501313, "population": 0, "elevation": null, "source": "osm"}, {"name": "Mottella", "country": "", "latitude": 45.1651463, "longitude": 10.8457095, "population": 8019, "elevation": null, "source": "osm"}, {"name": "Sant'Antonio", "country": "", "latitude": 45.188619, "longitude": 10.7919897, "population": 0, "elevation": null, "source": "osm"}, {"name": "San Vito", "country": "", "latitude": 45.2463313, "longitude": 9.9777662, "population": 0, "elevation": null, "source": "osm"}, {"name": "Gabbiana", "country": "", "latitude": 45.1119082, "longitude": 10.6442443, "population": 0, "elevation": null, "source": "osm"}, {"name": "Tabellano", "country": "", "latitude": 45.0258603, "longitude": 10.7168142, "population": 0, "elevation": null, "source": "osm"}, {"name": "Palidano", "country": "", "latitude": 44.9660782, "longitude": 10.7705987, "population": 0, "elevation": null, "source": "osm"}, {"name": "Cavatigozzi", "country": "", "latitude": 45.1521113, "longitude": 9.9555878, "population": 1885, "elevation": null, "source": "osm"}, {"name": "Montanara", "country": "", "latitude": 45.1353517, "longitude": 10.7203498, "population": 0, "elevation": null, "source": "osm"}, {"name": "Levata", "country": "", "latitude": 45.1229826, "longitude": 10.7668082, "population": 0, "elevation": null, "source": "osm"}, {"name": "Cappelletta", "country": "", "latitude": 45.1054172, "longitude": 10.7801978, "population": 0, "elevation": null, "source": "osm"}, {"name": "Romanore", "country": "", "latitude": 45.0708626, "longitude": 10.7601547, "population": 0, "elevation": null, "source": "osm"}, {"name": "Vigatto", "country": "", "latitude": 44.7206441, "longitude": 10.3303243, "population": 1313, "elevation": null, "source": "osm"}, {"name": "Arceto", "country": "", "latitude": 44.6195213, "longitude": 10.7228948, "population": 4659, "elevation": null, "source": "osm"}, {"name": "Pratissolo", "country": "", "latitude": 44.6031353, "longitude": 10.6758844, "population": 1597, "elevation": null, "source": "osm"}, {"name": "Fellegara", "country": "", "latitude": 44.610951, "longitude": 10.6934336, "population": 1183, "elevation": null, "source": "osm"}, {"name": "Bosco", "country": "", "latitude": 44.6291825, "longitude": 10.6667467, "population": 815, "elevation": null, "source": "osm"}, {"name": "Chiozza", "country": "", "latitude": 44.5964373, "longitude": 10.7074244, "population": 675, "elevation": null, "source": "osm"}, {"name": "San Ruffino", "country": "", "latitude": 44.5832051, "longitude": 10.7038529, "population": 321, "elevation": null, "source": "osm"}, {"name": "Ventoso", "country": "", "latitude": 44.5842347, "longitude": 10.6868118, "population": 1348, "elevation": null, "source": "osm"}, {"name": "Ca' de Caroli", "country": "", "latitude": 44.5872177, "longitude": 10.6740629, "population": 0, "elevation": null, "source": "osm"}, {"name": "Iano", "country": "", "latitude": 44.5891905, "longitude": 10.6680558, "population": 390, "elevation": null, "source": "osm"}, {"name": "Rondinara", "country": "", "latitude": 44.551224, "longitude": 10.6624345, "population": 0, "elevation": null, "source": "osm"}, {"name": "Cacciola", "country": "", "latitude": 44.6320164, "longitude": 10.7215833, "population": 0, "elevation": null, "source": "osm"}, {"name": "Zaragnino", "country": "", "latitude": 45.0330586, "longitude": 10.7376551, "population": 54, "elevation": null, "source": "osm"}, {"name": "Corlo", "country": "", "latitude": 44.5825549, "longitude": 10.8228346, "population": 0, "elevation": null, "source": "osm"}, {"name": "Villa Saviola", "country": "", "latitude": 45.0341854, "longitude": 10.7958038, "population": 515, "elevation": null, "source": "osm"}, {"name": "Magreta", "country": "", "latitude": 44.5979855, "longitude": 10.7966114, "population": 0, "elevation": null, "source": "osm"}, {"name": "Canedole", "country": "", "latitude": 45.2360823, "longitude": 10.8447008, "population": 0, "elevation": null, "source": "osm"}, {"name": "Panocchia", "country": "", "latitude": 44.6787491, "longitude": 10.3103886, "population": 652, "elevation": null, "source": "osm"}, {"name": "Vicomoscano", "country": "", "latitude": 44.9761195, "longitude": 10.445943, "population": 1037, "elevation": null, "source": "osm"}, {"name": "Casalbellotto", "country": "", "latitude": 44.963072, "longitude": 10.4779136, "population": 753, "elevation": null, "source": "osm"}, {"name": "Roncadello", "country": "", "latitude": 44.9469146, "longitude": 10.4674565, "population": 0, "elevation": null, "source": "osm"}, {"name": "Cogozzo", "country": "", "latitude": 44.9391438, "longitude": 10.4957438, "population": 0, "elevation": null, "source": "osm"}, {"name": "Correggioverde", "country": "", "latitude": 44.9295817, "longitude": 10.6158713, "population": 398, "elevation": 22.0, "source": "osm"}, {"name": "Cittanova", "country": "", "latitude": 44.6464053, "longitude": 10.8430234, "population": 0, "elevation": null, "source": "osm"}, {"name": "Marzaglia", "country": "", "latitude": 44.6515031, "longitude": 10.8064149, "population": 0, "elevation": null, "source": "osm"}, {"name": "Marzaglia Nuova", "country": "", "latitude": 44.6412982, "longitude": 10.8053142, "population": 0, "elevation": null, "source": "osm"}, {"name": "Albareto", "country": "", "latitude": 44.8725155, "longitude": 10.2143253, "population": 0, "elevation": null, "source": "osm"}, {"name": "Scurano", "country": "", "latitude": 44.5014577, "longitude": 10.3052295, "population": 0, "elevation": null, "source": "osm"}, {"name": "San Prospero Parmense", "country": "", "latitude": 44.778375, "longitude": 10.398808, "population": 1008, "elevation": null, "source": "osm"}, {"name": "Pedrignano", "country": "", "latitude": 44.8314535, "longitude": 10.3777452, "population": 0, "elevation": null, "source": "osm"}, {"name": "Fogliano", "country": "", "latitude": 44.6441062, "longitude": 10.6495921, "population": 0, "elevation": null, "source": "osm"}, {"name": "Borzano", "country": "", "latitude": 44.5995993, "longitude": 10.6361443, "population": 0, "elevation": null, "source": "osm"}, {"name": "Gavasseto", "country": "", "latitude": 44.6531153, "longitude": 10.6747089, "population": 815, "elevation": null, "source": "osm"}, {"name": "Sant'Andrea Bagni", "country": "", "latitude": 44.7255176, "longitude": 10.088944, "population": 0, "elevation": null, "source": "osm"}, {"name": "Lagrimone", "country": "", "latitude": 44.4946274, "longitude": 10.2392053, "population": 0, "elevation": null, "source": "osm"}, {"name": "Salsominore", "country": "", "latitude": 44.8265011, "longitude": 9.9744974, "population": 0, "elevation": null, "source": "osm"}, {"name": "Sivizzano", "country": "", "latitude": 44.7874724, "longitude": 9.9856023, "population": 0, "elevation": null, "source": "osm"}, {"name": "Tabiano Castello", "country": "", "latitude": 44.7924826, "longitude": 10.0252989, "population": 0, "elevation": null, "source": "osm"}, {"name": "Vignale", "country": "", "latitude": 44.6391808, "longitude": 10.3998704, "population": 0, "elevation": null, "source": "osm"}, {"name": "Bazzano", "country": "", "latitude": 44.5711282, "longitude": 10.369886, "population": 0, "elevation": null, "source": "osm"}, {"name": "Mulazzano", "country": "", "latitude": 44.6096582, "longitude": 10.3124871, "population": 0, "elevation": null, "source": "osm"}, {"name": "Torre", "country": "", "latitude": 45.2637925, "longitude": 10.6866489, "population": 0, "elevation": null, "source": "osm"}, {"name": "Contignaco", "country": "", "latitude": 44.7801611, "longitude": 9.9585444, "population": 0, "elevation": null, "source": "osm"}, {"name": "Borzano d'Enza", "country": "", "latitude": 44.525748, "longitude": 10.3679764, "population": 0, "elevation": null, "source": "osm"}, {"name": "Trinità", "country": "", "latitude": 44.5305, "longitude": 10.4157917, "population": 0, "elevation": null, "source": "osm"}, {"name": "Gombio", "country": "", "latitude": 44.4996854, "longitude": 10.4360313, "population": 0, "elevation": null, "source": "osm"}, {"name": "Campagnola", "country": "", "latitude": 45.3410633, "longitude": 10.7170629, "population": 0, "elevation": null, "source": "osm"}, {"name": "Pecorile", "country": "", "latitude": 44.5869593, "longitude": 10.5084382, "population": 221, "elevation": null, "source": "osm"}, {"name": "Tormine", "country": "", "latitude": 45.2889573, "longitude": 10.8232886, "population": 0, "elevation": null, "source": "osm"}, {"name": "Urzano", "country": "", "latitude": 44.5664916, "longitude": 10.2963957, "population": 0, "elevation": null, "source": "osm"}, {"name": "Cazzola", "country": "", "latitude": 44.6084446, "longitude": 10.0412465, "population": 0, "elevation": null, "source": "osm"}, {"name": "Roncolo", "country": "", "latitude": 44.6343119, "longitude": 10.4956953, "population": 0, "elevation": null, "source": "osm"}, {"name": "Montecavolo", "country": "", "latitude": 44.6326322, "longitude": 10.5378878, "population": 0, "elevation": null, "source": "osm"}, {"name": "La Vecchia", "country": "", "latitude": 44.5668904, "longitude": 10.5287385, "population": 731, "elevation": 237.0, "source": "osm"}, {"name": "Salvarano", "country": "", "latitude": 44.6190046, "longitude": 10.5166192, "population": 354, "elevation": 175.0, "source": "osm"}, {"name": "Puianello", "country": "", "latitude": 44.62575, "longitude": 10.5628532, "population": 1282, "elevation": 140.0, "source": "osm"}, {"name": "Montericco", "country": "", "latitude": 44.6103942, "longitude": 10.6068036, "population": 104, "elevation": 226.0, "source": "osm"}, {"name": "San Bernardino", "country": "", "latitude": 44.8641283, "longitude": 10.6704581, "population": 350, "elevation": null, "source": "osm"}, {"name": "Roncocesi", "country": "", "latitude": 44.7374207, "longitude": 10.5786168, "population": 2000, "elevation": null, "source": "osm"}, {"name": "Cadelbosco di Sotto", "country": "", "latitude": 44.8027264, "longitude": 10.61737, "population": 0, "elevation": null, "source": "osm"}, {"name": "San Rocco", "country": "", "latitude": 44.8742396, "longitude": 10.6576675, "population": 0, "elevation": null, "source": "osm"}, {"name": "Ceredolo dei Coppi", "country": "", "latitude": 44.5575545, "longitude": 10.4497888, "population": 50, "elevation": null, "source": "osm"}, {"name": "Villa Pasquali", "country": "", "latitude": 44.9992461, "longitude": 10.5137026, "population": 0, "elevation": null, "source": "osm"}, {"name": "Ramiola", "country": "", "latitude": 44.6982931, "longitude": 10.0888427, "population": 0, "elevation": null, "source": "osm"}, {"name": "Tiorre", "country": "", "latitude": 44.6678612, "longitude": 10.263822, "population": 0, "elevation": null, "source": "osm"}, {"name": "Montegibbio", "country": "", "latitude": 44.5071116, "longitude": 10.7854485, "population": 0, "elevation": null, "source": "osm"}, {"name": "Montebaranzone", "country": "", "latitude": 44.4779499, "longitude": 10.773187, "population": 0, "elevation": null, "source": "osm"}, {"name": "Sant'Antonino", "country": "", "latitude": 44.5571303, "longitude": 10.7577601, "population": 0, "elevation": null, "source": "osm"}, {"name": "Dinazzano", "country": "", "latitude": 44.5719576, "longitude": 10.7455155, "population": 0, "elevation": null, "source": "osm"}, {"name": "Gaida", "country": "", "latitude": 44.7434657, "longitude": 10.5024245, "population": 0, "elevation": null, "source": "osm"}, {"name": "Cadè", "country": "", "latitude": 44.7383604, "longitude": 10.5158018, "population": 1900, "elevation": null, "source": "osm"}, {"name": "Cella", "country": "", "latitude": 44.7283561, "longitude": 10.5462589, "population": 0, "elevation": null, "source": "osm"}, {"name": "Calerno", "country": "", "latitude": 44.7489292, "longitude": 10.4867673, "population": 0, "elevation": null, "source": "osm"}, {"name": "Bagni di Tabiano", "country": "", "latitude": 44.8057428, "longitude": 10.0176873, "population": 492, "elevation": 164.0, "source": "osm"}, {"name": "Canali", "country": "", "latitude": 44.6634446, "longitude": 10.6165805, "population": 2776, "elevation": null, "source": "osm"}, {"name": "Sabbione", "country": "", "latitude": 44.6301141, "longitude": 10.691605, "population": 0, "elevation": null, "source": "osm"}, {"name": "Villarotta", "country": "", "latitude": 44.9238011, "longitude": 10.7429095, "population": 0, "elevation": null, "source": "osm"}, {"name": "Torricella", "country": "", "latitude": 44.9853674, "longitude": 10.2828152, "population": 258, "elevation": null, "source": "osm"}, {"name": "Coltaro", "country": "", "latitude": 44.9666772, "longitude": 10.319701, "population": 788, "elevation": null, "source": "osm"}, {"name": "Ranzano", "country": "", "latitude": 44.4590481, "longitude": 10.2496399, "population": 0, "elevation": null, "source": "osm"}, {"name": "Acquanegra Cremonese", "country": "", "latitude": 45.1683868, "longitude": 9.8900934, "population": 1226, "elevation": null, "source": "osm"}, {"name": "San Bartolomeo", "country": "", "latitude": 44.6758268, "longitude": 10.538766, "population": 0, "elevation": null, "source": "osm"}, {"name": "Porzano", "country": "", "latitude": 45.3989206, "longitude": 10.1922103, "population": 0, "elevation": null, "source": "osm"}, {"name": "Ceretolo", "country": "", "latitude": 44.5171953, "longitude": 10.3310828, "population": 0, "elevation": null, "source": "osm"}, {"name": "Varana Campodolio", "country": "", "latitude": 44.4525695, "longitude": 10.7623074, "population": 251, "elevation": null, "source": "osm"}, {"name": "Formigine", "country": "", "latitude": 44.5751432, "longitude": 10.8470277, "population": 34323, "elevation": null, "source": "osm"}, {"name": "Montelungo Terme", "country": "", "latitude": 44.4470664, "longitude": 9.9080863, "population": 0, "elevation": null, "source": "osm"}, {"name": "Gravagna San Rocco", "country": "", "latitude": 44.4524213, "longitude": 9.9361931, "population": 0, "elevation": null, "source": "osm"}, {"name": "Gravagna Montale", "country": "", "latitude": 44.4506801, "longitude": 9.9417369, "population": 0, "elevation": null, "source": "osm"}, {"name": "Casaselvatica", "country": "", "latitude": 44.5494737, "longitude": 10.0380431, "population": 0, "elevation": null, "source": "osm"}, {"name": "Selvapiana", "country": "", "latitude": 44.5630597, "longitude": 10.4126496, "population": 83, "elevation": null, "source": "osm"}, {"name": "Felina", "country": "", "latitude": 44.451849, "longitude": 10.4577062, "population": 1294, "elevation": 664.0, "source": "osm"}, {"name": "Marola", "country": "", "latitude": 44.4854804, "longitude": 10.4848915, "population": 136, "elevation": 783.0, "source": "osm"}, {"name": "Pantano", "country": "", "latitude": 44.4851601, "longitude": 10.5126698, "population": 84, "elevation": 646.0, "source": "osm"}, {"name": "Poiago", "country": "", "latitude": 44.4623316, "longitude": 10.5378218, "population": 121, "elevation": 550.0, "source": "osm"}, {"name": "Cortogno", "country": "", "latitude": 44.5337166, "longitude": 10.4732318, "population": 37, "elevation": 556.0, "source": "osm"}, {"name": "Ghiare di Berceto", "country": "", "latitude": 44.5545985, "longitude": 9.9313898, "population": 0, "elevation": null, "source": "osm"}, {"name": "San Faustino", "country": "", "latitude": 44.6790907, "longitude": 10.7810463, "population": 0, "elevation": null, "source": "osm"}, {"name": "Trignano", "country": "", "latitude": 44.7350813, "longitude": 10.8038663, "population": 68, "elevation": 34.0, "source": "osm"}, {"name": "Fazzano", "country": "", "latitude": 44.7468048, "longitude": 10.7661057, "population": 199, "elevation": 35.0, "source": "osm"}, {"name": "Correggio", "country": "", "latitude": 44.770561, "longitude": 10.7797829, "population": 25897, "elevation": 31.0, "source": "osm"}, {"name": "Prato", "country": "", "latitude": 44.7109828, "longitude": 10.7489842, "population": 641, "elevation": 38.0, "source": "osm"}, {"name": "San Michele della Fossa", "country": "", "latitude": 44.7853495, "longitude": 10.7099612, "population": 120, "elevation": 31.0, "source": "osm"}, {"name": "Villaggio Industriale", "country": "", "latitude": 44.7684439, "longitude": 10.8217008, "population": 125, "elevation": 30.0, "source": "osm"}, {"name": "Stiolo", "country": "", "latitude": 44.7151457, "longitude": 10.7840004, "population": 39, "elevation": 40.0, "source": "osm"}, {"name": "Bottega Panzano", "country": "", "latitude": 44.7219071, "longitude": 10.8494048, "population": 206, "elevation": 34.0, "source": "osm"}, {"name": "San Martino in Rio", "country": "", "latitude": 44.7328018, "longitude": 10.7839876, "population": 8099, "elevation": 36.0, "source": "osm"}, {"name": "Fosdondo", "country": "", "latitude": 44.7741228, "longitude": 10.7326184, "population": 573, "elevation": 33.0, "source": "osm"}, {"name": "Panzano", "country": "", "latitude": 44.7264066, "longitude": 10.8352829, "population": 21, "elevation": 34.0, "source": "osm"}, {"name": "San Biagio", "country": "", "latitude": 44.7478778, "longitude": 10.7962164, "population": 124, "elevation": 33.0, "source": "osm"}, {"name": "Mandriolo Inferiore", "country": "", "latitude": 44.7868082, "longitude": 10.7865072, "population": 26, "elevation": 28.0, "source": "osm"}, {"name": "San Martino di Correggio", "country": "", "latitude": 44.7782945, "longitude": 10.8021996, "population": 70, "elevation": 30.0, "source": "osm"}, {"name": "Mandrio", "country": "", "latitude": 44.793184, "longitude": 10.8062281, "population": 419, "elevation": 27.0, "source": "osm"}, {"name": "Budrio", "country": "", "latitude": 44.7528255, "longitude": 10.7368923, "population": 569, "elevation": 35.0, "source": "osm"}, {"name": "Santa Croce", "country": "", "latitude": 44.7595308, "longitude": 10.8586215, "population": 612, "elevation": 30.0, "source": "osm"}, {"name": "Salina", "country": "", "latitude": 44.9522293, "longitude": 10.5750415, "population": 257, "elevation": 20.0, "source": "osm"}, {"name": "Quattrocase", "country": "", "latitude": 44.9760033, "longitude": 10.4858308, "population": 343, "elevation": 22.0, "source": "osm"}, {"name": "Ponteterra", "country": "", "latitude": 44.9951045, "longitude": 10.4624568, "population": 602, "elevation": 23.0, "source": "osm"}, {"name": "Bellaguarda", "country": "", "latitude": 44.9950469, "longitude": 10.5803431, "population": 292, "elevation": 20.0, "source": "osm"}, {"name": "Casaletto", "country": "", "latitude": 44.9686232, "longitude": 10.5631702, "population": 345, "elevation": 21.0, "source": "osm"}, {"name": "Tagliata", "country": "", "latitude": 44.9314514, "longitude": 10.6803932, "population": 728, "elevation": 23.0, "source": "osm"}, {"name": "Viadana", "country": "", "latitude": 45.3721789, "longitude": 10.3379398, "population": 1157, "elevation": 76.0, "source": "osm"}, {"name": "Castelletto", "country": "", "latitude": 45.329854, "longitude": 10.2348618, "population": 1329, "elevation": 58.0, "source": "osm"}, {"name": "Castello di Querciola", "country": "", "latitude": 44.5465541, "longitude": 10.5869682, "population": 0, "elevation": null, "source": "osm"}, {"name": "San Giorgio in Salici", "country": "", "latitude": 45.4272132, "longitude": 10.7881858, "population": 1199, "elevation": 147.0, "source": "osm"}, {"name": "Vedriano", "country": "", "latitude": 44.5134588, "longitude": 10.3988547, "population": 0, "elevation": null, "source": "osm"}, {"name": "Rivalta sul Mincio", "country": "", "latitude": 45.1801487, "longitude": 10.6771073, "population": 0, "elevation": null, "source": "osm"}, {"name": "Villanova de Bellis", "country": "", "latitude": 45.1527743, "longitude": 10.8726562, "population": 0, "elevation": null, "source": "osm"}, {"name": "Cognento", "country": "", "latitude": 44.6375948, "longitude": 10.8684742, "population": 0, "elevation": null, "source": "osm"}, {"name": "Costa Sant'Abramo", "country": "", "latitude": 45.1738787, "longitude": 9.9682982, "population": 1096, "elevation": null, "source": "osm"}, {"name": "Casanova del Morbasco", "country": "", "latitude": 45.1658609, "longitude": 9.9578268, "population": 792, "elevation": null, "source": "osm"}, {"name": "Brancere", "country": "", "latitude": 45.0672557, "longitude": 10.068435, "population": 113, "elevation": null, "source": "osm"}, {"name": "Barco", "country": "", "latitude": 44.6881805, "longitude": 10.4933834, "population": 0, "elevation": null, "source": "osm"}, {"name": "Cereta", "country": "", "latitude": 45.3051262, "longitude": 10.6413829, "population": 0, "elevation": null, "source": "osm"}, {"name": "Cerlongo", "country": "", "latitude": 45.2796021, "longitude": 10.6470166, "population": 0, "elevation": null, "source": "osm"}, {"name": "Solarolo", "country": "", "latitude": 45.2374135, "longitude": 10.5967782, "population": 0, "elevation": null, "source": "osm"}, {"name": "Castelnuovo", "country": "", "latitude": 45.2474473, "longitude": 10.4554344, "population": 0, "elevation": null, "source": "osm"}, {"name": "Fiorano Modenese", "country": "", "latitude": 44.539143, "longitude": 10.8118482, "population": 17160, "elevation": null, "source": "osm"}, {"name": "Bannone", "country": "", "latitude": 44.6598627, "longitude": 10.3619702, "population": 411, "elevation": null, "source": "osm"}, {"name": "Tortiano", "country": "", "latitude": 44.6796752, "longitude": 10.4110891, "population": 438, "elevation": null, "source": "osm"}, {"name": "Ubersetto", "country": "", "latitude": 44.5485991, "longitude": 10.8576077, "population": 0, "elevation": null, "source": "osm"}, {"name": "Fogarole", "country": "", "latitude": 45.1062412, "longitude": 9.962946, "population": 0, "elevation": null, "source": "osm"}, {"name": "Olza", "country": "", "latitude": 45.1079655, "longitude": 9.9514414, "population": 0, "elevation": null, "source": "osm"}, {"name": "Mezzano Chitantolo", "country": "", "latitude": 45.1151109, "longitude": 9.9940939, "population": 0, "elevation": null, "source": "osm"}, {"name": "Roteglia", "country": "", "latitude": 44.4845972, "longitude": 10.6838588, "population": 3525, "elevation": null, "source": "osm"}, {"name": "Boldeniga", "country": "", "latitude": 45.4267215, "longitude": 10.1013416, "population": 228, "elevation": 85.0, "source": "osm"}, {"name": "Corticelle Pieve", "country": "", "latitude": 45.4235355, "longitude": 10.1212984, "population": 781, "elevation": 82.0, "source": "osm"}, {"name": "Dello", "country": "", "latitude": 45.41811, "longitude": 10.0752034, "population": 2372, "elevation": 84.0, "source": "osm"}, {"name": "Quinzanello", "country": "", "latitude": 45.419899, "longitude": 10.0972009, "population": 641, "elevation": 85.0, "source": "osm"}, {"name": "Varano Dei Marchesi", "country": "", "latitude": 44.7530283, "longitude": 10.0323699, "population": 0, "elevation": null, "source": "osm"}, {"name": "Cella", "country": "", "latitude": 44.7674316, "longitude": 10.0874636, "population": 0, "elevation": null, "source": "osm"}, {"name": "Regnano", "country": "", "latitude": 44.5625256, "longitude": 10.578311, "population": 0, "elevation": null, "source": "osm"}, {"name": "Montalto", "country": "", "latitude": 44.5492663, "longitude": 10.5573718, "population": 0, "elevation": null, "source": "osm"}, {"name": "Boschi di Bardone", "country": "", "latitude": 44.6339925, "longitude": 10.0786927, "population": 0, "elevation": null, "source": "osm"}, {"name": "Valestra", "country": "", "latitude": 44.4558995, "longitude": 10.5845577, "population": 372, "elevation": null, "source": "osm"}, {"name": "Cavazzoli", "country": "", "latitude": 44.7211646, "longitude": 10.6120562, "population": 1300, "elevation": null, "source": "osm"}, {"name": "Santa Maria del Piano", "country": "", "latitude": 44.655055, "longitude": 10.3175126, "population": 959, "elevation": null, "source": "osm"}, {"name": "Bell'Italia", "country": "", "latitude": 44.5368982, "longitude": 10.8791637, "population": 0, "elevation": null, "source": "osm"}, {"name": "Picenengo", "country": "", "latitude": 45.1525512, "longitude": 9.9843777, "population": 253, "elevation": null, "source": "osm"}, {"name": "San Felice", "country": "", "latitude": 45.1430082, "longitude": 10.0758057, "population": 1094, "elevation": null, "source": "osm"}, {"name": "Ligorzano", "country": "", "latitude": 44.4364172, "longitude": 10.7946042, "population": 0, "elevation": null, "source": "osm"}, {"name": "Cortetano", "country": "", "latitude": 45.1899857, "longitude": 9.9465376, "population": 0, "elevation": null, "source": "osm"}, {"name": "Luignano", "country": "", "latitude": 45.2154311, "longitude": 9.9027854, "population": 0, "elevation": null, "source": "osm"}, {"name": "Ossolaro", "country": "", "latitude": 45.2059528, "longitude": 9.9426323, "population": 0, "elevation": null, "source": "osm"}, {"name": "Castelnuovo del Zappa", "country": "", "latitude": 45.1991038, "longitude": 9.9652487, "population": 0, "elevation": null, "source": "osm"}, {"name": "Montagnana", "country": "", "latitude": 44.4767762, "longitude": 10.8246973, "population": 0, "elevation": null, "source": "osm"}, {"name": "Vallezza", "country": "", "latitude": 44.6582513, "longitude": 10.1579863, "population": 0, "elevation": null, "source": "osm"}, {"name": "Rossena", "country": "", "latitude": 44.5821033, "longitude": 10.4259536, "population": 21, "elevation": null, "source": "osm"}, {"name": "Felegara", "country": "", "latitude": 44.725112, "longitude": 10.112324, "population": 0, "elevation": null, "source": "osm"}, {"name": "Pradelle", "country": "", "latitude": 45.2844505, "longitude": 10.8691338, "population": 0, "elevation": null, "source": "osm"}, {"name": "Riccò di Fornovo", "country": "", "latitude": 44.7015416, "longitude": 10.1239948, "population": 1375, "elevation": null, "source": "osm"}, {"name": "Massenzatico", "country": "", "latitude": 44.7351549, "longitude": 10.6979792, "population": 3452, "elevation": null, "source": "osm"}, {"name": "Pratofontana", "country": "", "latitude": 44.7398586, "longitude": 10.670586, "population": 1078, "elevation": null, "source": "osm"}, {"name": "Ciano d'Enza", "country": "", "latitude": 44.5966405, "longitude": 10.4113919, "population": 2349, "elevation": null, "source": "osm"}, {"name": "Frascaro", "country": "", "latitude": 44.4411173, "longitude": 10.3781299, "population": 0, "elevation": null, "source": "osm"}, {"name": "Rosano", "country": "", "latitude": 44.4583124, "longitude": 10.3832937, "population": 0, "elevation": null, "source": "osm"}, {"name": "Villaberza", "country": "", "latitude": 44.4770494, "longitude": 10.4343066, "population": 0, "elevation": null, "source": "osm"}, {"name": "Pianzano", "country": "", "latitude": 44.460205, "longitude": 10.5519598, "population": 100, "elevation": null, "source": "osm"}, {"name": "Levizzano", "country": "", "latitude": 44.4659113, "longitude": 10.6310421, "population": 0, "elevation": null, "source": "osm"}, {"name": "Montecastagneto", "country": "", "latitude": 44.4794905, "longitude": 10.425542, "population": 0, "elevation": null, "source": "osm"}, {"name": "San Giovanni di Querciola", "country": "", "latitude": 44.5281758, "longitude": 10.5631112, "population": 0, "elevation": null, "source": "osm"}, {"name": "Masereto", "country": "", "latitude": 44.6387724, "longitude": 9.962391, "population": 23, "elevation": 495.0, "source": "osm"}, {"name": "Piagnolo", "country": "", "latitude": 44.5124097, "longitude": 10.3513261, "population": 0, "elevation": null, "source": "osm"}, {"name": "Roncaglio", "country": "", "latitude": 44.5327528, "longitude": 10.3919396, "population": 0, "elevation": null, "source": "osm"}, {"name": "Fontana", "country": "", "latitude": 44.6777619, "longitude": 10.802279, "population": 0, "elevation": null, "source": "osm"}, {"name": "Casola Canossa", "country": "", "latitude": 44.580203, "longitude": 10.4969382, "population": 0, "elevation": null, "source": "osm"}, {"name": "Montebabbio", "country": "", "latitude": 44.5499549, "longitude": 10.6908933, "population": 0, "elevation": null, "source": "osm"}, {"name": "San Romano", "country": "", "latitude": 44.5209321, "longitude": 10.6533667, "population": 0, "elevation": null, "source": "osm"}, {"name": "San Valentino", "country": "", "latitude": 44.5241423, "longitude": 10.7002259, "population": 0, "elevation": null, "source": "osm"}, {"name": "Pianzo", "country": "", "latitude": 44.5348868, "longitude": 10.4379879, "population": 0, "elevation": null, "source": "osm"}, {"name": "Crovara", "country": "", "latitude": 44.499692, "longitude": 10.3750857, "population": 0, "elevation": null, "source": "osm"}, {"name": "Santo Stefano di Pineto", "country": "", "latitude": 44.4685711, "longitude": 10.3858793, "population": 0, "elevation": null, "source": "osm"}, {"name": "Cola", "country": "", "latitude": 44.4518087, "longitude": 10.3593056, "population": 0, "elevation": null, "source": "osm"}, {"name": "Salvaterra", "country": "", "latitude": 44.60129, "longitude": 10.7663936, "population": 0, "elevation": null, "source": "osm"}, {"name": "Campazzo", "country": "", "latitude": 45.3229584, "longitude": 10.7677663, "population": 0, "elevation": null, "source": "osm"}, {"name": "Remelli", "country": "", "latitude": 45.3116721, "longitude": 10.7654704, "population": 0, "elevation": null, "source": "osm"}, {"name": "Gargallo", "country": "", "latitude": 44.7434944, "longitude": 10.8596342, "population": 0, "elevation": null, "source": "osm"}, {"name": "Baselicaduce", "country": "", "latitude": 44.9440712, "longitude": 9.9402343, "population": 0, "elevation": null, "source": "osm"}, {"name": "Santa Vittoria", "country": "", "latitude": 44.8552984, "longitude": 10.6357694, "population": 0, "elevation": null, "source": "osm"}, {"name": "Campitello", "country": "", "latitude": 45.0870182, "longitude": 10.607299, "population": 1714, "elevation": null, "source": "osm"}, {"name": "Cognento", "country": "", "latitude": 44.8184551, "longitude": 10.7467355, "population": 0, "elevation": null, "source": "osm"}, {"name": "San Michele dei Mucchietti", "country": "", "latitude": 44.5089068, "longitude": 10.7451056, "population": 0, "elevation": null, "source": "osm"}, {"name": "Sesso", "country": "", "latitude": 44.7392561, "longitude": 10.6147808, "population": 4545, "elevation": null, "source": "osm"}, {"name": "Casalgrande", "country": "", "latitude": 44.5880091, "longitude": 10.7373209, "population": 19310, "elevation": null, "source": "osm"}, {"name": "Saliceto Buzzalino", "country": "", "latitude": 44.7000934, "longitude": 10.8645454, "population": 0, "elevation": null, "source": "osm"}, {"name": "Campogalliano", "country": "", "latitude": 44.6905118, "longitude": 10.8407336, "population": 8845, "elevation": 43.0, "source": "osm"}, {"name": "Budrione", "country": "", "latitude": 44.8162719, "longitude": 10.8581828, "population": 0, "elevation": null, "source": "osm"}, {"name": "Migliarina", "country": "", "latitude": 44.8049628, "longitude": 10.8366045, "population": 0, "elevation": null, "source": "osm"}, {"name": "Colombarone", "country": "", "latitude": 44.608883, "longitude": 10.7961155, "population": 0, "elevation": null, "source": "osm"}, {"name": "Ponte Fossa", "country": "", "latitude": 44.5692824, "longitude": 10.8166882, "population": 0, "elevation": null, "source": "osm"}, {"name": "Tabina", "country": "", "latitude": 44.59898, "longitude": 10.8160704, "population": 0, "elevation": null, "source": "osm"}, {"name": "Gorzano", "country": "", "latitude": 44.5139416, "longitude": 10.8793539, "population": 0, "elevation": null, "source": "osm"}, {"name": "Torre Maina", "country": "", "latitude": 44.4977863, "longitude": 10.8741959, "population": 0, "elevation": null, "source": "osm"}, {"name": "Salvarola Terme", "country": "", "latitude": 44.518503, "longitude": 10.7678656, "population": 0, "elevation": null, "source": "osm"}, {"name": "San Matteo delle Chiaviche", "country": "", "latitude": 45.0187828, "longitude": 10.6311171, "population": 680, "elevation": null, "source": "osm"}, {"name": "Cizzolo", "country": "", "latitude": 45.0127011, "longitude": 10.66687, "population": 784, "elevation": null, "source": "osm"}, {"name": "San Venanzio", "country": "", "latitude": 44.4980343, "longitude": 10.8577608, "population": 0, "elevation": null, "source": "osm"}, {"name": "Masone", "country": "", "latitude": 44.6746885, "longitude": 10.7145153, "population": 0, "elevation": null, "source": "osm"}, {"name": "Fontanelle", "country": "", "latitude": 44.9703156, "longitude": 10.2155402, "population": 0, "elevation": null, "source": "osm"}, {"name": "Frescarolo", "country": "", "latitude": 44.9778605, "longitude": 10.0798051, "population": 186, "elevation": null, "source": "osm"}, {"name": "Madonna Prati", "country": "", "latitude": 44.9676275, "longitude": 10.0855887, "population": 0, "elevation": null, "source": "osm"}, {"name": "Samboseto", "country": "", "latitude": 44.9556373, "longitude": 10.1275356, "population": 0, "elevation": null, "source": "osm"}, {"name": "Priorato", "country": "", "latitude": 44.8741121, "longitude": 10.1628956, "population": 0, "elevation": null, "source": "osm"}, {"name": "Villalunga", "country": "", "latitude": 44.5670516, "longitude": 10.7640467, "population": 0, "elevation": null, "source": "osm"}, {"name": "Casa Bartolacelli - Stella", "country": "", "latitude": 44.4509775, "longitude": 10.7894067, "population": 0, "elevation": null, "source": "osm"}, {"name": "Stradella", "country": "", "latitude": 45.1739658, "longitude": 10.8733236, "population": 0, "elevation": null, "source": "osm"}, {"name": "Mancasale", "country": "", "latitude": 44.7214768, "longitude": 10.6474146, "population": 1218, "elevation": null, "source": "osm"}, {"name": "Villanova", "country": "", "latitude": 44.916339, "longitude": 10.8576434, "population": 0, "elevation": null, "source": "osm"}, {"name": "Motella", "country": "", "latitude": 45.3440808, "longitude": 10.0103611, "population": 0, "elevation": null, "source": "osm"}, {"name": "Cignano", "country": "", "latitude": 45.3766087, "longitude": 10.1057936, "population": 947, "elevation": null, "source": "osm"}, {"name": "Grazie", "country": "", "latitude": 45.1551648, "longitude": 10.693944, "population": 0, "elevation": null, "source": "osm"}, {"name": "Canolo", "country": "", "latitude": 44.7978252, "longitude": 10.7485146, "population": 0, "elevation": null, "source": "osm"}, {"name": "Savognatica", "country": "", "latitude": 44.4406642, "longitude": 10.5242946, "population": 100, "elevation": null, "source": "osm"}, {"name": "Ruzzano", "country": "", "latitude": 44.4802934, "longitude": 10.2816196, "population": 0, "elevation": null, "source": "osm"}, {"name": "Sailetto", "country": "", "latitude": 45.029513, "longitude": 10.7382097, "population": 0, "elevation": null, "source": "osm"}, {"name": "Pieveottoville", "country": "", "latitude": 45.0130792, "longitude": 10.1542883, "population": 687, "elevation": null, "source": "osm"}, {"name": "Montata Carra", "country": "", "latitude": 45.1847067, "longitude": 10.8072218, "population": 0, "elevation": null, "source": "osm"}, {"name": "Spinosa", "country": "", "latitude": 45.2050179, "longitude": 10.8200746, "population": 0, "elevation": null, "source": "osm"}, {"name": "Isola Pescaroli", "country": "", "latitude": 45.0423924, "longitude": 10.1853902, "population": 107, "elevation": null, "source": "osm"}, {"name": "Pagazzano", "country": "", "latitude": 44.5655052, "longitude": 9.972524, "population": 0, "elevation": null, "source": "osm"}, {"name": "Fosio", "country": "", "latitude": 44.6658576, "longitude": 10.0039976, "population": 0, "elevation": null, "source": "osm"}, {"name": "Bosco Ex Parmigiano", "country": "", "latitude": 45.1063468, "longitude": 10.0389497, "population": 851, "elevation": null, "source": "osm"}, {"name": "Battaglione", "country": "", "latitude": 45.1210671, "longitude": 10.0574792, "population": 0, "elevation": null, "source": "osm"}, {"name": "San Nazzaro", "country": "", "latitude": 45.0761073, "longitude": 9.8978258, "population": 703, "elevation": null, "source": "osm"}, {"name": "Gazzolo", "country": "", "latitude": 44.4376732, "longitude": 10.2959422, "population": 0, "elevation": null, "source": "osm"}, {"name": "Cereggio", "country": "", "latitude": 44.4429306, "longitude": 10.277879, "population": 0, "elevation": null, "source": "osm"}, {"name": "Esenta", "country": "", "latitude": 45.4163933, "longitude": 10.480549, "population": 0, "elevation": null, "source": "osm"}, {"name": "Cagnola", "country": "", "latitude": 44.4537631, "longitude": 10.3981432, "population": 0, "elevation": null, "source": "osm"}, {"name": "San Pietro di Querciola", "country": "", "latitude": 44.5367522, "longitude": 10.5967227, "population": 0, "elevation": null, "source": "osm"}, {"name": "Paroletta", "country": "", "latitude": 44.8982359, "longitude": 10.1605014, "population": 0, "elevation": null, "source": "osm"}, {"name": "Castellina San Pietro", "country": "", "latitude": 44.9151187, "longitude": 10.1085956, "population": 0, "elevation": null, "source": "osm"}, {"name": "Seta", "country": "", "latitude": 44.8049219, "longitude": 10.6385979, "population": 0, "elevation": null, "source": "osm"}, {"name": "Gazzata", "country": "", "latitude": 44.7022331, "longitude": 10.7659806, "population": 0, "elevation": null, "source": "osm"}, {"name": "Sacchetti", "country": "", "latitude": 45.3480444, "longitude": 10.3847815, "population": 0, "elevation": null, "source": "osm"}, {"name": "Mezzane di Calvisano", "country": "", "latitude": 45.3474517, "longitude": 10.3938108, "population": 0, "elevation": null, "source": "osm"}, {"name": "Cornali", "country": "", "latitude": 45.3465981, "longitude": 10.4298855, "population": 0, "elevation": null, "source": "osm"}, {"name": "Bonina", "country": "", "latitude": 45.0291057, "longitude": 10.7534663, "population": 0, "elevation": null, "source": "osm"}, {"name": "Carobbio", "country": "", "latitude": 45.0160408, "longitude": 10.7214283, "population": 0, "elevation": null, "source": "osm"}, {"name": "Torricella", "country": "", "latitude": 45.0377284, "longitude": 10.7060833, "population": 181, "elevation": null, "source": "osm"}, {"name": "Codisotto", "country": "", "latitude": 44.9808327, "longitude": 10.7272752, "population": 1100, "elevation": null, "source": "osm"}, {"name": "Canicossa", "country": "", "latitude": 45.0686666, "longitude": 10.6223911, "population": 326, "elevation": null, "source": "osm"}, {"name": "Fengo", "country": "", "latitude": 45.1844053, "longitude": 9.887359, "population": 381, "elevation": null, "source": "osm"}, {"name": "Tressano", "country": "", "latitude": 44.5328794, "longitude": 10.7522748, "population": 0, "elevation": null, "source": "osm"}, {"name": "Pieve Saliceto", "country": "", "latitude": 44.8977748, "longitude": 10.5989283, "population": 700, "elevation": null, "source": "osm"}, {"name": "Cicognara", "country": "", "latitude": 44.9437867, "longitude": 10.4749237, "population": 0, "elevation": 24.0, "source": "osm"}, {"name": "Fossa Caprara", "country": "", "latitude": 44.9553081, "longitude": 10.4488467, "population": 254, "elevation": null, "source": "osm"}, {"name": "Staffolo", "country": "", "latitude": 44.974786, "longitude": 10.4533106, "population": 0, "elevation": null, "source": "osm"}, {"name": "Capella", "country": "", "latitude": 45.0043327, "longitude": 10.4442707, "population": 277, "elevation": null, "source": "osm"}, {"name": "Vicoboneghisio", "country": "", "latitude": 45.01016, "longitude": 10.4242947, "population": 376, "elevation": null, "source": "osm"}, {"name": "Vicobellignano", "country": "", "latitude": 45.003652, "longitude": 10.4122342, "population": 0, "elevation": null, "source": "osm"}, {"name": "Borgo Castelletto", "country": "", "latitude": 45.1371314, "longitude": 10.8790264, "population": 0, "elevation": null, "source": "osm"}, {"name": "Praticello", "country": "", "latitude": 44.8051065, "longitude": 10.4750873, "population": 2704, "elevation": null, "source": "osm"}, {"name": "Vidalenzo", "country": "", "latitude": 45.0152858, "longitude": 10.0462079, "population": 290, "elevation": null, "source": "osm"}, {"name": "San Giuliano Piacentino", "country": "", "latitude": 45.0705789, "longitude": 9.9935058, "population": 512, "elevation": null, "source": "osm"}, {"name": "San Pedretto", "country": "", "latitude": 45.0758533, "longitude": 9.9614242, "population": 160, "elevation": null, "source": "osm"}, {"name": "Gavassa", "country": "", "latitude": 44.7049132, "longitude": 10.6797721, "population": 2400, "elevation": null, "source": "osm"}, {"name": "Roncadella", "country": "", "latitude": 44.6601212, "longitude": 10.7018506, "population": 340, "elevation": null, "source": "osm"}, {"name": "Marmirolo", "country": "", "latitude": 44.6551073, "longitude": 10.7180791, "population": 950, "elevation": null, "source": "osm"}, {"name": "Corticella", "country": "", "latitude": 44.6339682, "longitude": 10.7523961, "population": 730, "elevation": null, "source": "osm"}, {"name": "Bagno", "country": "", "latitude": 44.6531215, "longitude": 10.7448104, "population": 3000, "elevation": null, "source": "osm"}, {"name": "Polignano", "country": "", "latitude": 45.0448485, "longitude": 9.9072269, "population": 265, "elevation": null, "source": "osm"}, {"name": "San Pietro in Corte", "country": "", "latitude": 45.0815105, "longitude": 9.9626661, "population": 160, "elevation": null, "source": "osm"}, {"name": "Castellazzo", "country": "", "latitude": 44.6776858, "longitude": 10.7421802, "population": 300, "elevation": null, "source": "osm"}, {"name": "Brugneto", "country": "", "latitude": 44.9225044, "longitude": 10.7512146, "population": 0, "elevation": null, "source": "osm"}, {"name": "San Girolamo", "country": "", "latitude": 44.919753, "longitude": 10.7291918, "population": 0, "elevation": null, "source": "osm"}, {"name": "San Martino di Guastalla", "country": "", "latitude": 44.9127189, "longitude": 10.6858157, "population": 0, "elevation": null, "source": "osm"}, {"name": "San Sisto", "country": "", "latitude": 44.8469521, "longitude": 10.4979021, "population": 700, "elevation": null, "source": "osm"}, {"name": "Fodico", "country": "", "latitude": 44.8578613, "longitude": 10.5608679, "population": 380, "elevation": null, "source": "osm"}, {"name": "Codemondo", "country": "", "latitude": 44.690651, "longitude": 10.5585233, "population": 1500, "elevation": null, "source": "osm"}, {"name": "Taneto", "country": "", "latitude": 44.7727853, "longitude": 10.45411, "population": 1437, "elevation": null, "source": "osm"}, {"name": "Olmo", "country": "", "latitude": 44.820564, "longitude": 10.4946563, "population": 153, "elevation": null, "source": "osm"}, {"name": "Nocetolo", "country": "", "latitude": 44.8040829, "longitude": 10.5157829, "population": 327, "elevation": null, "source": "osm"}, {"name": "San Savino", "country": "", "latitude": 44.8061967, "longitude": 10.5891926, "population": 600, "elevation": null, "source": "osm"}, {"name": "Cogruzzo", "country": "", "latitude": 44.8265242, "longitude": 10.5833081, "population": 900, "elevation": null, "source": "osm"}, {"name": "Meletole", "country": "", "latitude": 44.8467906, "longitude": 10.5830326, "population": 500, "elevation": null, "source": "osm"}, {"name": "Argine", "country": "", "latitude": 44.7824657, "longitude": 10.6379281, "population": 900, "elevation": null, "source": "osm"}, {"name": "Pieve Rossa", "country": "", "latitude": 44.7794158, "longitude": 10.6837146, "population": 500, "elevation": null, "source": "osm"}, {"name": "San Tommaso della Fossa", "country": "", "latitude": 44.7952069, "longitude": 10.6844941, "population": 0, "elevation": null, "source": "osm"}, {"name": "Ca' de' Frati", "country": "", "latitude": 44.8431435, "longitude": 10.8194252, "population": 185, "elevation": null, "source": "osm"}, {"name": "Belforte", "country": "", "latitude": 45.0823417, "longitude": 10.5615842, "population": 0, "elevation": null, "source": "osm"}, {"name": "Casoni", "country": "", "latitude": 44.9391755, "longitude": 10.73732, "population": 800, "elevation": null, "source": "osm"}, {"name": "San Giovanni della Fossa", "country": "", "latitude": 44.8141357, "longitude": 10.7037079, "population": 1000, "elevation": null, "source": "osm"}, {"name": "Bernolda", "country": "", "latitude": 44.8755556, "longitude": 10.7596749, "population": 253, "elevation": null, "source": "osm"}, {"name": "Lemizzone", "country": "", "latitude": 44.7345669, "longitude": 10.7513674, "population": 500, "elevation": null, "source": "osm"}, {"name": "San Prospero di Correggio", "country": "", "latitude": 44.7681473, "longitude": 10.7519287, "population": 38, "elevation": null, "source": "osm"}, {"name": "Caprara", "country": "", "latitude": 44.7812526, "longitude": 10.5079284, "population": 1300, "elevation": null, "source": "osm"}, {"name": "Santa Maria della Fossa", "country": "", "latitude": 44.8022974, "longitude": 10.6943232, "population": 750, "elevation": null, "source": "osm"}, {"name": "Romprezzagno", "country": "", "latitude": 45.1027554, "longitude": 10.4541671, "population": 0, "elevation": null, "source": "osm"}, {"name": "Migliara - Boastra", "country": "", "latitude": 44.5021404, "longitude": 10.4838404, "population": 0, "elevation": null, "source": "osm"}, {"name": "Botteghino", "country": "", "latitude": 44.7483944, "longitude": 10.3618719, "population": 870, "elevation": null, "source": "osm"}, {"name": "Brusatasso", "country": "", "latitude": 44.9811928, "longitude": 10.7830337, "population": 0, "elevation": null, "source": "osm"}, {"name": "Compiano d'Enza", "country": "", "latitude": 44.526867, "longitude": 10.35375, "population": 0, "elevation": null, "source": "osm"}, {"name": "Eremo", "country": "", "latitude": 45.137136, "longitude": 10.7353597, "population": 0, "elevation": null, "source": "osm"}, {"name": "Barcaccia", "country": "", "latitude": 44.6640365, "longitude": 10.4300564, "population": 657, "elevation": 124.0, "source": "osm"}, {"name": "Casteldaldo", "country": "", "latitude": 44.4388308, "longitude": 10.5817356, "population": 120, "elevation": null, "source": "osm"}, {"name": "Leguigno", "country": "", "latitude": 44.5125319, "longitude": 10.4512382, "population": 0, "elevation": null, "source": "osm"}, {"name": "Tre Olmi", "country": "", "latitude": 44.6694502, "longitude": 10.8683377, "population": 0, "elevation": null, "source": "osm"}, {"name": "Formigosa", "country": "", "latitude": 45.1221248, "longitude": 10.861787, "population": 0, "elevation": null, "source": "osm"}, {"name": "Castelnuovo Fogliani", "country": "", "latitude": 44.8753746, "longitude": 9.9738934, "population": 0, "elevation": null, "source": "osm"}, {"name": "Cividale Mantovano", "country": "", "latitude": 45.0666023, "longitude": 10.4910591, "population": 0, "elevation": null, "source": "osm"}, {"name": "Breda Cisoni", "country": "", "latitude": 45.0107782, "longitude": 10.5308527, "population": 0, "elevation": null, "source": "osm"}, {"name": "Brugnolo", "country": "", "latitude": 45.0340663, "longitude": 10.4985613, "population": 0, "elevation": null, "source": "osm"}, {"name": "Mezzana Sant'Antonio", "country": "", "latitude": 45.0069722, "longitude": 10.4976426, "population": 0, "elevation": null, "source": "osm"}, {"name": "Castelponzone", "country": "", "latitude": 45.0629216, "longitude": 10.3110199, "population": 0, "elevation": null, "source": "osm"}, {"name": "Ardole San Marino", "country": "", "latitude": 45.1563911, "longitude": 10.1040946, "population": 0, "elevation": null, "source": "osm"}, {"name": "San Martino in Beliseto", "country": "", "latitude": 45.2159285, "longitude": 9.9855395, "population": 0, "elevation": null, "source": "osm"}, {"name": "San Cassiano", "country": "", "latitude": 45.2097968, "longitude": 10.5254954, "population": 0, "elevation": null, "source": "osm"}, {"name": "San Fermo", "country": "", "latitude": 45.2000479, "longitude": 10.5416352, "population": 350, "elevation": null, "source": "osm"}, {"name": "Chiesuola", "country": "", "latitude": 45.2692917, "longitude": 10.1192933, "population": 0, "elevation": null, "source": "osm"}, {"name": "Bacedasco Basso", "country": "", "latitude": 44.8445868, "longitude": 9.9224087, "population": 0, "elevation": null, "source": "osm"}, {"name": "Cascinapiano", "country": "", "latitude": 44.629918, "longitude": 10.2718864, "population": 0, "elevation": null, "source": "osm"}, {"name": "Corniglio", "country": "", "latitude": 44.4758995, "longitude": 10.0889264, "population": 1891, "elevation": null, "source": "osm"}, {"name": "Villarocca", "country": "", "latitude": 45.1936902, "longitude": 10.2662245, "population": 0, "elevation": null, "source": "osm"}, {"name": "Quattro Strade", "country": "", "latitude": 45.2180854, "longitude": 10.4663895, "population": 0, "elevation": null, "source": "osm"}, {"name": "Cadiroggio", "country": "", "latitude": 44.5491041, "longitude": 10.7430228, "population": 0, "elevation": null, "source": "osm"}, {"name": "Sant'Agata Casale", "country": "", "latitude": 44.7014163, "longitude": 10.7971271, "population": 120, "elevation": null, "source": "osm"}, {"name": "Ponte Taro", "country": "", "latitude": 44.8240424, "longitude": 10.2120924, "population": 0, "elevation": null, "source": "osm"}, {"name": "Pieve Cusignano", "country": "", "latitude": 44.7820808, "longitude": 10.0605612, "population": 0, "elevation": null, "source": "osm"}, {"name": "Arola", "country": "", "latitude": 44.6719774, "longitude": 10.2841385, "population": 0, "elevation": null, "source": "osm"}, {"name": "Bargone", "country": "", "latitude": 44.8187057, "longitude": 10.0171566, "population": 0, "elevation": null, "source": "osm"}, {"name": "Banzola", "country": "", "latitude": 44.7689042, "longitude": 10.0153806, "population": 0, "elevation": null, "source": "osm"}, {"name": "San Vittore", "country": "", "latitude": 44.7653075, "longitude": 9.9879892, "population": 0, "elevation": null, "source": "osm"}, {"name": "Carzeto", "country": "", "latitude": 44.9382615, "longitude": 10.1629639, "population": 0, "elevation": null, "source": "osm"}, {"name": "Diolo", "country": "", "latitude": 44.965905, "longitude": 10.1481737, "population": 0, "elevation": null, "source": "osm"}, {"name": "Palmia", "country": "", "latitude": 44.6433179, "longitude": 10.1283055, "population": 0, "elevation": null, "source": "osm"}, {"name": "Marzano", "country": "", "latitude": 44.6316865, "longitude": 10.1384323, "population": 0, "elevation": null, "source": "osm"}, {"name": "Castelnovo", "country": "", "latitude": 44.8664191, "longitude": 10.3272453, "population": 0, "elevation": null, "source": "osm"}, {"name": "San Donato", "country": "", "latitude": 44.7998124, "longitude": 10.3950426, "population": 0, "elevation": null, "source": "osm"}, {"name": "Valera", "country": "", "latitude": 44.799253, "longitude": 10.2848985, "population": 0, "elevation": null, "source": "osm"}, {"name": "Fraore", "country": "", "latitude": 44.819555, "longitude": 10.2612586, "population": 0, "elevation": null, "source": "osm"}, {"name": "Palasone", "country": "", "latitude": 44.955151, "longitude": 10.2423053, "population": 0, "elevation": null, "source": "osm"}, {"name": "Copezzato", "country": "", "latitude": 44.9363663, "longitude": 10.2504699, "population": 0, "elevation": null, "source": "osm"}, {"name": "Copermio", "country": "", "latitude": 44.9377443, "longitude": 10.4028982, "population": 0, "elevation": null, "source": "osm"}, {"name": "Binanuova", "country": "", "latitude": 45.2316532, "longitude": 10.1791452, "population": 0, "elevation": null, "source": "osm"}, {"name": "San Lorenzo de' Picenardi", "country": "", "latitude": 45.1451398, "longitude": 10.3071884, "population": 459, "elevation": null, "source": "osm"}, {"name": "Pieve Delmona", "country": "", "latitude": 45.1664221, "longitude": 10.127632, "population": 0, "elevation": null, "source": "osm"}, {"name": "Fontanella Grazioli", "country": "", "latitude": 45.1957864, "longitude": 10.3276358, "population": 0, "elevation": null, "source": "osm"}, {"name": "Dosimo", "country": "", "latitude": 45.1849421, "longitude": 10.1040929, "population": 0, "elevation": null, "source": "osm"}, {"name": "Persichello", "country": "", "latitude": 45.1679816, "longitude": 10.0770972, "population": 0, "elevation": null, "source": "osm"}, {"name": "Cignone", "country": "", "latitude": 45.2708709, "longitude": 9.9851482, "population": 0, "elevation": null, "source": "osm"}, {"name": "Grassano", "country": "", "latitude": 44.593609, "longitude": 10.4487868, "population": 219, "elevation": null, "source": "osm"}, {"name": "Visignolo", "country": "", "latitude": 44.5244276, "longitude": 10.6275672, "population": 194, "elevation": null, "source": "osm"}, {"name": "Casalgrande Alto", "country": "", "latitude": 44.5760414, "longitude": 10.7296172, "population": 0, "elevation": null, "source": "osm"}, {"name": "Casola Querciola", "country": "", "latitude": 44.5716433, "longitude": 10.5635467, "population": 0, "elevation": null, "source": "osm"}, {"name": "Paderna", "country": "", "latitude": 44.5699348, "longitude": 10.5179552, "population": 98, "elevation": null, "source": "osm"}, {"name": "Paullo", "country": "", "latitude": 44.5489498, "longitude": 10.504948, "population": 875, "elevation": null, "source": "osm"}, {"name": "Giandeto", "country": "", "latitude": 44.497818, "longitude": 10.5360859, "population": 184, "elevation": null, "source": "osm"}, {"name": "Onfiano", "country": "", "latitude": 44.4839013, "longitude": 10.5499169, "population": 100, "elevation": null, "source": "osm"}, {"name": "Canossa", "country": "", "latitude": 44.5758404, "longitude": 10.4557052, "population": 34, "elevation": null, "source": "osm"}, {"name": "Gottano", "country": "", "latitude": 44.4623349, "longitude": 10.3088149, "population": 0, "elevation": null, "source": "osm"}, {"name": "Remedello", "country": "", "latitude": 45.2794982, "longitude": 10.3717426, "population": 0, "elevation": null, "source": "osm"}, {"name": "Pilastrello", "country": "", "latitude": 44.7329748, "longitude": 10.3725792, "population": 0, "elevation": null, "source": "osm"}, {"name": "Castelletto", "country": "", "latitude": 45.2538496, "longitude": 10.7697343, "population": 71, "elevation": 40.0, "source": "osm"}, {"name": "Stilo de' Mariani", "country": "", "latitude": 45.1633303, "longitude": 10.2514948, "population": 0, "elevation": null, "source": "osm"}, {"name": "Selva Grossa", "country": "", "latitude": 44.6119363, "longitude": 10.0112913, "population": 0, "elevation": null, "source": "osm"}, {"name": "Viola", "country": "", "latitude": 44.6105356, "longitude": 10.0277082, "population": 0, "elevation": null, "source": "osm"}, {"name": "Gadesco", "country": "", "latitude": 45.1522513, "longitude": 10.1227879, "population": 0, "elevation": null, "source": "osm"}, {"name": "Monchio delle Olle", "country": "", "latitude": 44.5429092, "longitude": 10.410593, "population": 0, "elevation": null, "source": "osm"}, {"name": "San Michele in Bosco", "country": "", "latitude": 45.1112751, "longitude": 10.5693094, "population": 0, "elevation": null, "source": "osm"}, {"name": "Novagli", "country": "", "latitude": 45.3887139, "longitude": 10.4355516, "population": 0, "elevation": null, "source": "osm"}, {"name": "Ovanengo", "country": "", "latitude": 45.370773, "longitude": 9.9499056, "population": 0, "elevation": null, "source": "osm"}, {"name": "Valle", "country": "", "latitude": 44.9922976, "longitude": 10.5473407, "population": 0, "elevation": null, "source": "osm"}, {"name": "Rossa", "country": "", "latitude": 45.3767345, "longitude": 9.9634203, "population": 0, "elevation": null, "source": "osm"}, {"name": "Porzano", "country": "", "latitude": 45.39935, "longitude": 10.1958624, "population": 0, "elevation": null, "source": "osm"}, {"name": "Castelletto", "country": "", "latitude": 45.331648, "longitude": 10.2355644, "population": 0, "elevation": null, "source": "osm"}, {"name": "Perdella", "country": "", "latitude": 44.5849705, "longitude": 10.0255943, "population": 0, "elevation": null, "source": "osm"}, {"name": "Villaggio Chiara", "country": "", "latitude": 45.2582752, "longitude": 10.3803141, "population": 0, "elevation": null, "source": "osm"}, {"name": "Gadesco", "country": "", "latitude": 45.1533896, "longitude": 10.1226725, "population": 0, "elevation": null, "source": "osm"}, {"name": "Costamezzana", "country": "", "latitude": 44.7964337, "longitude": 10.0929885, "population": 0, "elevation": null, "source": "osm"}]