[{"name": "Torre Beretti", "country": "", "latitude": 45.0610885, "longitude": 8.6719651, "population": 0, "elevation": 89.0, "source": "osm"}, {"name": "Gravellona Lomellina", "country": "", "latitude": 45.327656, "longitude": 8.7642419, "population": 2173, "elevation": null, "source": "osm"}, {"name": "Frascarolo", "country": "", "latitude": 45.046656, "longitude": 8.682044, "population": 1200, "elevation": 87.0, "source": "osm"}, {"name": "Mede", "country": "", "latitude": 45.0974469, "longitude": 8.736176, "population": 6000, "elevation": null, "source": "osm"}, {"name": "Lomello", "country": "", "latitude": 45.121059, "longitude": 8.796245, "population": 2378, "elevation": null, "source": "osm"}, {"name": "Olevano di Lomellina", "country": "", "latitude": 45.2129605, "longitude": 8.7172694, "population": 830, "elevation": null, "source": "osm"}, {"name": "Ottobiano", "country": "", "latitude": 45.1528163, "longitude": 8.8292093, "population": 1131, "elevation": null, "source": "osm"}, {"name": "Mezzana Bigli", "country": "", "latitude": 45.059858, "longitude": 8.848447, "population": 1120, "elevation": 76.0, "source": "osm"}, {"name": "Mortara", "country": "", "latitude": 45.2518433, "longitude": 8.7377449, "population": 15673, "elevation": null, "source": "osm"}, {"name": "Albonese", "country": "", "latitude": 45.2944385, "longitude": 8.706322, "population": 504, "elevation": null, "source": "osm"}, {"name": "Breme", "country": "", "latitude": 45.1269219, "longitude": 8.6235671, "population": 847, "elevation": 101.0, "source": "osm"}, {"name": "Gambolò", "country": "", "latitude": 45.2590302, "longitude": 8.8590602, "population": 10052, "elevation": null, "source": "osm"}, {"name": "Gambarana", "country": "", "latitude": 45.0289586, "longitude": 8.7625383, "population": 235, "elevation": 83.0, "source": "osm"}, {"name": "Castello d'Agogna", "country": "", "latitude": 45.234561, "longitude": 8.68714, "population": 969, "elevation": null, "source": "osm"}, {"name": "Cassolnovo", "country": "", "latitude": 45.3658449, "longitude": 8.8092037, "population": 5820, "elevation": null, "source": "osm"}, {"name": "Langosco", "country": "", "latitude": 45.2143674, "longitude": 8.5637296, "population": 458, "elevation": null, "source": "osm"}, {"name": "Pieve del Cairo", "country": "", "latitude": 45.049957, "longitude": 8.804146, "population": 2096, "elevation": 80.0, "source": "osm"}, {"name": "Palestro", "country": "", "latitude": 45.301761, "longitude": 8.533436, "population": 2014, "elevation": null, "source": "osm"}, {"name": "Parona", "country": "", "latitude": 45.2826019, "longitude": 8.7508446, "population": 1698, "elevation": null, "source": "osm"}, {"name": "Nicorvo", "country": "", "latitude": 45.285662, "longitude": 8.667939, "population": 386, "elevation": null, "source": "osm"}, {"name": "San Giorgio di Lomellina", "country": "", "latitude": 45.1744127, "longitude": 8.790098, "population": 1202, "elevation": null, "source": "osm"}, {"name": "Suardi", "country": "", "latitude": 45.034656, "longitude": 8.742945, "population": 627, "elevation": 84.0, "source": "osm"}, {"name": "Velezzo Lomellina", "country": "", "latitude": 45.163359, "longitude": 8.737243, "population": 103, "elevation": null, "source": "osm"}, {"name": "Tromello", "country": "", "latitude": 45.2091305, "longitude": 8.8717307, "population": 3409, "elevation": null, "source": "osm"}, {"name": "Candia Lomellina", "country": "", "latitude": 45.178758, "longitude": 8.59484, "population": 1646, "elevation": 102.0, "source": "osm"}, {"name": "Cilavegna", "country": "", "latitude": 45.310439, "longitude": 8.7424776, "population": 4979, "elevation": null, "source": "osm"}, {"name": "Castelnovetto", "country": "", "latitude": 45.25476, "longitude": 8.611838, "population": 643, "elevation": null, "source": "osm"}, {"name": "Zeme", "country": "", "latitude": 45.197302, "longitude": 8.6659204, "population": 1197, "elevation": null, "source": "osm"}, {"name": "Ceretto Lomellina", "country": "", "latitude": 45.2449611, "longitude": 8.6724399, "population": 211, "elevation": null, "source": "osm"}, {"name": "Valle Lomellina", "country": "", "latitude": 45.153058, "longitude": 8.668542, "population": 2229, "elevation": null, "source": "osm"}, {"name": "Villa Biscossi", "country": "", "latitude": 45.090393, "longitude": 8.7869936, "population": 57, "elevation": null, "source": "osm"}, {"name": "Vigevano", "country": "", "latitude": 45.3170942, "longitude": 8.858603, "population": 58000, "elevation": 116.0, "source": "osm"}, {"name": "Sartirana Lomellina", "country": "", "latitude": 45.1138448, "longitude": 8.6642435, "population": 1732, "elevation": 99.0, "source": "osm"}, {"name": "Valeggio", "country": "", "latitude": 45.15066, "longitude": 8.859946, "population": 226, "elevation": null, "source": "osm"}, {"name": "Robbio", "country": "", "latitude": 45.2899709, "longitude": 8.5932785, "population": 6159, "elevation": null, "source": "osm"}, {"name": "Sant'Angelo Lomellina", "country": "", "latitude": 45.247061, "longitude": 8.644439, "population": 828, "elevation": null, "source": "osm"}, {"name": "Rosasco", "country": "", "latitude": 45.25106, "longitude": 8.578938, "population": 712, "elevation": null, "source": "osm"}, {"name": "Ferrera Erbognone", "country": "", "latitude": 45.115059, "longitude": 8.864347, "population": 1103, "elevation": null, "source": "osm"}, {"name": "Galliavola", "country": "", "latitude": 45.097559, "longitude": 8.818846, "population": 232, "elevation": null, "source": "osm"}, {"name": "Cergnago", "country": "", "latitude": 45.1982014, "longitude": 8.7728428, "population": 764, "elevation": null, "source": "osm"}, {"name": "Confienza", "country": "", "latitude": 45.332162, "longitude": 8.556336, "population": 1636, "elevation": null, "source": "osm"}, {"name": "Cozzo", "country": "", "latitude": 45.192659, "longitude": 8.61104, "population": 432, "elevation": null, "source": "osm"}, {"name": "Alessandria", "country": "", "latitude": 44.9130438, "longitude": 8.6154872, "population": 90987, "elevation": null, "source": "osm"}, {"name": "Asti", "country": "", "latitude": 44.900542, "longitude": 8.2068876, "population": 71276, "elevation": null, "source": "osm"}, {"name": "Vercelli", "country": "", "latitude": 45.3251557, "longitude": 8.4227666, "population": 45132, "elevation": null, "source": "osm"}, {"name": "Alluvioni Cambiò", "country": "", "latitude": 45.001256, "longitude": 8.795147, "population": 967, "elevation": 77.0, "source": "osm"}, {"name": "Casale Monferrato", "country": "", "latitude": 45.1362661, "longitude": 8.4498127, "population": 35244, "elevation": 116.0, "source": "osm"}, {"name": "Castelnuovo Bormida", "country": "", "latitude": 44.742648, "longitude": 8.548547, "population": 648, "elevation": null, "source": "osm"}, {"name": "Castelspina", "country": "", "latitude": 44.8061493, "longitude": 8.5831455, "population": 394, "elevation": null, "source": "osm"}, {"name": "Cella Monte", "country": "", "latitude": 45.0748677, "longitude": 8.3911849, "population": 509, "elevation": null, "source": "osm"}, {"name": "Conzano", "country": "", "latitude": 45.0197168, "longitude": 8.4563691, "population": 1005, "elevation": null, "source": "osm"}, {"name": "Cereseto", "country": "", "latitude": 45.087654, "longitude": 8.319935, "population": 431, "elevation": null, "source": "osm"}, {"name": "Ovada", "country": "", "latitude": 44.638346, "longitude": 8.64525, "population": 11677, "elevation": null, "source": "osm"}, {"name": "Ottiglio", "country": "", "latitude": 45.0543209, "longitude": 8.3383749, "population": 659, "elevation": null, "source": "osm"}, {"name": "Oviglio", "country": "", "latitude": 44.86125, "longitude": 8.487743, "population": 1294, "elevation": null, "source": "osm"}, {"name": "Castelletto Merli", "country": "", "latitude": 45.0744544, "longitude": 8.2405639, "population": 470, "elevation": null, "source": "osm"}, {"name": "Cassinelle", "country": "", "latitude": 44.601544, "longitude": 8.563449, "population": 864, "elevation": null, "source": "osm"}, {"name": "Coniolo", "country": "", "latitude": 45.1468515, "longitude": 8.371519, "population": 459, "elevation": 252.0, "source": "osm"}, {"name": "Cerrina Monferrato", "country": "", "latitude": 45.121354, "longitude": 8.213832, "population": 1599, "elevation": null, "source": "osm"}, {"name": "Odalengo Piccolo", "country": "", "latitude": 45.0718357, "longitude": 8.2094622, "population": 274, "elevation": null, "source": "osm"}, {"name": "San Giorgio Monferrato", "country": "", "latitude": 45.1076846, "longitude": 8.4130547, "population": 1279, "elevation": null, "source": "osm"}, {"name": "Capriata d'Orba", "country": "", "latitude": 44.7285445, "longitude": 8.6895813, "population": 1845, "elevation": null, "source": "osm"}, {"name": "Altavilla Monferrato", "country": "", "latitude": 44.993552, "longitude": 8.375938, "population": 480, "elevation": null, "source": "osm"}, {"name": "Alfiano Natta", "country": "", "latitude": 45.048552, "longitude": 8.208334, "population": 742, "elevation": null, "source": "osm"}, {"name": "Alice Bel Colle", "country": "", "latitude": 44.726046, "longitude": 8.450745, "population": 786, "elevation": null, "source": "osm"}, {"name": "Bergamasco", "country": "", "latitude": 44.827249, "longitude": 8.454743, "population": 765, "elevation": null, "source": "osm"}, {"name": "Belforte Monferrato", "country": "", "latitude": 44.6245869, "longitude": 8.6622018, "population": 448, "elevation": null, "source": "osm"}, {"name": "Bozzole", "country": "", "latitude": 45.0701402, "longitude": 8.606553, "population": 321, "elevation": 91.0, "source": "osm"}, {"name": "Bosio", "country": "", "latitude": 44.6500331, "longitude": 8.7923887, "population": 1177, "elevation": null, "source": "osm"}, {"name": "Casaleggio Boiro", "country": "", "latitude": 44.633547, "longitude": 8.730452, "population": 377, "elevation": null, "source": "osm"}, {"name": "Casal Cermelli", "country": "", "latitude": 44.83495, "longitude": 8.624946, "population": 1146, "elevation": null, "source": "osm"}, {"name": "Carrosio", "country": "", "latitude": 44.6582837, "longitude": 8.8315737, "population": 465, "elevation": null, "source": "osm"}, {"name": "Carpeneto", "country": "", "latitude": 44.6772016, "longitude": 8.6064093, "population": 913, "elevation": null, "source": "osm"}, {"name": "Fraconalto", "country": "", "latitude": 44.591047, "longitude": 8.878456, "population": 328, "elevation": null, "source": "osm"}, {"name": "Felizzano", "country": "", "latitude": 44.8999639, "longitude": 8.4362123, "population": 2395, "elevation": null, "source": "osm"}, {"name": "Cuccaro Monferrato", "country": "", "latitude": 44.993653, "longitude": 8.45754, "population": 324, "elevation": null, "source": "osm"}, {"name": "Fresonara", "country": "", "latitude": 44.78295, "longitude": 8.686149, "population": 694, "elevation": null, "source": "osm"}, {"name": "Frassineto Po", "country": "", "latitude": 45.133411, "longitude": 8.5339427, "population": 1465, "elevation": 104.0, "source": "osm"}, {"name": "Frassinello Monferrato", "country": "", "latitude": 45.031753, "longitude": 8.387638, "population": 562, "elevation": null, "source": "osm"}, {"name": "Francavilla Bisio", "country": "", "latitude": 44.734649, "longitude": 8.731251, "population": 459, "elevation": null, "source": "osm"}, {"name": "Gabiano", "country": "", "latitude": 45.156754, "longitude": 8.195231, "population": 1259, "elevation": null, "source": "osm"}, {"name": "Fubine Monferrato", "country": "", "latitude": 44.962752, "longitude": 8.42994, "population": 1683, "elevation": null, "source": "osm"}, {"name": "Mombello Monferrato", "country": "", "latitude": 45.132854, "longitude": 8.250333, "population": 1095, "elevation": null, "source": "osm"}, {"name": "Moncestino", "country": "", "latitude": 45.1547598, "longitude": 8.1614216, "population": 226, "elevation": null, "source": "osm"}, {"name": "Isola Sant'Antonio", "country": "", "latitude": 45.0305288, "longitude": 8.8487577, "population": 717, "elevation": 76.0, "source": "osm"}, {"name": "Lerma", "country": "", "latitude": 44.636047, "longitude": 8.715452, "population": 801, "elevation": null, "source": "osm"}, {"name": "Lu", "country": "", "latitude": 45.001453, "longitude": 8.4836959, "population": 1079, "elevation": null, "source": "osm"}, {"name": "Masio", "country": "", "latitude": 44.869649, "longitude": 8.407741, "population": 1440, "elevation": null, "source": "osm"}, {"name": "Morsasco", "country": "", "latitude": 44.665346, "longitude": 8.550848, "population": 718, "elevation": null, "source": "osm"}, {"name": "Novi Ligure", "country": "", "latitude": 44.76085, "longitude": 8.789551, "population": 27223, "elevation": null, "source": "osm"}, {"name": "Occimiano", "country": "", "latitude": 45.060255, "longitude": 8.50764, "population": 1385, "elevation": null, "source": "osm"}, {"name": "Odalengo Grande", "country": "", "latitude": 45.1098249, "longitude": 8.1669008, "population": 533, "elevation": null, "source": "osm"}, {"name": "Montaldeo", "country": "", "latitude": 44.667147, "longitude": 8.730152, "population": 318, "elevation": null, "source": "osm"}, {"name": "Montechiaro d'Acqui", "country": "", "latitude": 44.5943782, "longitude": 8.378618, "population": 585, "elevation": null, "source": "osm"}, {"name": "Piovera", "country": "", "latitude": 44.958454, "longitude": 8.735947, "population": 736, "elevation": null, "source": "osm"}, {"name": "Ponti", "country": "", "latitude": 44.6274764, "longitude": 8.3653896, "population": 677, "elevation": null, "source": "osm"}, {"name": "Pontestura", "country": "", "latitude": 45.1432839, "longitude": 8.3334246, "population": 1506, "elevation": 140.0, "source": "osm"}, {"name": "Orsara Bormida", "country": "", "latitude": 44.690146, "longitude": 8.562748, "population": 417, "elevation": null, "source": "osm"}, {"name": "Olivola", "country": "", "latitude": 45.0373877, "longitude": 8.3675266, "population": 145, "elevation": null, "source": "osm"}, {"name": "Pietra Marazzi", "country": "", "latitude": 44.9437992, "longitude": 8.6701395, "population": 932, "elevation": null, "source": "osm"}, {"name": "Pecetto di Valenza", "country": "", "latitude": 44.989755, "longitude": 8.670945, "population": 1312, "elevation": null, "source": "osm"}, {"name": "Ricaldone", "country": "", "latitude": 44.7319354, "longitude": 8.4677749, "population": 687, "elevation": null, "source": "osm"}, {"name": "Rosignano Monferrato", "country": "", "latitude": 45.0798785, "longitude": 8.3984776, "population": 1650, "elevation": null, "source": "osm"}, {"name": "Pozzolo Formigaro", "country": "", "latitude": 44.7951536, "longitude": 8.7848493, "population": 4771, "elevation": null, "source": "osm"}, {"name": "Ponzano Monferrato", "country": "", "latitude": 45.0842962, "longitude": 8.2663655, "population": 404, "elevation": null, "source": "osm"}, {"name": "Quattordio", "country": "", "latitude": 44.8983564, "longitude": 8.4085969, "population": 1753, "elevation": null, "source": "osm"}, {"name": "Predosa", "country": "", "latitude": 44.7526366, "longitude": 8.6583243, "population": 2074, "elevation": null, "source": "osm"}, {"name": "Silvano d'Orba", "country": "", "latitude": 44.6869148, "longitude": 8.6749599, "population": 1830, "elevation": null, "source": "osm"}, {"name": "Solero", "country": "", "latitude": 44.9184984, "longitude": 8.5119024, "population": 1685, "elevation": null, "source": "osm"}, {"name": "Serravalle Scrivia", "country": "", "latitude": 44.7255798, "longitude": 8.8547001, "population": 5820, "elevation": null, "source": "osm"}, {"name": "Sezzadio", "country": "", "latitude": 44.784849, "longitude": 8.572546, "population": 1291, "elevation": null, "source": "osm"}, {"name": "Serralunga di Crea", "country": "", "latitude": 45.100254, "longitude": 8.282034, "population": 617, "elevation": null, "source": "osm"}, {"name": "San Salvatore Monferrato", "country": "", "latitude": 44.994154, "longitude": 8.565942, "population": 4623, "elevation": null, "source": "osm"}, {"name": "Vignale Monferrato", "country": "", "latitude": 45.011253, "longitude": 8.396138, "population": 1141, "elevation": null, "source": "osm"}, {"name": "Treville", "country": "", "latitude": 45.096854, "longitude": 8.359536, "population": 280, "elevation": null, "source": "osm"}, {"name": "Valmacca", "country": "", "latitude": 45.1007861, "longitude": 8.5827889, "population": 1038, "elevation": 97.0, "source": "osm"}, {"name": "Terruggia", "country": "", "latitude": 45.082255, "longitude": 8.443238, "population": 812, "elevation": null, "source": "osm"}, {"name": "Tortona", "country": "", "latitude": 44.89666, "longitude": 8.8641282, "population": 25227, "elevation": null, "source": "osm"}, {"name": "Solonghello", "country": "", "latitude": 45.129054, "longitude": 8.283234, "population": 245, "elevation": null, "source": "osm"}, {"name": "Spigno Monferrato", "country": "", "latitude": 44.543141, "longitude": 8.333946, "population": 1216, "elevation": null, "source": "osm"}, {"name": "San Cristoforo", "country": "", "latitude": 44.692248, "longitude": 8.750152, "population": 575, "elevation": null, "source": "osm"}, {"name": "Sale", "country": "", "latitude": 44.980656, "longitude": 8.809348, "population": 4246, "elevation": null, "source": "osm"}, {"name": "Sala Monferrato", "country": "", "latitude": 45.075154, "longitude": 8.358736, "population": 475, "elevation": null, "source": "osm"}, {"name": "Rocca Grimalda", "country": "", "latitude": 44.671447, "longitude": 8.64845, "population": 1346, "elevation": null, "source": "osm"}, {"name": "Rivarone", "country": "", "latitude": 44.976855, "longitude": 8.715646, "population": 372, "elevation": null, "source": "osm"}, {"name": "Rivalta Bormida", "country": "", "latitude": 44.7113749, "longitude": 8.5500679, "population": 1443, "elevation": null, "source": "osm"}, {"name": "Villalvernia", "country": "", "latitude": 44.815352, "longitude": 8.857252, "population": 932, "elevation": null, "source": "osm"}, {"name": "Trisobbio", "country": "", "latitude": 44.661646, "longitude": 8.586149, "population": 682, "elevation": null, "source": "osm"}, {"name": "Ticineto", "country": "", "latitude": 45.0980265, "longitude": 8.5556585, "population": 1412, "elevation": 102.0, "source": "osm"}, {"name": "Terzo", "country": "", "latitude": 44.670445, "longitude": 8.421645, "population": 846, "elevation": null, "source": "osm"}, {"name": "Tassarolo", "country": "", "latitude": 44.728549, "longitude": 8.771552, "population": 611, "elevation": null, "source": "osm"}, {"name": "Tagliolo Monferrato", "country": "", "latitude": 44.638346, "longitude": 8.665851, "population": 1457, "elevation": null, "source": "osm"}, {"name": "Strevi", "country": "", "latitude": 44.698146, "longitude": 8.521847, "population": 1972, "elevation": null, "source": "osm"}, {"name": "Stazzano", "country": "", "latitude": 44.7273945, "longitude": 8.8677285, "population": 2108, "elevation": null, "source": "osm"}, {"name": "Spineto Scrivia", "country": "", "latitude": 44.837353, "longitude": 8.873752, "population": 322, "elevation": null, "source": "osm"}, {"name": "Voltaggio", "country": "", "latitude": 44.6203576, "longitude": 8.8426697, "population": 770, "elevation": null, "source": "osm"}, {"name": "Acqui Terme", "country": "", "latitude": 44.675145, "longitude": 8.467546, "population": 19184, "elevation": null, "source": "osm"}, {"name": "Balzola", "country": "", "latitude": 45.1830051, "longitude": 8.402652, "population": 1444, "elevation": null, "source": "osm"}, {"name": "Alzano Scrivia", "country": "", "latitude": 45.018057, "longitude": 8.880649, "population": 392, "elevation": null, "source": "osm"}, {"name": "Bassignana", "country": "", "latitude": 45.0016337, "longitude": 8.7346236, "population": 1737, "elevation": 96.0, "source": "osm"}, {"name": "Basaluzzo", "country": "", "latitude": 44.7679053, "longitude": 8.7047847, "population": 1897, "elevation": null, "source": "osm"}, {"name": "Valenza", "country": "", "latitude": 45.0140247, "longitude": 8.6458214, "population": 20339, "elevation": 125.0, "source": "osm"}, {"name": "Villamiroglio", "country": "", "latitude": 45.1347252, "longitude": 8.1702907, "population": 312, "elevation": null, "source": "osm"}, {"name": "Villadeati", "country": "", "latitude": 45.072252, "longitude": 8.167932, "population": 521, "elevation": null, "source": "osm"}, {"name": "Villanova Monferrato", "country": "", "latitude": 45.182857, "longitude": 8.479237, "population": 1743, "elevation": null, "source": "osm"}, {"name": "Visone", "country": "", "latitude": 44.661845, "longitude": 8.500747, "population": 1160, "elevation": null, "source": "osm"}, {"name": "Carentino", "country": "", "latitude": 44.828739, "longitude": 8.4712989, "population": 313, "elevation": null, "source": "osm"}, {"name": "Cartosio", "country": "", "latitude": 44.5918425, "longitude": 8.4201313, "population": 805, "elevation": null, "source": "osm"}, {"name": "Cassano Spinola", "country": "", "latitude": 44.7661658, "longitude": 8.8631749, "population": 1858, "elevation": null, "source": "osm"}, {"name": "Cassine", "country": "", "latitude": 44.749948, "longitude": 8.527846, "population": 3042, "elevation": null, "source": "osm"}, {"name": "Castellazzo Bormida", "country": "", "latitude": 44.84505, "longitude": 8.577245, "population": 4268, "elevation": null, "source": "osm"}, {"name": "Bistagno", "country": "", "latitude": 44.6615176, "longitude": 8.3695254, "population": 1733, "elevation": null, "source": "osm"}, {"name": "Borgoratto Alessandrino", "country": "", "latitude": 44.83625, "longitude": 8.538545, "population": 611, "elevation": null, "source": "osm"}, {"name": "Borgo San Martino", "country": "", "latitude": 45.0909631, "longitude": 8.5258293, "population": 1366, "elevation": null, "source": "osm"}, {"name": "Bosco Marengo", "country": "", "latitude": 44.825551, "longitude": 8.677248, "population": 2494, "elevation": null, "source": "osm"}, {"name": "Camagna Monferrato", "country": "", "latitude": 45.017653, "longitude": 8.429739, "population": 537, "elevation": null, "source": "osm"}, {"name": "Camino", "country": "", "latitude": 45.1621424, "longitude": 8.2874026, "population": 734, "elevation": null, "source": "osm"}, {"name": "Carbonara Scrivia", "country": "", "latitude": 44.8494005, "longitude": 8.8696537, "population": 966, "elevation": null, "source": "osm"}, {"name": "Gamalero", "country": "", "latitude": 44.809049, "longitude": 8.541645, "population": 778, "elevation": null, "source": "osm"}, {"name": "Frugarolo", "country": "", "latitude": 44.837151, "longitude": 8.681548, "population": 1856, "elevation": null, "source": "osm"}, {"name": "Frascaro", "country": "", "latitude": 44.826449, "longitude": 8.532245, "population": 418, "elevation": null, "source": "osm"}, {"name": "Giarole", "country": "", "latitude": 45.060555, "longitude": 8.566541, "population": 690, "elevation": null, "source": "osm"}, {"name": "Gavi", "country": "", "latitude": 44.6886154, "longitude": 8.8061389, "population": 4506, "elevation": null, "source": "osm"}, {"name": "Castelnuovo Scrivia", "country": "", "latitude": 44.9808509, "longitude": 8.8811063, "population": 5624, "elevation": null, "source": "osm"}, {"name": "Castelletto Monferrato", "country": "", "latitude": 44.9811482, "longitude": 8.5645447, "population": 1428, "elevation": null, "source": "osm"}, {"name": "Castelletto d'Orba", "country": "", "latitude": 44.684548, "longitude": 8.703951, "population": 1891, "elevation": null, "source": "osm"}, {"name": "Castelletto d'Erro", "country": "", "latitude": 44.6255897, "longitude": 8.3942882, "population": 153, "elevation": null, "source": "osm"}, {"name": "Denice", "country": "", "latitude": 44.598842, "longitude": 8.333145, "population": 204, "elevation": null, "source": "osm"}, {"name": "Cremolino", "country": "", "latitude": 44.635945, "longitude": 8.585249, "population": 959, "elevation": null, "source": "osm"}, {"name": "Cavatore", "country": "", "latitude": 44.630344, "longitude": 8.454247, "population": 310, "elevation": null, "source": "osm"}, {"name": "Morano sul Po", "country": "", "latitude": 45.1641964, "longitude": 8.3657078, "population": 1569, "elevation": 123.0, "source": "osm"}, {"name": "Mornese", "country": "", "latitude": 44.639247, "longitude": 8.756153, "population": 706, "elevation": null, "source": "osm"}, {"name": "Montaldo Bormida", "country": "", "latitude": 44.682647, "longitude": 8.587848, "population": 690, "elevation": null, "source": "osm"}, {"name": "Montecastello", "country": "", "latitude": 44.9494522, "longitude": 8.6857406, "population": 340, "elevation": null, "source": "osm"}, {"name": "Parodi Ligure", "country": "", "latitude": 44.669748, "longitude": 8.758652, "population": 721, "elevation": null, "source": "osm"}, {"name": "Murisengo", "country": "", "latitude": 45.0837764, "longitude": 8.1372333, "population": 1511, "elevation": null, "source": "osm"}, {"name": "Ozzano Monferrato", "country": "", "latitude": 45.1089229, "longitude": 8.3702303, "population": 1567, "elevation": null, "source": "osm"}, {"name": "Malvicino", "country": "", "latitude": 44.559342, "longitude": 8.413147, "population": 121, "elevation": null, "source": "osm"}, {"name": "Melazzo", "country": "", "latitude": 44.643944, "longitude": 8.424946, "population": 1185, "elevation": null, "source": "osm"}, {"name": "Grognardo", "country": "", "latitude": 44.6305502, "longitude": 8.4929313, "population": 321, "elevation": null, "source": "osm"}, {"name": "Guazzora", "country": "", "latitude": 45.0138003, "longitude": 8.8435726, "population": 294, "elevation": 78.0, "source": "osm"}, {"name": "Molare", "country": "", "latitude": 44.6204339, "longitude": 8.6011696, "population": 2044, "elevation": null, "source": "osm"}, {"name": "Merana", "country": "", "latitude": 44.5187975, "longitude": 8.2980764, "population": 185, "elevation": null, "source": "osm"}, {"name": "Mirabello Monferrato", "country": "", "latitude": 45.0355517, "longitude": 8.5232487, "population": 1361, "elevation": null, "source": "osm"}, {"name": "Cassinasco", "country": "", "latitude": 44.689092, "longitude": 8.3032382, "population": 592, "elevation": null, "source": "osm"}, {"name": "Casorzo Monferrato", "country": "", "latitude": 45.0233901, "longitude": 8.3345031, "population": 687, "elevation": null, "source": "osm"}, {"name": "Castell'Alfero", "country": "", "latitude": 44.9820968, "longitude": 8.209929, "population": 2691, "elevation": 235.0, "source": "osm"}, {"name": "Castel Boglione", "country": "", "latitude": 44.7203956, "longitude": 8.3801058, "population": 645, "elevation": null, "source": "osm"}, {"name": "Canelli", "country": "", "latitude": 44.7192779, "longitude": 8.2871375, "population": 10230, "elevation": null, "source": "osm"}, {"name": "Calliano Monferrato", "country": "", "latitude": 45.0078256, "longitude": 8.2569404, "population": 1406, "elevation": 258.0, "source": "osm"}, {"name": "Capriglio", "country": "", "latitude": 45.0041356, "longitude": 8.0079908, "population": 309, "elevation": null, "source": "osm"}, {"name": "Cantarana", "country": "", "latitude": 44.900483, "longitude": 8.0304118, "population": 839, "elevation": null, "source": "osm"}, {"name": "Baldichieri d'Asti", "country": "", "latitude": 44.9059484, "longitude": 8.0916378, "population": 1009, "elevation": null, "source": "osm"}, {"name": "Quargnento", "country": "", "latitude": 44.9449657, "longitude": 8.4873857, "population": 1338, "elevation": null, "source": "osm"}, {"name": "Bruno", "country": "", "latitude": 44.793248, "longitude": 8.440543, "population": 375, "elevation": null, "source": "osm"}, {"name": "Belveglio", "country": "", "latitude": 44.8304376, "longitude": 8.330191, "population": 320, "elevation": null, "source": "osm"}, {"name": "Pomaro Monferrato", "country": "", "latitude": 45.0629153, "longitude": 8.5947428, "population": 377, "elevation": 142.0, "source": "osm"}, {"name": "Pasturana", "country": "", "latitude": 44.75085, "longitude": 8.749251, "population": 1011, "elevation": null, "source": "osm"}, {"name": "Prasco", "country": "", "latitude": 44.639829, "longitude": 8.5529994, "population": 534, "elevation": null, "source": "osm"}, {"name": "Ponzone", "country": "", "latitude": 44.5881853, "longitude": 8.458654, "population": 1206, "elevation": null, "source": "osm"}, {"name": "Maretto", "country": "", "latitude": 44.9447112, "longitude": 8.0342714, "population": 358, "elevation": null, "source": "osm"}, {"name": "Mombaruzzo", "country": "", "latitude": 44.7713489, "longitude": 8.4489087, "population": 1163, "elevation": null, "source": "osm"}, {"name": "Mombercelli", "country": "", "latitude": 44.8177098, "longitude": 8.2946688, "population": 2214, "elevation": null, "source": "osm"}, {"name": "Corsione", "country": "", "latitude": 45.0009066, "longitude": 8.1460557, "population": 169, "elevation": null, "source": "osm"}, {"name": "Cossombrato", "country": "", "latitude": 44.9943201, "longitude": 8.136651, "population": 488, "elevation": 275.0, "source": "osm"}, {"name": "Cunico", "country": "", "latitude": 45.03995, "longitude": 8.096731, "population": 497, "elevation": null, "source": "osm"}, {"name": "Ferrere", "country": "", "latitude": 44.875446, "longitude": 7.994732, "population": 1473, "elevation": null, "source": "osm"}, {"name": "Cinaglio", "country": "", "latitude": 44.975249, "longitude": 8.100033, "population": 459, "elevation": 245.0, "source": "osm"}, {"name": "Cisterna d'Asti", "country": "", "latitude": 44.8250069, "longitude": 8.0046185, "population": 1241, "elevation": null, "source": "osm"}, {"name": "Coazzolo", "country": "", "latitude": 44.72837, "longitude": 8.1453311, "population": 300, "elevation": null, "source": "osm"}, {"name": "Cocconato", "country": "", "latitude": 45.0874595, "longitude": 8.0392207, "population": 1540, "elevation": null, "source": "osm"}, {"name": "Castellero", "country": "", "latitude": 44.9243376, "longitude": 8.0745443, "population": 291, "elevation": null, "source": "osm"}, {"name": "Castelletto Molina", "country": "", "latitude": 44.7509549, "longitude": 8.4330937, "population": 169, "elevation": null, "source": "osm"}, {"name": "Castelnuovo Calcea", "country": "", "latitude": 44.7881057, "longitude": 8.2852996, "population": 779, "elevation": null, "source": "osm"}, {"name": "Cellarengo", "country": "", "latitude": 44.8666894, "longitude": 7.9447246, "population": 605, "elevation": null, "source": "osm"}, {"name": "Dusino San Michele", "country": "", "latitude": 44.9254929, "longitude": 7.9721895, "population": 938, "elevation": null, "source": "osm"}, {"name": "Camerano Casasco", "country": "", "latitude": 44.9910127, "longitude": 8.0911984, "population": 494, "elevation": null, "source": "osm"}, {"name": "Agliano Terme", "country": "", "latitude": 44.7910116, "longitude": 8.2499878, "population": 1697, "elevation": null, "source": "osm"}, {"name": "Rocca d'Arazzo", "country": "", "latitude": 44.8732125, "longitude": 8.2858062, "population": 941, "elevation": null, "source": "osm"}, {"name": "Robella", "country": "", "latitude": 45.101652, "longitude": 8.10193, "population": 562, "elevation": null, "source": "osm"}, {"name": "Roatto", "country": "", "latitude": 44.9516416, "longitude": 8.0269895, "population": 373, "elevation": null, "source": "osm"}, {"name": "Refrancore", "country": "", "latitude": 44.9362968, "longitude": 8.3436607, "population": 1560, "elevation": null, "source": "osm"}, {"name": "Quaranti", "country": "", "latitude": 44.750947, "longitude": 8.449144, "population": 199, "elevation": null, "source": "osm"}, {"name": "Piovà Massaia", "country": "", "latitude": 45.0545319, "longitude": 8.0492759, "population": 640, "elevation": null, "source": "osm"}, {"name": "Montemagno Monferrato", "country": "", "latitude": 44.983701, "longitude": 8.3235786, "population": 1205, "elevation": null, "source": "osm"}, {"name": "Montaldo Scarampi", "country": "", "latitude": 44.830345, "longitude": 8.2590523, "population": 688, "elevation": null, "source": "osm"}, {"name": "Montafia", "country": "", "latitude": 44.9892893, "longitude": 8.0248717, "population": 934, "elevation": null, "source": "osm"}, {"name": "Montabone", "country": "", "latitude": 44.698745, "longitude": 8.390644, "population": 357, "elevation": null, "source": "osm"}, {"name": "Moncalvo", "country": "", "latitude": 45.050205, "longitude": 8.2650382, "population": 3320, "elevation": null, "source": "osm"}, {"name": "Monastero Bormida", "country": "", "latitude": 44.648543, "longitude": 8.326643, "population": 970, "elevation": null, "source": "osm"}, {"name": "Monale", "country": "", "latitude": 44.9360495, "longitude": 8.0718593, "population": 892, "elevation": null, "source": "osm"}, {"name": "Villanova d'Asti", "country": "", "latitude": 44.9418888, "longitude": 7.9375025, "population": 4717, "elevation": null, "source": "osm"}, {"name": "Villa San Secondo", "country": "", "latitude": 45.005075, "longitude": 8.1352487, "population": 384, "elevation": null, "source": "osm"}, {"name": "Viarigi", "country": "", "latitude": 44.9805076, "longitude": 8.3584546, "population": 1003, "elevation": null, "source": "osm"}, {"name": "Soglio", "country": "", "latitude": 44.9962983, "longitude": 8.0785144, "population": 135, "elevation": null, "source": "osm"}, {"name": "Tigliole", "country": "", "latitude": 44.886952, "longitude": 8.0753546, "population": 1605, "elevation": null, "source": "osm"}, {"name": "San Paolo Solbrito", "country": "", "latitude": 44.9505646, "longitude": 7.9705821, "population": 1059, "elevation": null, "source": "osm"}, {"name": "San Damiano d'Asti", "country": "", "latitude": 44.833445, "longitude": 8.063534, "population": 7622, "elevation": null, "source": "osm"}, {"name": "San Martino Alfieri", "country": "", "latitude": 44.8186266, "longitude": 8.1091847, "population": 704, "elevation": null, "source": "osm"}, {"name": "Albugnano", "country": "", "latitude": 45.0779664, "longitude": 7.9711535, "population": 462, "elevation": null, "source": "osm"}, {"name": "Antignano", "country": "", "latitude": 44.8450593, "longitude": 8.1348403, "population": 1007, "elevation": null, "source": "osm"}, {"name": "Montegrosso d'Asti", "country": "", "latitude": 44.8239434, "longitude": 8.2397817, "population": 2084, "elevation": null, "source": "osm"}, {"name": "Passerano Marmorito", "country": "", "latitude": 45.05585, "longitude": 8.018729, "population": 450, "elevation": null, "source": "osm"}, {"name": "Incisa Scapaccino", "country": "", "latitude": 44.8084565, "longitude": 8.3734441, "population": 2031, "elevation": null, "source": "osm"}, {"name": "Cortandone", "country": "", "latitude": 44.9589667, "longitude": 8.0578022, "population": 290, "elevation": null, "source": "osm"}, {"name": "Chiusano d'Asti", "country": "", "latitude": 44.9857163, "longitude": 8.1171589, "population": 254, "elevation": 261.0, "source": "osm"}, {"name": "Cessole", "country": "", "latitude": 44.6492488, "longitude": 8.2435432, "population": 456, "elevation": null, "source": "osm"}, {"name": "Cerro Tanaro", "country": "", "latitude": 44.8724155, "longitude": 8.3602486, "population": 592, "elevation": null, "source": "osm"}, {"name": "Costigliole d'Asti", "country": "", "latitude": 44.7880553, "longitude": 8.1796539, "population": 5882, "elevation": null, "source": "osm"}, {"name": "Cortiglione", "country": "", "latitude": 44.8228489, "longitude": 8.3588889, "population": 536, "elevation": null, "source": "osm"}, {"name": "Cortazzone", "country": "", "latitude": 44.9796359, "longitude": 8.0616622, "population": 626, "elevation": null, "source": "osm"}, {"name": "Cortanze", "country": "", "latitude": 45.015018, "longitude": 8.0893796, "population": 289, "elevation": null, "source": "osm"}, {"name": "Grana Monferrato", "country": "", "latitude": 44.998351, "longitude": 8.299436, "population": 611, "elevation": null, "source": "osm"}, {"name": "Frinco", "country": "", "latitude": 45.0049008, "longitude": 8.1688056, "population": 690, "elevation": null, "source": "osm"}, {"name": "Fontanile", "country": "", "latitude": 44.7532586, "longitude": 8.4223508, "population": 542, "elevation": null, "source": "osm"}, {"name": "Moncucco Torinese", "country": "", "latitude": 45.0681071, "longitude": 7.9325329, "population": 811, "elevation": null, "source": "osm"}, {"name": "Mombaldone", "country": "", "latitude": 44.5695562, "longitude": 8.3301861, "population": 269, "elevation": null, "source": "osm"}, {"name": "Moasca", "country": "", "latitude": 44.7627191, "longitude": 8.2778224, "population": 401, "elevation": null, "source": "osm"}, {"name": "Loazzolo", "country": "", "latitude": 44.669043, "longitude": 8.258442, "population": 380, "elevation": null, "source": "osm"}, {"name": "Azzano d'Asti", "country": "", "latitude": 44.8745884, "longitude": 8.2677909, "population": 371, "elevation": 216.0, "source": "osm"}, {"name": "Berzano di San Pietro", "country": "", "latitude": 45.0948126, "longitude": 7.9530116, "population": 406, "elevation": 392.0, "source": "osm"}, {"name": "Vinchio", "country": "", "latitude": 44.8073181, "longitude": 8.3173855, "population": 698, "elevation": null, "source": "osm"}, {"name": "Aramengo", "country": "", "latitude": 45.1010819, "longitude": 8.0005276, "population": 604, "elevation": null, "source": "osm"}, {"name": "Calamandrana", "country": "", "latitude": 44.7370162, "longitude": 8.3341542, "population": 1563, "elevation": null, "source": "osm"}, {"name": "Calosso", "country": "", "latitude": 44.739837, "longitude": 8.2275011, "population": 1264, "elevation": null, "source": "osm"}, {"name": "Bubbio", "country": "", "latitude": 44.6636726, "longitude": 8.2951343, "population": 935, "elevation": null, "source": "osm"}, {"name": "Buttigliera d'Asti", "country": "", "latitude": 45.0226378, "longitude": 7.9507994, "population": 1996, "elevation": null, "source": "osm"}, {"name": "Castello di Annone", "country": "", "latitude": 44.8790386, "longitude": 8.3138895, "population": 1767, "elevation": null, "source": "osm"}, {"name": "Castelnuovo Belbo", "country": "", "latitude": 44.8015336, "longitude": 8.4121874, "population": 930, "elevation": null, "source": "osm"}, {"name": "Castagnole delle Lanze", "country": "", "latitude": 44.7511402, "longitude": 8.1502447, "population": 3641, "elevation": null, "source": "osm"}, {"name": "Castagnole Monferrato", "country": "", "latitude": 44.9615961, "longitude": 8.3062346, "population": 1234, "elevation": null, "source": "osm"}, {"name": "Celle Enomondo", "country": "", "latitude": 44.8573468, "longitude": 8.1223923, "population": 460, "elevation": null, "source": "osm"}, {"name": "Cerreto d'Asti", "country": "", "latitude": 45.0515148, "longitude": 8.0357654, "population": 241, "elevation": null, "source": "osm"}, {"name": "Castelnuovo Don Bosco", "country": "", "latitude": 45.040849, "longitude": 7.963128, "population": 3038, "elevation": null, "source": "osm"}, {"name": "Castel Rocchero", "country": "", "latitude": 44.718346, "longitude": 8.415344, "population": 396, "elevation": null, "source": "osm"}, {"name": "Settime", "country": "", "latitude": 44.9624663, "longitude": 8.1139701, "population": 537, "elevation": 272.0, "source": "osm"}, {"name": "Sessame", "country": "", "latitude": 44.6695002, "longitude": 8.337265, "population": 285, "elevation": null, "source": "osm"}, {"name": "Tonengo", "country": "", "latitude": 45.117473, "longitude": 8.0019599, "population": 192, "elevation": null, "source": "osm"}, {"name": "Tonco", "country": "", "latitude": 45.0244508, "longitude": 8.1900358, "population": 891, "elevation": null, "source": "osm"}, {"name": "Vesime", "country": "", "latitude": 44.6368509, "longitude": 8.2281701, "population": 678, "elevation": null, "source": "osm"}, {"name": "Valfenera", "country": "", "latitude": 44.901746, "longitude": 7.964331, "population": 2128, "elevation": null, "source": "osm"}, {"name": "Vigliano d'Asti", "country": "", "latitude": 44.8354332, "longitude": 8.2319486, "population": 823, "elevation": null, "source": "osm"}, {"name": "Viale", "country": "", "latitude": 45.0007446, "longitude": 8.0501201, "population": 267, "elevation": null, "source": "osm"}, {"name": "Montiglio Monferrato", "country": "", "latitude": 45.0644167, "longitude": 8.0988906, "population": 1747, "elevation": null, "source": "osm"}, {"name": "Montechiaro d'Asti", "country": "", "latitude": 45.0078157, "longitude": 8.1121518, "population": 1382, "elevation": null, "source": "osm"}, {"name": "Moransengo", "country": "", "latitude": 45.1148302, "longitude": 8.025051, "population": 230, "elevation": null, "source": "osm"}, {"name": "Nizza Monferrato", "country": "", "latitude": 44.7733095, "longitude": 8.353709, "population": 10019, "elevation": null, "source": "osm"}, {"name": "Olmo Gentile", "country": "", "latitude": 44.5858203, "longitude": 8.2472013, "population": 104, "elevation": null, "source": "osm"}, {"name": "Penango", "country": "", "latitude": 45.0332014, "longitude": 8.2502533, "population": 538, "elevation": null, "source": "osm"}, {"name": "Piea", "country": "", "latitude": 45.0251126, "longitude": 8.0718267, "population": 568, "elevation": null, "source": "osm"}, {"name": "Pino d'Asti", "country": "", "latitude": 45.05745, "longitude": 7.986229, "population": 226, "elevation": null, "source": "osm"}, {"name": "Portacomaro", "country": "", "latitude": 44.9576119, "longitude": 8.2581317, "population": 1992, "elevation": null, "source": "osm"}, {"name": "Revigliasco d'Asti", "country": "", "latitude": 44.85854, "longitude": 8.1582222, "population": 859, "elevation": null, "source": "osm"}, {"name": "Roccaverano", "country": "", "latitude": 44.5921761, "longitude": 8.2718982, "population": 529, "elevation": null, "source": "osm"}, {"name": "Rocchetta Palafea", "country": "", "latitude": 44.7067227, "longitude": 8.3460034, "population": 406, "elevation": null, "source": "osm"}, {"name": "San Giorgio Scarampi", "country": "", "latitude": 44.6113288, "longitude": 8.2424253, "population": 140, "elevation": null, "source": "osm"}, {"name": "San Marzano Oliveto", "country": "", "latitude": 44.7540212, "longitude": 8.2957567, "population": 1012, "elevation": null, "source": "osm"}, {"name": "Scurzolengo", "country": "", "latitude": 44.9657993, "longitude": 8.2784987, "population": 637, "elevation": null, "source": "osm"}, {"name": "Cavaglià", "country": "", "latitude": 45.4077339, "longitude": 8.0934286, "population": 3666, "elevation": null, "source": "osm"}, {"name": "Dorzano", "country": "", "latitude": 45.42606, "longitude": 8.098524, "population": 446, "elevation": null, "source": "osm"}, {"name": "Roppolo", "country": "", "latitude": 45.420559, "longitude": 8.069724, "population": 855, "elevation": null, "source": "osm"}, {"name": "Roddi", "country": "", "latitude": 44.679641, "longitude": 7.975435, "population": 1323, "elevation": null, "source": "osm"}, {"name": "Roddino", "country": "", "latitude": 44.5738489, "longitude": 8.0191191, "population": 363, "elevation": null, "source": "osm"}, {"name": "Rocchetta Belbo", "country": "", "latitude": 44.636042, "longitude": 8.17534, "population": 191, "elevation": null, "source": "osm"}, {"name": "Mombarcaro", "country": "", "latitude": 44.467637, "longitude": 8.088242, "population": 320, "elevation": null, "source": "osm"}, {"name": "Montelupo Albese", "country": "", "latitude": 44.62144, "longitude": 8.048038, "population": 459, "elevation": null, "source": "osm"}, {"name": "Monforte d'Alba", "country": "", "latitude": 44.582438, "longitude": 7.969637, "population": 1917, "elevation": null, "source": "osm"}, {"name": "Magliano Alfieri", "country": "", "latitude": 44.769244, "longitude": 8.070136, "population": 1674, "elevation": null, "source": "osm"}, {"name": "Mango", "country": "", "latitude": 44.686443, "longitude": 8.150239, "population": 1334, "elevation": null, "source": "osm"}, {"name": "Viverone", "country": "", "latitude": 45.4255535, "longitude": 8.0512147, "population": 1417, "elevation": null, "source": "osm"}, {"name": "Monticello d'Alba", "country": "", "latitude": 44.7181817, "longitude": 7.9482038, "population": 1911, "elevation": null, "source": "osm"}, {"name": "Monchiero", "country": "", "latitude": 44.570538, "longitude": 7.920236, "population": 518, "elevation": null, "source": "osm"}, {"name": "Sinio", "country": "", "latitude": 44.600339, "longitude": 8.019938, "population": 461, "elevation": null, "source": "osm"}, {"name": "Rodello", "country": "", "latitude": 44.62854, "longitude": 8.056838, "population": 964, "elevation": null, "source": "osm"}, {"name": "San Benedetto Belbo", "country": "", "latitude": 44.490137, "longitude": 8.057841, "population": 192, "elevation": null, "source": "osm"}, {"name": "Verduno", "country": "", "latitude": 44.66614, "longitude": 7.930735, "population": 512, "elevation": null, "source": "osm"}, {"name": "Torre Bormida", "country": "", "latitude": 44.56274, "longitude": 8.154441, "population": 232, "elevation": null, "source": "osm"}, {"name": "Piobesi d'Alba", "country": "", "latitude": 44.7350191, "longitude": 7.9796685, "population": 1027, "elevation": null, "source": "osm"}, {"name": "Perletto", "country": "", "latitude": 44.599341, "longitude": 8.213042, "population": 328, "elevation": null, "source": "osm"}, {"name": "Paroldo", "country": "", "latitude": 44.432036, "longitude": 8.072442, "population": 246, "elevation": null, "source": "osm"}, {"name": "Novello", "country": "", "latitude": 44.587706, "longitude": 7.9271159, "population": 931, "elevation": null, "source": "osm"}, {"name": "Niella Belbo", "country": "", "latitude": 44.512738, "longitude": 8.079341, "population": 421, "elevation": null, "source": "osm"}, {"name": "Neive", "country": "", "latitude": 44.7260501, "longitude": 8.1151856, "population": 2938, "elevation": null, "source": "osm"}, {"name": "Murazzano", "country": "", "latitude": 44.4746494, "longitude": 8.0213361, "population": 856, "elevation": null, "source": "osm"}, {"name": "Sommariva Perno", "country": "", "latitude": 44.745642, "longitude": 7.900633, "population": 2626, "elevation": null, "source": "osm"}, {"name": "Santa Vittoria d'Alba", "country": "", "latitude": 44.6993301, "longitude": 7.9349873, "population": 2512, "elevation": null, "source": "osm"}, {"name": "Cerretto Langhe", "country": "", "latitude": 44.574839, "longitude": 8.09794, "population": 469, "elevation": null, "source": "osm"}, {"name": "Canale", "country": "", "latitude": 44.7970224, "longitude": 7.9911864, "population": 5215, "elevation": null, "source": "osm"}, {"name": "Belvedere Langhe", "country": "", "latitude": 44.493036, "longitude": 7.974639, "population": 372, "elevation": null, "source": "osm"}, {"name": "Barolo", "country": "", "latitude": 44.6108408, "longitude": 7.9428448, "population": 681, "elevation": null, "source": "osm"}, {"name": "Baldissero d'Alba", "country": "", "latitude": 44.7595194, "longitude": 7.9143487, "population": 1084, "elevation": null, "source": "osm"}, {"name": "Albaretto della Torre", "country": "", "latitude": 44.5959108, "longitude": 8.0640642, "population": 254, "elevation": null, "source": "osm"}, {"name": "Alba", "country": "", "latitude": 44.7007236, "longitude": 8.0357786, "population": 29910, "elevation": null, "source": "osm"}, {"name": "Vezza d'Alba", "country": "", "latitude": 44.7636401, "longitude": 7.9961339, "population": 2073, "elevation": null, "source": "osm"}, {"name": "Prunetto", "country": "", "latitude": 44.4884408, "longitude": 8.14375, "population": 492, "elevation": null, "source": "osm"}, {"name": "Priocca", "country": "", "latitude": 44.7871846, "longitude": 8.0616451, "population": 1956, "elevation": null, "source": "osm"}, {"name": "Piozzo", "country": "", "latitude": 44.5156548, "longitude": 7.892257, "population": 997, "elevation": null, "source": "osm"}, {"name": "Rocca Cigliè", "country": "", "latitude": 44.445235, "longitude": 7.950939, "population": 157, "elevation": null, "source": "osm"}, {"name": "Santo Stefano Roero", "country": "", "latitude": 44.788443, "longitude": 7.940933, "population": 1236, "elevation": null, "source": "osm"}, {"name": "Santo Stefano Belbo", "country": "", "latitude": 44.7077401, "longitude": 8.2307306, "population": 4102, "elevation": null, "source": "osm"}, {"name": "Trezzo Tinella", "country": "", "latitude": 44.6770492, "longitude": 8.1074675, "population": 356, "elevation": null, "source": "osm"}, {"name": "Treiso", "country": "", "latitude": 44.6891509, "longitude": 8.0868452, "population": 763, "elevation": null, "source": "osm"}, {"name": "Torresina", "country": "", "latitude": 44.433639, "longitude": 8.0367451, "population": 67, "elevation": null, "source": "osm"}, {"name": "Somano", "country": "", "latitude": 44.535338, "longitude": 8.007839, "population": 386, "elevation": null, "source": "osm"}, {"name": "Serravalle Langhe", "country": "", "latitude": 44.559239, "longitude": 8.058639, "population": 352, "elevation": null, "source": "osm"}, {"name": "Serralunga d'Alba", "country": "", "latitude": 44.6106859, "longitude": 8.0005562, "population": 491, "elevation": null, "source": "osm"}, {"name": "Cravanzana", "country": "", "latitude": 44.5746198, "longitude": 8.1261845, "population": 400, "elevation": null, "source": "osm"}, {"name": "Dogliani", "country": "", "latitude": 44.5307822, "longitude": 7.9472329, "population": 4554, "elevation": null, "source": "osm"}, {"name": "Farigliano", "country": "", "latitude": 44.5120312, "longitude": 7.914245, "population": 1752, "elevation": null, "source": "osm"}, {"name": "Clavesana", "country": "", "latitude": 44.4819388, "longitude": 7.9120786, "population": 868, "elevation": null, "source": "osm"}, {"name": "Cortemilia", "country": "", "latitude": 44.5794713, "longitude": 8.1933023, "population": 2544, "elevation": null, "source": "osm"}, {"name": "Cossano Belbo", "country": "", "latitude": 44.6689894, "longitude": 8.1985786, "population": 1071, "elevation": null, "source": "osm"}, {"name": "Guarene", "country": "", "latitude": 44.7394863, "longitude": 8.0348361, "population": 3018, "elevation": null, "source": "osm"}, {"name": "Igliano", "country": "", "latitude": 44.442936, "longitude": 8.013341, "population": 81, "elevation": null, "source": "osm"}, {"name": "Lequio Berria", "country": "", "latitude": 44.60584, "longitude": 8.098139, "population": 524, "elevation": null, "source": "osm"}, {"name": "Gorzegno", "country": "", "latitude": 44.512838, "longitude": 8.135142, "population": 393, "elevation": null, "source": "osm"}, {"name": "Montà", "country": "", "latitude": 44.813644, "longitude": 7.957233, "population": 4292, "elevation": null, "source": "osm"}, {"name": "Monesiglio", "country": "", "latitude": 44.465037, "longitude": 8.118542, "population": 752, "elevation": null, "source": "osm"}, {"name": "Marsaglia", "country": "", "latitude": 44.4538581, "longitude": 7.9812464, "population": 316, "elevation": null, "source": "osm"}, {"name": "Neviglie", "country": "", "latitude": 44.691942, "longitude": 8.116838, "population": 419, "elevation": null, "source": "osm"}, {"name": "Pezzolo Valle Uzzone", "country": "", "latitude": 44.53874, "longitude": 8.193943, "population": 370, "elevation": null, "source": "osm"}, {"name": "Montaldo Roero", "country": "", "latitude": 44.7687192, "longitude": 7.9241508, "population": 866, "elevation": null, "source": "osm"}, {"name": "Monteu Roero", "country": "", "latitude": 44.7806865, "longitude": 7.9311892, "population": 1603, "elevation": null, "source": "osm"}, {"name": "Castelletto Uzzone", "country": "", "latitude": 44.494338, "longitude": 8.186743, "population": 375, "elevation": null, "source": "osm"}, {"name": "Castino", "country": "", "latitude": 44.617841, "longitude": 8.182441, "population": 526, "elevation": null, "source": "osm"}, {"name": "Grinzane Cavour", "country": "", "latitude": 44.65334, "longitude": 7.995036, "population": 1812, "elevation": null, "source": "osm"}, {"name": "Castiglione Falletto", "country": "", "latitude": 44.6236987, "longitude": 7.9774527, "population": 632, "elevation": null, "source": "osm"}, {"name": "Castiglione Tinella", "country": "", "latitude": 44.725344, "longitude": 8.190139, "population": 877, "elevation": null, "source": "osm"}, {"name": "Cissone", "country": "", "latitude": 44.563139, "longitude": 8.030439, "population": 100, "elevation": null, "source": "osm"}, {"name": "Corneliano d'Alba", "country": "", "latitude": 44.7359369, "longitude": 7.9598508, "population": 1889, "elevation": null, "source": "osm"}, {"name": "Cigliè", "country": "", "latitude": 44.4364482, "longitude": 7.926757, "population": 188, "elevation": null, "source": "osm"}, {"name": "Diano d'Alba", "country": "", "latitude": 44.6503104, "longitude": 8.0275084, "population": 2980, "elevation": null, "source": "osm"}, {"name": "Feisoglio", "country": "", "latitude": 44.543739, "longitude": 8.104941, "population": 395, "elevation": null, "source": "osm"}, {"name": "Gottasecca", "country": "", "latitude": 44.460137, "longitude": 8.167544, "population": 188, "elevation": null, "source": "osm"}, {"name": "La Morra", "country": "", "latitude": 44.6384797, "longitude": 7.9325818, "population": 2610, "elevation": null, "source": "osm"}, {"name": "Govone", "country": "", "latitude": 44.804445, "longitude": 8.094036, "population": 1922, "elevation": null, "source": "osm"}, {"name": "Arguello", "country": "", "latitude": 44.5825939, "longitude": 8.1097502, "population": 174, "elevation": null, "source": "osm"}, {"name": "Barbaresco", "country": "", "latitude": 44.7254469, "longitude": 8.0806959, "population": 641, "elevation": null, "source": "osm"}, {"name": "Bastia Mondovì", "country": "", "latitude": 44.441935, "longitude": 7.894438, "population": 624, "elevation": null, "source": "osm"}, {"name": "Bergolo", "country": "", "latitude": 44.54784, "longitude": 8.183142, "population": 79, "elevation": null, "source": "osm"}, {"name": "Benevello", "country": "", "latitude": 44.629841, "longitude": 8.104139, "population": 448, "elevation": null, "source": "osm"}, {"name": "Bonvicino", "country": "", "latitude": 44.503537, "longitude": 8.01754, "population": 119, "elevation": null, "source": "osm"}, {"name": "Bosia", "country": "", "latitude": 44.6023589, "longitude": 8.1472522, "population": 204, "elevation": null, "source": "osm"}, {"name": "Borgomale", "country": "", "latitude": 44.620341, "longitude": 8.13224, "population": 365, "elevation": null, "source": "osm"}, {"name": "Bossolasco", "country": "", "latitude": 44.529338, "longitude": 8.05094, "population": 683, "elevation": null, "source": "osm"}, {"name": "Castagnito", "country": "", "latitude": 44.755443, "longitude": 8.031335, "population": 1728, "elevation": null, "source": "osm"}, {"name": "Casalino", "country": "", "latitude": 45.358362, "longitude": 8.523935, "population": 1456, "elevation": null, "source": "osm"}, {"name": "Borgolavezzaro", "country": "", "latitude": 45.319663, "longitude": 8.699539, "population": 1879, "elevation": null, "source": "osm"}, {"name": "Sozzago", "country": "", "latitude": 45.398565, "longitude": 8.720338, "population": 859, "elevation": null, "source": "osm"}, {"name": "Nibbiola", "country": "", "latitude": 45.3716279, "longitude": 8.655338, "population": 720, "elevation": null, "source": "osm"}, {"name": "Casalvolone", "country": "", "latitude": 45.4001979, "longitude": 8.4634209, "population": 812, "elevation": null, "source": "osm"}, {"name": "Levice", "country": "", "latitude": 44.538239, "longitude": 8.155042, "population": 270, "elevation": null, "source": "osm"}, {"name": "Vinzaglio", "country": "", "latitude": 45.322961, "longitude": 8.519135, "population": 609, "elevation": null, "source": "osm"}, {"name": "Terdobbiate", "country": "", "latitude": 45.376564, "longitude": 8.695238, "population": 470, "elevation": null, "source": "osm"}, {"name": "Cerano", "country": "", "latitude": 45.410966, "longitude": 8.780039, "population": 6665, "elevation": null, "source": "osm"}, {"name": "Azeglio", "country": "", "latitude": 45.423459, "longitude": 7.993922, "population": 1274, "elevation": null, "source": "osm"}, {"name": "Verrua Savoia", "country": "", "latitude": 45.156707, "longitude": 8.092761, "population": 1477, "elevation": null, "source": "osm"}, {"name": "Tornaco", "country": "", "latitude": 45.357564, "longitude": 8.715939, "population": 878, "elevation": null, "source": "osm"}, {"name": "Vespolate", "country": "", "latitude": 45.3495666, "longitude": 8.6690558, "population": 2076, "elevation": null, "source": "osm"}, {"name": "Garbagna Novarese", "country": "", "latitude": 45.388764, "longitude": 8.661237, "population": 964, "elevation": null, "source": "osm"}, {"name": "Brozolo", "country": "", "latitude": 45.1174365, "longitude": 8.0736027, "population": 435, "elevation": null, "source": "osm"}, {"name": "Cavagnolo", "country": "", "latitude": 45.1521373, "longitude": 8.0514793, "population": 2281, "elevation": null, "source": "osm"}, {"name": "Pralormo", "country": "", "latitude": 44.859744, "longitude": 7.901431, "population": 1801, "elevation": null, "source": "osm"}, {"name": "Cinzano", "country": "", "latitude": 45.0946102, "longitude": 7.9239642, "population": 331, "elevation": null, "source": "osm"}, {"name": "Cossano Canavese", "country": "", "latitude": 45.387758, "longitude": 7.991523, "population": 550, "elevation": null, "source": "osm"}, {"name": "Caluso", "country": "", "latitude": 45.304955, "longitude": 7.895722, "population": 7132, "elevation": null, "source": "osm"}, {"name": "Castagneto Po", "country": "", "latitude": 45.159251, "longitude": 7.889425, "population": 1425, "elevation": null, "source": "osm"}, {"name": "Arignano", "country": "", "latitude": 45.0402748, "longitude": 7.9015941, "population": 898, "elevation": null, "source": "osm"}, {"name": "Brusasco", "country": "", "latitude": 45.1554921, "longitude": 8.0601029, "population": 1664, "elevation": null, "source": "osm"}, {"name": "Isolabella", "country": "", "latitude": 44.9067269, "longitude": 7.9101512, "population": 398, "elevation": null, "source": "osm"}, {"name": "Chivasso", "country": "", "latitude": 45.1909588, "longitude": 7.8871864, "population": 23648, "elevation": null, "source": "osm"}, {"name": "Candia Canavese", "country": "", "latitude": 45.327755, "longitude": 7.885121, "population": 1302, "elevation": null, "source": "osm"}, {"name": "Casalborgone", "country": "", "latitude": 45.130451, "longitude": 7.940426, "population": 1704, "elevation": null, "source": "osm"}, {"name": "Caravino", "country": "", "latitude": 45.398258, "longitude": 7.960322, "population": 1008, "elevation": null, "source": "osm"}, {"name": "Rondissone", "country": "", "latitude": 45.2467747, "longitude": 7.9654263, "population": 1655, "elevation": null, "source": "osm"}, {"name": "Rivalba", "country": "", "latitude": 45.11835, "longitude": 7.888125, "population": 966, "elevation": null, "source": "osm"}, {"name": "Moriondo Torinese", "country": "", "latitude": 45.037649, "longitude": 7.940028, "population": 763, "elevation": null, "source": "osm"}, {"name": "Monteu da Po", "country": "", "latitude": 45.1508996, "longitude": 8.016847, "population": 828, "elevation": null, "source": "osm"}, {"name": "Mombello di Torino", "country": "", "latitude": 45.045749, "longitude": 7.920827, "population": 395, "elevation": null, "source": "osm"}, {"name": "Mazzè", "country": "", "latitude": 45.300255, "longitude": 7.932723, "population": 3973, "elevation": null, "source": "osm"}, {"name": "Lauriano", "country": "", "latitude": 45.158252, "longitude": 7.991627, "population": 1398, "elevation": null, "source": "osm"}, {"name": "San Sebastiano da Po", "country": "", "latitude": 45.167552, "longitude": 7.957226, "population": 1791, "elevation": null, "source": "osm"}, {"name": "Maglione", "country": "", "latitude": 45.346657, "longitude": 8.013324, "population": 488, "elevation": null, "source": "osm"}, {"name": "Vische", "country": "", "latitude": 45.3355889, "longitude": 7.9448175, "population": 1417, "elevation": null, "source": "osm"}, {"name": "Borgomasino", "country": "", "latitude": 45.363257, "longitude": 7.987523, "population": 784, "elevation": null, "source": "osm"}, {"name": "Villareggia", "country": "", "latitude": 45.310056, "longitude": 7.976624, "population": 963, "elevation": null, "source": "osm"}, {"name": "Verolengo", "country": "", "latitude": 45.1895918, "longitude": 7.9662734, "population": 4469, "elevation": null, "source": "osm"}, {"name": "Settimo Rottaro", "country": "", "latitude": 45.407758, "longitude": 7.993522, "population": 517, "elevation": null, "source": "osm"}, {"name": "Strambino", "country": "", "latitude": 45.381457, "longitude": 7.88572, "population": 6035, "elevation": null, "source": "osm"}, {"name": "Stroppiana", "country": "", "latitude": 45.2302456, "longitude": 8.4537321, "population": 1200, "elevation": null, "source": "osm"}, {"name": "San Germano Vercellese", "country": "", "latitude": 45.3500306, "longitude": 8.2487792, "population": 1811, "elevation": null, "source": "osm"}, {"name": "Salasco", "country": "", "latitude": 45.325559, "longitude": 8.26423, "population": 251, "elevation": null, "source": "osm"}, {"name": "Sali Vercellese", "country": "", "latitude": 45.309859, "longitude": 8.328931, "population": 131, "elevation": null, "source": "osm"}, {"name": "Rive", "country": "", "latitude": 45.2129062, "longitude": 8.4177041, "population": 417, "elevation": null, "source": "osm"}, {"name": "Caresanablot", "country": "", "latitude": 45.3576129, "longitude": 8.3888418, "population": 988, "elevation": null, "source": "osm"}, {"name": "Caresana", "country": "", "latitude": 45.2212633, "longitude": 8.5069241, "population": 1068, "elevation": null, "source": "osm"}, {"name": "Borgo Vercelli", "country": "", "latitude": 45.357862, "longitude": 8.463033, "population": 2158, "elevation": null, "source": "osm"}, {"name": "Borgo d'Ale", "country": "", "latitude": 45.349435, "longitude": 8.053102, "population": 2565, "elevation": null, "source": "osm"}, {"name": "Bianzè", "country": "", "latitude": 45.308457, "longitude": 8.122527, "population": 2038, "elevation": null, "source": "osm"}, {"name": "Asigliano Vercellese", "country": "", "latitude": 45.2615784, "longitude": 8.4085008, "population": 1417, "elevation": null, "source": "osm"}, {"name": "Alice Castello", "country": "", "latitude": 45.365158, "longitude": 8.072925, "population": 2603, "elevation": null, "source": "osm"}, {"name": "Vestignè", "country": "", "latitude": 45.385757, "longitude": 7.954822, "population": 861, "elevation": null, "source": "osm"}, {"name": "Torrazza Piemonte", "country": "", "latitude": 45.2154216, "longitude": 7.9745034, "population": 2373, "elevation": null, "source": "osm"}, {"name": "Costanzana", "country": "", "latitude": 45.2359501, "longitude": 8.3698748, "population": 873, "elevation": null, "source": "osm"}, {"name": "Formigliana", "country": "", "latitude": 45.429262, "longitude": 8.291928, "population": 561, "elevation": null, "source": "osm"}, {"name": "Crova", "country": "", "latitude": 45.330659, "longitude": 8.210828, "population": 429, "elevation": null, "source": "osm"}, {"name": "Lignana", "country": "", "latitude": 45.2855305, "longitude": 8.3461237, "population": 543, "elevation": null, "source": "osm"}, {"name": "Motta de' Conti", "country": "", "latitude": 45.1933428, "longitude": 8.5209342, "population": 851, "elevation": null, "source": "osm"}, {"name": "Pertengo", "country": "", "latitude": 45.2363944, "longitude": 8.417401, "population": 338, "elevation": null, "source": "osm"}, {"name": "Prarolo", "country": "", "latitude": 45.2822927, "longitude": 8.4781176, "population": 589, "elevation": null, "source": "osm"}, {"name": "Quinto Vercellese", "country": "", "latitude": 45.379661, "longitude": 8.361731, "population": 418, "elevation": 140.0, "source": "osm"}, {"name": "Ronsecco", "country": "", "latitude": 45.253126, "longitude": 8.2778097, "population": 616, "elevation": null, "source": "osm"}, {"name": "Saluggia", "country": "", "latitude": 45.2354962, "longitude": 8.0117019, "population": 4074, "elevation": null, "source": "osm"}, {"name": "Santhià", "country": "", "latitude": 45.3666566, "longitude": 8.1742175, "population": 8496, "elevation": null, "source": "osm"}, {"name": "Tricerro", "country": "", "latitude": 45.235757, "longitude": 8.325333, "population": 621, "elevation": null, "source": "osm"}, {"name": "Trino", "country": "", "latitude": 45.1939397, "longitude": 8.2969866, "population": 7605, "elevation": null, "source": "osm"}, {"name": "Tronzano Vercellese", "country": "", "latitude": 45.341258, "longitude": 8.173027, "population": 3519, "elevation": null, "source": "osm"}, {"name": "Villata", "country": "", "latitude": 45.387762, "longitude": 8.432632, "population": 1624, "elevation": null, "source": "osm"}, {"name": "Albano Vercellese", "country": "", "latitude": 45.4253071, "longitude": 8.3809935, "population": 339, "elevation": null, "source": "osm"}, {"name": "Casanova Elvo", "country": "", "latitude": 45.400961, "longitude": 8.293529, "population": 246, "elevation": null, "source": "osm"}, {"name": "Carisio", "country": "", "latitude": 45.40936, "longitude": 8.199027, "population": 956, "elevation": null, "source": "osm"}, {"name": "Collobiano", "country": "", "latitude": 45.3966831, "longitude": 8.3482841, "population": 114, "elevation": null, "source": "osm"}, {"name": "Cigliano", "country": "", "latitude": 45.3094496, "longitude": 8.0209788, "population": 4523, "elevation": null, "source": "osm"}, {"name": "Fontanetto Po", "country": "", "latitude": 45.1934637, "longitude": 8.1919246, "population": 1233, "elevation": null, "source": "osm"}, {"name": "Crescentino", "country": "", "latitude": 45.190454, "longitude": 8.099929, "population": 7609, "elevation": null, "source": "osm"}, {"name": "Livorno Ferraris", "country": "", "latitude": 45.2814818, "longitude": 8.0821574, "population": 4320, "elevation": null, "source": "osm"}, {"name": "Lamporo", "country": "", "latitude": 45.231855, "longitude": 8.101628, "population": 522, "elevation": null, "source": "osm"}, {"name": "Olcenengo", "country": "", "latitude": 45.36346, "longitude": 8.30983, "population": 607, "elevation": null, "source": "osm"}, {"name": "Oldenico", "country": "", "latitude": 45.402755, "longitude": 8.3803269, "population": 254, "elevation": null, "source": "osm"}, {"name": "Moncrivello", "country": "", "latitude": 45.332357, "longitude": 7.995524, "population": 1477, "elevation": null, "source": "osm"}, {"name": "Palazzolo Vercellese", "country": "", "latitude": 45.186255, "longitude": 8.232632, "population": 1328, "elevation": null, "source": "osm"}, {"name": "Pezzana", "country": "", "latitude": 45.2619592, "longitude": 8.4822794, "population": 1064, "elevation": 117.0, "source": "osm"}, {"name": "Tiglieto", "country": "", "latitude": 44.5245575, "longitude": 8.6192573, "population": 546, "elevation": null, "source": "osm"}, {"name": "Campo Ligure", "country": "", "latitude": 44.537644, "longitude": 8.698153, "population": 3170, "elevation": null, "source": "osm"}, {"name": "Mele", "country": "", "latitude": 44.4475498, "longitude": 8.7477687, "population": 2634, "elevation": null, "source": "osm"}, {"name": "Masone", "country": "", "latitude": 44.5013362, "longitude": 8.7163481, "population": 4080, "elevation": null, "source": "osm"}, {"name": "Rossiglione", "country": "", "latitude": 44.5639606, "longitude": 8.6685132, "population": 3077, "elevation": null, "source": "osm"}, {"name": "Giusvalla", "country": "", "latitude": 44.447939, "longitude": 8.394149, "population": 425, "elevation": null, "source": "osm"}, {"name": "Mioglia", "country": "", "latitude": 44.4904597, "longitude": 8.4124727, "population": 561, "elevation": null, "source": "osm"}, {"name": "Piana Crixia", "country": "", "latitude": 44.4861788, "longitude": 8.3061011, "population": 788, "elevation": null, "source": "osm"}, {"name": "Dego", "country": "", "latitude": 44.443038, "longitude": 8.305947, "population": 1948, "elevation": null, "source": "osm"}, {"name": "Sassello", "country": "", "latitude": 44.4789695, "longitude": 8.4901712, "population": 1765, "elevation": null, "source": "osm"}, {"name": "Pontinvrea", "country": "", "latitude": 44.4446264, "longitude": 8.43446, "population": 822, "elevation": null, "source": "osm"}, {"name": "Perno", "country": "", "latitude": 44.6111, "longitude": 7.974752, "population": 0, "elevation": null, "source": "osm"}, {"name": "Masino", "country": "", "latitude": 45.3911258, "longitude": 7.962384, "population": 0, "elevation": null, "source": "osm"}, {"name": "Cinzano", "country": "", "latitude": 44.6935908, "longitude": 7.9166629, "population": 0, "elevation": null, "source": "osm"}, {"name": "Piansoave", "country": "", "latitude": 44.5282744, "longitude": 8.2385404, "population": 0, "elevation": null, "source": "osm"}, {"name": "Frescondino", "country": "", "latitude": 44.9964447, "longitude": 8.5926149, "population": 0, "elevation": null, "source": "osm"}, {"name": "Valparolo", "country": "", "latitude": 45.0082463, "longitude": 8.5920864, "population": 0, "elevation": null, "source": "osm"}, {"name": "Zanangelo", "country": "", "latitude": 45.0128526, "longitude": 8.5885509, "population": 0, "elevation": null, "source": "osm"}, {"name": "Piazzolo", "country": "", "latitude": 45.0132377, "longitude": 8.5685061, "population": 0, "elevation": null, "source": "osm"}, {"name": "Fosseto", "country": "", "latitude": 45.0164365, "longitude": 8.5661578, "population": 0, "elevation": null, "source": "osm"}, {"name": "Valdolenga", "country": "", "latitude": 45.0022992, "longitude": 8.5406838, "population": 0, "elevation": null, "source": "osm"}, {"name": "Giardinetto", "country": "", "latitude": 44.9680303, "longitude": 8.5500886, "population": 0, "elevation": null, "source": "osm"}, {"name": "Valmadonna", "country": "", "latitude": 44.9710385, "longitude": 8.611739, "population": 0, "elevation": null, "source": "osm"}, {"name": "Cerone", "country": "", "latitude": 45.3991764, "longitude": 7.894143, "population": 813, "elevation": 227.0, "source": "osm"}, {"name": "Realizio", "country": "", "latitude": 45.3892941, "longitude": 7.8989158, "population": 297, "elevation": 232.0, "source": "osm"}, {"name": "Vialarda", "country": "", "latitude": 45.1380664, "longitude": 8.3615401, "population": 156, "elevation": null, "source": "osm"}, {"name": "Viancino", "country": "", "latitude": 45.326629, "longitude": 8.2313491, "population": 0, "elevation": null, "source": "osm"}, {"name": "Remondò", "country": "", "latitude": 45.2424684, "longitude": 8.8047695, "population": 0, "elevation": null, "source": "osm"}, {"name": "Gnocchetto", "country": "", "latitude": 44.5859131, "longitude": 8.6632256, "population": 0, "elevation": null, "source": "osm"}, {"name": "Garbana", "country": "", "latitude": 45.2558801, "longitude": 8.8000077, "population": 0, "elevation": null, "source": "osm"}, {"name": "Morsella", "country": "", "latitude": 45.281736, "longitude": 8.8124088, "population": 0, "elevation": null, "source": "osm"}, {"name": "Casoni di Sant'Albino", "country": "", "latitude": 45.2400871, "longitude": 8.789167, "population": 200, "elevation": null, "source": "osm"}, {"name": "Piccolini", "country": "", "latitude": 45.3222172, "longitude": 8.8258991, "population": 0, "elevation": null, "source": "osm"}, {"name": "Buccella", "country": "", "latitude": 45.3485173, "longitude": 8.8489404, "population": 0, "elevation": null, "source": "osm"}, {"name": "Carrone", "country": "", "latitude": 45.3583265, "longitude": 7.9060757, "population": 321, "elevation": 228.0, "source": "osm"}, {"name": "Tina", "country": "", "latitude": 45.410102, "longitude": 7.932737, "population": 259, "elevation": 225.0, "source": "osm"}, {"name": "Villanova", "country": "", "latitude": 45.3646168, "longitude": 8.7499943, "population": 76, "elevation": null, "source": "osm"}, {"name": "Vignarello", "country": "", "latitude": 45.3478806, "longitude": 8.7504732, "population": 0, "elevation": null, "source": "osm"}, {"name": "Montemarzo", "country": "", "latitude": 44.8660111, "longitude": 8.2572734, "population": 350, "elevation": 216.0, "source": "osm"}, {"name": "Sessant", "country": "", "latitude": 44.9276908, "longitude": 8.1599354, "population": 138, "elevation": 215.0, "source": "osm"}, {"name": "San Maurizio di Conzano", "country": "", "latitude": 45.0477671, "longitude": 8.4637387, "population": 422, "elevation": 160.0, "source": "osm"}, {"name": "Castellaro de' Giorgi", "country": "", "latitude": 45.0755831, "longitude": 8.7082797, "population": 98, "elevation": 93.0, "source": "osm"}, {"name": "Rivalta Scrivia", "country": "", "latitude": 44.8518462, "longitude": 8.8163942, "population": 0, "elevation": null, "source": "osm"}, {"name": "Gaiazza", "country": "", "latitude": 44.5030437, "longitude": 8.8742079, "population": 556, "elevation": null, "source": "osm"}, {"name": "Castello", "country": "", "latitude": 45.4229173, "longitude": 8.0735971, "population": 0, "elevation": null, "source": "osm"}, {"name": "Casterno", "country": "", "latitude": 45.4296759, "longitude": 8.8702692, "population": 0, "elevation": null, "source": "osm"}, {"name": "Olengo", "country": "", "latitude": 45.4149262, "longitude": 8.6596052, "population": 0, "elevation": null, "source": "osm"}, {"name": "Livellato", "country": "", "latitude": 44.4865241, "longitude": 8.8791826, "population": 217, "elevation": null, "source": "osm"}, {"name": "Cameriano", "country": "", "latitude": 45.3964517, "longitude": 8.5360015, "population": 753, "elevation": 139.0, "source": "osm"}, {"name": "Valle San Bartolomeo", "country": "", "latitude": 44.9558203, "longitude": 8.6437452, "population": 0, "elevation": null, "source": "osm"}, {"name": "San Giuliano Vecchio", "country": "", "latitude": 44.8890471, "longitude": 8.761334, "population": 1145, "elevation": null, "source": "osm"}, {"name": "San Giuliano Nuovo", "country": "", "latitude": 44.9087907, "longitude": 8.7649185, "population": 588, "elevation": null, "source": "osm"}, {"name": "Lobbi", "country": "", "latitude": 44.9316764, "longitude": 8.7179937, "population": 668, "elevation": null, "source": "osm"}, {"name": "Grava", "country": "", "latitude": 44.9812718, "longitude": 8.761786, "population": 418, "elevation": 81.0, "source": "osm"}, {"name": "Piepasso", "country": "", "latitude": 44.9253038, "longitude": 8.3844763, "population": 0, "elevation": null, "source": "osm"}, {"name": "Desana", "country": "", "latitude": 45.2688216, "longitude": 8.3567281, "population": 1040, "elevation": null, "source": "osm"}, {"name": "Martina", "country": "", "latitude": 44.4978279, "longitude": 8.6040817, "population": 75, "elevation": null, "source": "osm"}, {"name": "Mandrogne", "country": "", "latitude": 44.8628895, "longitude": 8.7473166, "population": 1545, "elevation": null, "source": "osm"}, {"name": "Cantoglio", "country": "", "latitude": 45.0270669, "longitude": 8.2652542, "population": 0, "elevation": null, "source": "osm"}, {"name": "Cioccaro", "country": "", "latitude": 45.0256209, "longitude": 8.2710131, "population": 0, "elevation": null, "source": "osm"}, {"name": "Pergatti Valle", "country": "", "latitude": 44.9545418, "longitude": 8.3700312, "population": 0, "elevation": null, "source": "osm"}, {"name": "Borghina", "country": "", "latitude": 45.0031371, "longitude": 8.5094215, "population": 0, "elevation": null, "source": "osm"}, {"name": "Fiondi di Bassignana", "country": "", "latitude": 44.9750499, "longitude": 8.6866757, "population": 0, "elevation": null, "source": "osm"}, {"name": "Madonna San Zeno", "country": "", "latitude": 44.9642132, "longitude": 8.6777145, "population": 0, "elevation": null, "source": "osm"}, {"name": "Salcido", "country": "", "latitude": 44.9898834, "longitude": 8.5210602, "population": 0, "elevation": null, "source": "osm"}, {"name": "Castellino", "country": "", "latitude": 45.0682007, "longitude": 8.302195, "population": 0, "elevation": null, "source": "osm"}, {"name": "Castellazzo", "country": "", "latitude": 45.0895251, "longitude": 8.3020013, "population": 0, "elevation": null, "source": "osm"}, {"name": "Dughera", "country": "", "latitude": 45.1039234, "longitude": 8.2410808, "population": 0, "elevation": null, "source": "osm"}, {"name": "Spinosa Alta", "country": "", "latitude": 45.0661519, "longitude": 8.3223316, "population": 0, "elevation": null, "source": "osm"}, {"name": "Spinosa Bassa", "country": "", "latitude": 45.0685455, "longitude": 8.3130636, "population": 0, "elevation": null, "source": "osm"}, {"name": "Pareto", "country": "", "latitude": 44.5164015, "longitude": 8.3821606, "population": 688, "elevation": null, "source": "osm"}, {"name": "Pollenzo", "country": "", "latitude": 44.6828984, "longitude": 7.8948821, "population": 0, "elevation": null, "source": "osm"}, {"name": "Accorneri Inferiore", "country": "", "latitude": 44.9462995, "longitude": 8.3720026, "population": 0, "elevation": null, "source": "osm"}, {"name": "Mombarone", "country": "", "latitude": 44.9666051, "longitude": 8.1370547, "population": 0, "elevation": null, "source": "osm"}, {"name": "San Lorenzo Roero", "country": "", "latitude": 44.8194315, "longitude": 7.8976165, "population": 180, "elevation": null, "source": "osm"}, {"name": "Lumellogno", "country": "", "latitude": 45.4082725, "longitude": 8.5886371, "population": 1337, "elevation": 138.0, "source": "osm"}, {"name": "San Germano", "country": "", "latitude": 45.1002432, "longitude": 8.4551807, "population": 0, "elevation": null, "source": "osm"}, {"name": "Casalrosso", "country": "", "latitude": 45.2964225, "longitude": 8.3570864, "population": 0, "elevation": null, "source": "osm"}, {"name": "Roncaglia", "country": "", "latitude": 45.0503199, "longitude": 8.4457609, "population": 0, "elevation": null, "source": "osm"}, {"name": "Casale Popolo", "country": "", "latitude": 45.1611564, "longitude": 8.4263652, "population": 0, "elevation": null, "source": "osm"}, {"name": "Manera", "country": "", "latitude": 44.6334757, "longitude": 8.1117314, "population": 0, "elevation": null, "source": "osm"}, {"name": "Valle Talloria", "country": "", "latitude": 44.6392659, "longitude": 8.0042214, "population": 0, "elevation": null, "source": "osm"}, {"name": "Coppi", "country": "", "latitude": 45.0618166, "longitude": 8.3838223, "population": 0, "elevation": null, "source": "osm"}, {"name": "Pavone d'Alessandria", "country": "", "latitude": 44.9348309, "longitude": 8.6654024, "population": 0, "elevation": null, "source": "osm"}, {"name": "Villa del Foro", "country": "", "latitude": 44.8869962, "longitude": 8.5326243, "population": 0, "elevation": null, "source": "osm"}, {"name": "Castelceriolo", "country": "", "latitude": 44.9164186, "longitude": 8.6906025, "population": 0, "elevation": null, "source": "osm"}, {"name": "Bodelacchi", "country": "", "latitude": 44.992425, "longitude": 8.5025352, "population": 0, "elevation": null, "source": "osm"}, {"name": "Castagna", "country": "", "latitude": 45.0137323, "longitude": 8.4956835, "population": 0, "elevation": null, "source": "osm"}, {"name": "Martini", "country": "", "latitude": 45.0090851, "longitude": 8.5034214, "population": 0, "elevation": null, "source": "osm"}, {"name": "Trisogli", "country": "", "latitude": 44.9956513, "longitude": 8.5062936, "population": 0, "elevation": null, "source": "osm"}, {"name": "Gabina", "country": "", "latitude": 44.9928284, "longitude": 8.5323921, "population": 0, "elevation": null, "source": "osm"}, {"name": "Barengo", "country": "", "latitude": 45.3194698, "longitude": 7.9265314, "population": 0, "elevation": null, "source": "osm"}, {"name": "Gerlotti", "country": "", "latitude": 44.9651185, "longitude": 8.5757885, "population": 0, "elevation": null, "source": "osm"}, {"name": "Sant'Anna", "country": "", "latitude": 44.7864969, "longitude": 8.1562129, "population": 0, "elevation": null, "source": "osm"}, {"name": "Annibalini", "country": "", "latitude": 45.0214698, "longitude": 8.4927687, "population": 0, "elevation": null, "source": "osm"}, {"name": "Torrion Quartara", "country": "", "latitude": 45.4180578, "longitude": 8.6149299, "population": 1661, "elevation": 147.0, "source": "osm"}, {"name": "Sanico", "country": "", "latitude": 45.0417958, "longitude": 8.2199623, "population": 0, "elevation": null, "source": "osm"}, {"name": "Maroero", "country": "", "latitude": 45.104981, "longitude": 8.0214502, "population": 0, "elevation": null, "source": "osm"}, {"name": "Morialdo", "country": "", "latitude": 45.0208295, "longitude": 7.9877751, "population": 0, "elevation": null, "source": "osm"}, {"name": "Serra di Buttigliera", "country": "", "latitude": 45.0062258, "longitude": 7.9763627, "population": 0, "elevation": null, "source": "osm"}, {"name": "Ranello", "country": "", "latitude": 45.0485048, "longitude": 7.9798515, "population": 0, "elevation": null, "source": "osm"}, {"name": "Cascine Colombaro", "country": "", "latitude": 45.0049409, "longitude": 7.9347052, "population": 0, "elevation": null, "source": "osm"}, {"name": "Meane", "country": "", "latitude": 44.6241176, "longitude": 7.8871829, "population": 0, "elevation": null, "source": "osm"}, {"name": "Piazzo", "country": "", "latitude": 45.1395944, "longitude": 7.9876022, "population": 0, "elevation": null, "source": "osm"}, {"name": "San Giuseppe", "country": "", "latitude": 44.7299062, "longitude": 7.922903, "population": 446, "elevation": null, "source": "osm"}, {"name": "Semiana", "country": "", "latitude": 45.137475, "longitude": 8.7292673, "population": 251, "elevation": null, "source": "osm"}, {"name": "Fravagnano", "country": "", "latitude": 45.1469167, "longitude": 8.139846, "population": 0, "elevation": null, "source": "osm"}, {"name": "Granozzo", "country": "", "latitude": 45.360386, "longitude": 8.5729277, "population": 713, "elevation": 129.0, "source": "osm"}, {"name": "Monticello", "country": "", "latitude": 45.3758865, "longitude": 8.5968126, "population": 267, "elevation": 137.0, "source": "osm"}, {"name": "Rivalba", "country": "", "latitude": 45.0898189, "longitude": 8.59859, "population": 297, "elevation": 91.0, "source": "osm"}, {"name": "Montechiaro Piana", "country": "", "latitude": 44.6003256, "longitude": 8.354497, "population": 0, "elevation": null, "source": "osm"}, {"name": "Arè", "country": "", "latitude": 45.2853275, "longitude": 7.8930786, "population": 0, "elevation": null, "source": "osm"}, {"name": "Repergo", "country": "", "latitude": 44.8179413, "longitude": 8.1935688, "population": 0, "elevation": null, "source": "osm"}, {"name": "Calcini", "country": "", "latitude": 44.9330048, "longitude": 8.3738335, "population": 0, "elevation": null, "source": "osm"}, {"name": "Marchetti", "country": "", "latitude": 44.937012, "longitude": 8.3772943, "population": 0, "elevation": null, "source": "osm"}, {"name": "San Desiderio", "country": "", "latitude": 44.9916798, "longitude": 8.2791464, "population": 0, "elevation": null, "source": "osm"}, {"name": "Cascinagrossa", "country": "", "latitude": 44.8793573, "longitude": 8.7225831, "population": 1839, "elevation": null, "source": "osm"}, {"name": "Litta Parodi", "country": "", "latitude": 44.8712315, "longitude": 8.7071104, "population": 0, "elevation": null, "source": "osm"}, {"name": "Spinetta Marengo", "country": "", "latitude": 44.8861753, "longitude": 8.6829041, "population": 6392, "elevation": null, "source": "osm"}, {"name": "Palo", "country": "", "latitude": 44.4881148, "longitude": 8.5492511, "population": 0, "elevation": null, "source": "osm"}, {"name": "Siberia", "country": "", "latitude": 45.1685441, "longitude": 8.0902162, "population": 38, "elevation": 160.0, "source": "osm"}, {"name": "San Pietro d'Olba", "country": "", "latitude": 44.4870458, "longitude": 8.5867366, "population": 206, "elevation": null, "source": "osm"}, {"name": "San Carlo", "country": "", "latitude": 44.9563432, "longitude": 8.3541226, "population": 0, "elevation": null, "source": "osm"}, {"name": "Lovera", "country": "", "latitude": 44.5015636, "longitude": 8.0097522, "population": 0, "elevation": null, "source": "osm"}, {"name": "Santo Stefano Canetto", "country": "", "latitude": 44.8006766, "longitude": 8.2107076, "population": 0, "elevation": null, "source": "osm"}, {"name": "Guazzolo", "country": "", "latitude": 45.0643346, "longitude": 8.2276352, "population": 0, "elevation": null, "source": "osm"}, {"name": "Castelrosso", "country": "", "latitude": 45.1982213, "longitude": 7.9333766, "population": 0, "elevation": null, "source": "osm"}, {"name": "Castellinaldo d'Alba", "country": "", "latitude": 44.774951, "longitude": 8.0299844, "population": 941, "elevation": null, "source": "osm"}, {"name": "Macellai", "country": "", "latitude": 44.7031192, "longitude": 7.8933839, "population": 0, "elevation": null, "source": "osm"}, {"name": "Casalotto", "country": "", "latitude": 44.7616154, "longitude": 8.4133115, "population": 0, "elevation": null, "source": "osm"}, {"name": "Lavezzole", "country": "", "latitude": 44.835253, "longitude": 8.0860597, "population": 0, "elevation": null, "source": "osm"}, {"name": "Ceranesi", "country": "", "latitude": 44.5112695, "longitude": 8.8789407, "population": 3875, "elevation": null, "source": "osm"}, {"name": "Goido", "country": "", "latitude": 45.1132113, "longitude": 8.7452396, "population": 102, "elevation": 96.0, "source": "osm"}, {"name": "Biglini", "country": "", "latitude": 44.7038061, "longitude": 7.9804558, "population": 0, "elevation": null, "source": "osm"}, {"name": "Villata", "country": "", "latitude": 44.8680861, "longitude": 7.9640148, "population": 0, "elevation": null, "source": "osm"}, {"name": "San Grato", "country": "", "latitude": 44.8554596, "longitude": 7.9684876, "population": 0, "elevation": null, "source": "osm"}, {"name": "San Defendente", "country": "", "latitude": 44.8646383, "longitude": 7.9888758, "population": 0, "elevation": null, "source": "osm"}, {"name": "Serravalle", "country": "", "latitude": 44.9480396, "longitude": 8.1460443, "population": 0, "elevation": null, "source": "osm"}, {"name": "Mogol", "country": "", "latitude": 45.1321873, "longitude": 8.057514, "population": 0, "elevation": null, "source": "osm"}, {"name": "Canove", "country": "", "latitude": 44.7774533, "longitude": 8.0914402, "population": 0, "elevation": null, "source": "osm"}, {"name": "Ricca d'Alba", "country": "", "latitude": 44.6538858, "longitude": 8.0488152, "population": 1220, "elevation": null, "source": "osm"}, {"name": "Vaccheria", "country": "", "latitude": 44.7286097, "longitude": 8.0446557, "population": 0, "elevation": null, "source": "osm"}, {"name": "Gorzano", "country": "", "latitude": 44.8487975, "longitude": 8.0273561, "population": 0, "elevation": null, "source": "osm"}, {"name": "Mongardino", "country": "", "latitude": 44.8492328, "longitude": 8.2184747, "population": 986, "elevation": null, "source": "osm"}, {"name": "Isola d'Asti", "country": "", "latitude": 44.8293671, "longitude": 8.177452, "population": 2041, "elevation": null, "source": "osm"}, {"name": "Rocchetta Tanaro", "country": "", "latitude": 44.8586714, "longitude": 8.3457064, "population": 1410, "elevation": null, "source": "osm"}, {"name": "Vaglio Serra", "country": "", "latitude": 44.7964063, "longitude": 8.3390142, "population": 298, "elevation": null, "source": "osm"}, {"name": "Maranzana", "country": "", "latitude": 44.7605633, "longitude": 8.4782571, "population": 307, "elevation": null, "source": "osm"}, {"name": "Grazzano Badoglio", "country": "", "latitude": 45.0395818, "longitude": 8.3135527, "population": 639, "elevation": null, "source": "osm"}, {"name": "Villafranca d'Asti", "country": "", "latitude": 44.91329, "longitude": 8.0325012, "population": 2942, "elevation": null, "source": "osm"}, {"name": "Serole", "country": "", "latitude": 44.5538867, "longitude": 8.2595548, "population": 163, "elevation": null, "source": "osm"}, {"name": "Benne", "country": "", "latitude": 45.1907166, "longitude": 7.9942549, "population": 0, "elevation": null, "source": "osm"}, {"name": "Madonnina", "country": "", "latitude": 45.188711, "longitude": 7.9806449, "population": 0, "elevation": null, "source": "osm"}, {"name": "Montariolo", "country": "", "latitude": 44.9954653, "longitude": 8.772532, "population": 108, "elevation": 77.0, "source": "osm"}, {"name": "Lazzari", "country": "", "latitude": 44.9943576, "longitude": 8.5271072, "population": 0, "elevation": null, "source": "osm"}, {"name": "Gallo d'Alba", "country": "", "latitude": 44.656918, "longitude": 7.9818839, "population": 0, "elevation": null, "source": "osm"}, {"name": "Sant'Antonio", "country": "", "latitude": 44.7599443, "longitude": 8.0712006, "population": 0, "elevation": null, "source": "osm"}, {"name": "Priata", "country": "", "latitude": 45.0145018, "longitude": 8.5291135, "population": 0, "elevation": null, "source": "osm"}, {"name": "Cascine Napoli", "country": "", "latitude": 45.0283921, "longitude": 8.3147647, "population": 0, "elevation": null, "source": "osm"}, {"name": "Prato Casale", "country": "", "latitude": 45.0141657, "longitude": 8.3155855, "population": 0, "elevation": null, "source": "osm"}, {"name": "Biletta", "country": "", "latitude": 45.0255838, "longitude": 8.2809929, "population": 0, "elevation": null, "source": "osm"}, {"name": "Migliarino", "country": "", "latitude": 45.02206, "longitude": 8.2772155, "population": 0, "elevation": null, "source": "osm"}, {"name": "Minoglio", "country": "", "latitude": 45.0251192, "longitude": 8.2932367, "population": 0, "elevation": null, "source": "osm"}, {"name": "Santa Maria", "country": "", "latitude": 45.029815, "longitude": 8.291873, "population": 0, "elevation": null, "source": "osm"}, {"name": "Garesio", "country": "", "latitude": 45.0288401, "longitude": 7.9998598, "population": 0, "elevation": null, "source": "osm"}, {"name": "Gonengo", "country": "", "latitude": 45.1070049, "longitude": 7.980835, "population": 0, "elevation": null, "source": "osm"}, {"name": "Maconeto", "country": "", "latitude": 45.0686824, "longitude": 7.9954195, "population": 0, "elevation": null, "source": "osm"}, {"name": "Borgo Carro", "country": "", "latitude": 44.4995243, "longitude": 8.1392142, "population": 0, "elevation": null, "source": "osm"}, {"name": "Borgo Violette", "country": "", "latitude": 44.5526002, "longitude": 8.1473386, "population": 0, "elevation": null, "source": "osm"}, {"name": "Borgo Veri", "country": "", "latitude": 44.5531162, "longitude": 8.1427279, "population": 0, "elevation": null, "source": "osm"}, {"name": "Moriondo", "country": "", "latitude": 45.1554142, "longitude": 7.9686254, "population": 0, "elevation": null, "source": "osm"}, {"name": "Roboaro", "country": "", "latitude": 44.5237162, "longitude": 8.4094655, "population": 0, "elevation": null, "source": "osm"}, {"name": "Regione Bricco Barrano", "country": "", "latitude": 44.8902753, "longitude": 8.0419251, "population": 0, "elevation": null, "source": "osm"}, {"name": "Casale di Mazzè", "country": "", "latitude": 45.2895975, "longitude": 7.9441264, "population": 0, "elevation": null, "source": "osm"}, {"name": "Tonengo", "country": "", "latitude": 45.2878826, "longitude": 7.9380572, "population": 0, "elevation": null, "source": "osm"}, {"name": "Vallumida", "country": "", "latitude": 44.8129976, "longitude": 8.2173795, "population": 0, "elevation": null, "source": "osm"}, {"name": "Cabannoni", "country": "", "latitude": 44.8685853, "longitude": 8.6923719, "population": 0, "elevation": null, "source": "osm"}, {"name": "Annunziata", "country": "", "latitude": 44.7775834, "longitude": 8.1640756, "population": 0, "elevation": null, "source": "osm"}, {"name": "Fogliano", "country": "", "latitude": 45.2817431, "longitude": 8.8366838, "population": 0, "elevation": null, "source": "osm"}, {"name": "Motta", "country": "", "latitude": 44.8086376, "longitude": 8.1465473, "population": 0, "elevation": null, "source": "osm"}, {"name": "Annunziata", "country": "", "latitude": 44.6365156, "longitude": 7.9540168, "population": 0, "elevation": null, "source": "osm"}, {"name": "Santa Maria", "country": "", "latitude": 44.651603, "longitude": 7.9457551, "population": 0, "elevation": null, "source": "osm"}, {"name": "Fontanasse", "country": "", "latitude": 44.789372, "longitude": 8.6303878, "population": 0, "elevation": null, "source": "osm"}, {"name": "Sorano (Serralunga d'Alba)", "country": "", "latitude": 44.6328023, "longitude": 7.9930253, "population": 0, "elevation": null, "source": "osm"}, {"name": "Frazione Rivalta", "country": "", "latitude": 44.6636614, "longitude": 7.915164, "population": 0, "elevation": null, "source": "osm"}, {"name": "Frazione Annunziata", "country": "", "latitude": 44.6365398, "longitude": 7.9535144, "population": 0, "elevation": null, "source": "osm"}, {"name": "Frazione Santa Maria", "country": "", "latitude": 44.6513084, "longitude": 7.9455394, "population": 0, "elevation": null, "source": "osm"}, {"name": "Frazione Santa Maria", "country": "", "latitude": 44.6486685, "longitude": 7.9444096, "population": 0, "elevation": null, "source": "osm"}, {"name": "Montemarino", "country": "", "latitude": 44.6383382, "longitude": 8.1133304, "population": 0, "elevation": null, "source": "osm"}, {"name": "San Bovo", "country": "", "latitude": 44.6357584, "longitude": 8.1515081, "population": 0, "elevation": null, "source": "osm"}, {"name": "Levice", "country": "", "latitude": 44.537951, "longitude": 8.1562505, "population": 0, "elevation": null, "source": "osm"}, {"name": "Borgata Ascheri", "country": "", "latitude": 44.6555494, "longitude": 7.9119765, "population": 0, "elevation": null, "source": "osm"}]