[{"name": "Ormož", "country": "", "latitude": 46.4072383, "longitude": 16.1489255, "population": 1914, "elevation": 218.0, "source": "osm"}, {"name": "Čista Mlaka", "country": "", "latitude": 45.7706956, "longitude": 16.1805127, "population": 582, "elevation": null, "source": "osm"}, {"name": "Jezero Posavsko", "country": "", "latitude": 45.6346553, "longitude": 16.3117931, "population": 0, "elevation": null, "source": "osm"}, {"name": "Hrvatski Leskovac", "country": "", "latitude": 45.7442581, "longitude": 15.8894332, "population": 2659, "elevation": null, "source": "osm"}, {"name": "Velika Gorica", "country": "", "latitude": 45.7155672, "longitude": 16.0717164, "population": 30036, "elevation": null, "source": "osm"}, {"name": "Buzin", "country": "", "latitude": 45.7503667, "longitude": 15.994705, "population": 1074, "elevation": null, "source": "osm"}, {"name": "Velika Mlaka", "country": "", "latitude": 45.7359614, "longitude": 16.0300097, "population": 3334, "elevation": null, "source": "osm"}, {"name": "Odra", "country": "", "latitude": 45.729774, "longitude": 15.9925357, "population": 2630, "elevation": null, "source": "osm"}, {"name": "Hrašće Turopoljsko", "country": "", "latitude": 45.7307929, "longitude": 16.0044546, "population": 1232, "elevation": null, "source": "osm"}, {"name": "Veliko Polje", "country": "", "latitude": 45.7382279, "longitude": 16.0160743, "population": 2122, "elevation": null, "source": "osm"}, {"name": "Mala Mlaka", "country": "", "latitude": 45.7289925, "longitude": 15.9772101, "population": 591, "elevation": null, "source": "osm"}, {"name": "Gornji Čehi", "country": "", "latitude": 45.7444809, "longitude": 15.9587399, "population": 368, "elevation": null, "source": "osm"}, {"name": "Donji Čehi", "country": "", "latitude": 45.7388811, "longitude": 15.9616059, "population": 243, "elevation": null, "source": "osm"}, {"name": "Gornja Lomnica", "country": "", "latitude": 45.7149347, "longitude": 15.999924, "population": 580, "elevation": null, "source": "osm"}, {"name": "Donja Lomnica", "country": "", "latitude": 45.7117085, "longitude": 16.0205866, "population": 1732, "elevation": null, "source": "osm"}, {"name": "Gradići", "country": "", "latitude": 45.7044885, "longitude": 16.0376904, "population": 1860, "elevation": null, "source": "osm"}, {"name": "Lukavec", "country": "", "latitude": 45.7011134, "longitude": 15.9936241, "population": 1140, "elevation": null, "source": "osm"}, {"name": "Petrovina Turopoljska", "country": "", "latitude": 45.6928387, "longitude": 16.031251, "population": 708, "elevation": null, "source": "osm"}, {"name": "Goli Breg", "country": "", "latitude": 45.7316459, "longitude": 15.9002511, "population": 410, "elevation": null, "source": "osm"}, {"name": "Varaždin", "country": "", "latitude": 46.3079645, "longitude": 16.3378198, "population": 36187, "elevation": null, "source": "osm"}, {"name": "Mičevec", "country": "", "latitude": 45.7529444, "longitude": 16.0531946, "population": 1286, "elevation": null, "source": "osm"}, {"name": "Velika Nedelja", "country": "", "latitude": 46.4208725, "longitude": 16.109503, "population": 301, "elevation": null, "source": "osm"}, {"name": "Središče ob Dravi", "country": "SI", "latitude": 46.3947867, "longitude": 16.2702138, "population": 1024, "elevation": 183.2, "source": "osm"}, {"name": "Novi Marof", "country": "", "latitude": 46.1643817, "longitude": 16.3348602, "population": 1810, "elevation": null, "source": "osm"}, {"name": "Konjščina", "country": "", "latitude": 46.0531323, "longitude": 16.1793056, "population": 1019, "elevation": null, "source": "osm"}, {"name": "Pušenci", "country": "", "latitude": 46.4043937, "longitude": 16.1793285, "population": 275, "elevation": 193.0, "source": "osm"}, {"name": "Hum pri Ormožu", "country": "SI", "latitude": 46.4152531, "longitude": 16.1984468, "population": 322, "elevation": 266.0, "source": "osm"}, {"name": "Loperšice", "country": "SI", "latitude": 46.4032941, "longitude": 16.2084602, "population": 172, "elevation": 205.0, "source": "osm"}, {"name": "Obrež", "country": "SI", "latitude": 46.3987365, "longitude": 16.2324928, "population": 0, "elevation": null, "source": "osm"}, {"name": "Grabe", "country": "", "latitude": 46.3987371, "longitude": 16.2513163, "population": 154, "elevation": 190.8, "source": "osm"}, {"name": "Pavlovci", "country": "SI", "latitude": 46.4253716, "longitude": 16.1775853, "population": 191, "elevation": 208.4, "source": "osm"}, {"name": "Dobrava", "country": "SI", "latitude": 46.4201884, "longitude": 16.1487652, "population": 0, "elevation": null, "source": "osm"}, {"name": "Sisak", "country": "", "latitude": 45.4891656, "longitude": 16.374592, "population": 27859, "elevation": null, "source": "osm"}, {"name": "Senešci", "country": "", "latitude": 46.4273624, "longitude": 16.0865376, "population": 0, "elevation": null, "source": "osm"}, {"name": "Godeninci", "country": "", "latitude": 46.4220622, "longitude": 16.2650212, "population": 0, "elevation": null, "source": "osm"}, {"name": "Turčin", "country": "", "latitude": 46.2586581, "longitude": 16.3595298, "population": 931, "elevation": null, "source": "osm"}, {"name": "Tomaševec Biškupečki", "country": "", "latitude": 46.2489479, "longitude": 16.3518887, "population": 379, "elevation": null, "source": "osm"}, {"name": "Črnec Biškupečki", "country": "", "latitude": 46.2649338, "longitude": 16.3442624, "population": 696, "elevation": null, "source": "osm"}, {"name": "Poljana Biškupečka", "country": "", "latitude": 46.2672496, "longitude": 16.318964, "population": 452, "elevation": null, "source": "osm"}, {"name": "Jalkovec", "country": "", "latitude": 46.2780474, "longitude": 16.3198223, "population": 1309, "elevation": null, "source": "osm"}, {"name": "Gojanec", "country": "", "latitude": 46.2859049, "longitude": 16.3029011, "population": 620, "elevation": null, "source": "osm"}, {"name": "Nedeljanec", "country": "", "latitude": 46.289057, "longitude": 16.2912974, "population": 1485, "elevation": null, "source": "osm"}, {"name": "Hrašćica", "country": "", "latitude": 46.3237213, "longitude": 16.2961086, "population": 1283, "elevation": null, "source": "osm"}, {"name": "Sračinec", "country": "", "latitude": 46.3322794, "longitude": 16.2719433, "population": 3897, "elevation": null, "source": "osm"}, {"name": "Prekno", "country": "", "latitude": 46.28534, "longitude": 16.2819563, "population": 172, "elevation": null, "source": "osm"}, {"name": "Zamlača", "country": "", "latitude": 46.2804754, "longitude": 16.2676717, "population": 372, "elevation": null, "source": "osm"}, {"name": "Cargovec", "country": "", "latitude": 46.2857773, "longitude": 16.2680798, "population": 410, "elevation": null, "source": "osm"}, {"name": "Papinec", "country": "", "latitude": 46.2853037, "longitude": 16.2595, "population": 110, "elevation": null, "source": "osm"}, {"name": "Šijanec", "country": "", "latitude": 46.2901351, "longitude": 16.25239, "population": 213, "elevation": null, "source": "osm"}, {"name": "Vidovec", "country": "", "latitude": 46.2863481, "longitude": 16.2504203, "population": 851, "elevation": null, "source": "osm"}, {"name": "Sveti Petar Orehovec", "country": "", "latitude": 46.0779823, "longitude": 16.4536739, "population": 279, "elevation": null, "source": "osm"}, {"name": "Orehovec", "country": "", "latitude": 46.0721174, "longitude": 16.4569734, "population": 101, "elevation": null, "source": "osm"}, {"name": "Novo Čiče", "country": "", "latitude": 45.7048175, "longitude": 16.1184629, "population": 1255, "elevation": null, "source": "osm"}, {"name": "Staro Čiče", "country": "", "latitude": 45.6925414, "longitude": 16.1179872, "population": 790, "elevation": null, "source": "osm"}, {"name": "Kobilić", "country": "", "latitude": 45.7319711, "longitude": 16.1012819, "population": 533, "elevation": null, "source": "osm"}, {"name": "Lazina Čička", "country": "", "latitude": 45.7220093, "longitude": 16.1225195, "population": 566, "elevation": null, "source": "osm"}, {"name": "Vukovina", "country": "", "latitude": 45.6823954, "longitude": 16.1112977, "population": 947, "elevation": null, "source": "osm"}, {"name": "Bapča", "country": "", "latitude": 45.7436186, "longitude": 16.101768, "population": 129, "elevation": null, "source": "osm"}, {"name": "Zavrč", "country": "", "latitude": 46.3860221, "longitude": 16.0459879, "population": 0, "elevation": null, "source": "osm"}, {"name": "Črnkovec", "country": "", "latitude": 45.7506386, "longitude": 16.1197623, "population": 412, "elevation": null, "source": "osm"}, {"name": "Borovci", "country": "", "latitude": 46.4175417, "longitude": 15.9373279, "population": 304, "elevation": 219.2, "source": "osm"}, {"name": "Cunkovci", "country": "", "latitude": 46.4151844, "longitude": 15.9760236, "population": 0, "elevation": null, "source": "osm"}, {"name": "Brezova Gora", "country": "", "latitude": 46.2784528, "longitude": 15.9121081, "population": 69, "elevation": null, "source": "osm"}, {"name": "Bregi Radobojski", "country": "", "latitude": 46.1369142, "longitude": 15.9091404, "population": 445, "elevation": null, "source": "osm"}, {"name": "Jazvine", "country": "", "latitude": 46.146061, "longitude": 15.903614, "population": 382, "elevation": null, "source": "osm"}, {"name": "Strelci", "country": "", "latitude": 46.4155995, "longitude": 15.9680467, "population": 0, "elevation": null, "source": "osm"}, {"name": "Spuhlja", "country": "", "latitude": 46.4131624, "longitude": 15.9107249, "population": 0, "elevation": null, "source": "osm"}, {"name": "Zagojiči", "country": "", "latitude": 46.4030577, "longitude": 15.9805662, "population": 180, "elevation": 214.8, "source": "osm"}, {"name": "Sobetinci", "country": "", "latitude": 46.404753, "longitude": 15.971234, "population": 0, "elevation": null, "source": "osm"}, {"name": "Prvenci", "country": "", "latitude": 46.40583, "longitude": 15.9559104, "population": 238, "elevation": 218.4, "source": "osm"}, {"name": "Orehovec Radobojski", "country": "", "latitude": 46.1463934, "longitude": 15.8956107, "population": 282, "elevation": null, "source": "osm"}, {"name": "Straža Krapinska", "country": "", "latitude": 46.1571758, "longitude": 15.8876737, "population": 42, "elevation": null, "source": "osm"}, {"name": "Markovci", "country": "", "latitude": 46.3947708, "longitude": 15.9298496, "population": 489, "elevation": 221.8, "source": "osm"}, {"name": "Ložina", "country": "", "latitude": 46.2982011, "longitude": 15.9012527, "population": 0, "elevation": null, "source": "osm"}, {"name": "Zabovci", "country": "", "latitude": 46.3996284, "longitude": 15.9148785, "population": 407, "elevation": 222.8, "source": "osm"}, {"name": "Komin", "country": "", "latitude": 46.0038329, "longitude": 16.2846212, "population": 250, "elevation": null, "source": "osm"}, {"name": "Gregurovec", "country": "", "latitude": 46.0297878, "longitude": 16.4498379, "population": 233, "elevation": null, "source": "osm"}, {"name": "Ferežani", "country": "", "latitude": 46.0374793, "longitude": 16.431118, "population": 113, "elevation": null, "source": "osm"}, {"name": "Donji Fodrovec", "country": "", "latitude": 46.0446686, "longitude": 16.4061721, "population": 175, "elevation": null, "source": "osm"}, {"name": "Zaistovec", "country": "", "latitude": 46.0335994, "longitude": 16.375118, "population": 262, "elevation": null, "source": "osm"}, {"name": "Radoišće", "country": "", "latitude": 46.0094084, "longitude": 16.3279716, "population": 250, "elevation": null, "source": "osm"}, {"name": "Hrastje", "country": "", "latitude": 45.9782359, "longitude": 16.268864, "population": 193, "elevation": null, "source": "osm"}, {"name": "Pretoki", "country": "", "latitude": 45.9711446, "longitude": 16.2565719, "population": 295, "elevation": null, "source": "osm"}, {"name": "Sveti Ivan Zelina", "country": "", "latitude": 45.9597901, "longitude": 16.2430942, "population": 2583, "elevation": null, "source": "osm"}, {"name": "Sveta Helena", "country": "", "latitude": 45.9028307, "longitude": 16.2628026, "population": 366, "elevation": null, "source": "osm"}, {"name": "Brezovec Zelinski", "country": "", "latitude": 45.9086711, "longitude": 16.2644717, "population": 167, "elevation": null, "source": "osm"}, {"name": "Tužno", "country": "", "latitude": 46.2540324, "longitude": 16.2376122, "population": 1015, "elevation": null, "source": "osm"}, {"name": "Varaždinske Toplice", "country": "", "latitude": 46.2092637, "longitude": 16.4211576, "population": 1606, "elevation": null, "source": "osm"}, {"name": "Vrtlinovec", "country": "", "latitude": 46.2274192, "longitude": 16.4004743, "population": 353, "elevation": null, "source": "osm"}, {"name": "Gornji Kneginec", "country": "", "latitude": 46.2519229, "longitude": 16.3752355, "population": 1637, "elevation": null, "source": "osm"}, {"name": "Međa", "country": "", "latitude": 46.0606818, "longitude": 16.4666923, "population": 180, "elevation": null, "source": "osm"}, {"name": "Vrbovečki Pavlovec", "country": "", "latitude": 45.9057368, "longitude": 16.4326238, "population": 398, "elevation": null, "source": "osm"}, {"name": "Kalnik", "country": "", "latitude": 46.1278483, "longitude": 16.4642668, "population": 325, "elevation": null, "source": "osm"}, {"name": "Gornja Rijeka", "country": "", "latitude": 46.1097278, "longitude": 16.3924291, "population": 340, "elevation": null, "source": "osm"}, {"name": "Vinarec", "country": "", "latitude": 46.1023991, "longitude": 16.4389039, "population": 170, "elevation": null, "source": "osm"}, {"name": "Štrigovec", "country": "", "latitude": 46.10527, "longitude": 16.413055, "population": 37, "elevation": null, "source": "osm"}, {"name": "Sudovec", "country": "", "latitude": 46.105833, "longitude": 16.36305, "population": 350, "elevation": null, "source": "osm"}, {"name": "Miholec", "country": "", "latitude": 46.0545405, "longitude": 16.4462061, "population": 363, "elevation": null, "source": "osm"}, {"name": "Gorica Miholečka", "country": "", "latitude": 46.0510019, "longitude": 16.42973, "population": 57, "elevation": null, "source": "osm"}, {"name": "Kapela Ravenska", "country": "", "latitude": 46.0282876, "longitude": 16.4289645, "population": 85, "elevation": null, "source": "osm"}, {"name": "Selnica Miholečka", "country": "", "latitude": 46.0695629, "longitude": 16.4269571, "population": 86, "elevation": null, "source": "osm"}, {"name": "Nemčevec", "country": "", "latitude": 46.081562, "longitude": 16.4041699, "population": 18, "elevation": null, "source": "osm"}, {"name": "Fodrovec Riječki", "country": "", "latitude": 46.060278, "longitude": 16.379722, "population": 61, "elevation": null, "source": "osm"}, {"name": "Mokrice Miholečke", "country": "", "latitude": 46.055, "longitude": 16.381944, "population": 154, "elevation": null, "source": "osm"}, {"name": "Kolarec", "country": "", "latitude": 46.0759892, "longitude": 16.3656345, "population": 148, "elevation": null, "source": "osm"}, {"name": "Kostanjevec Riječki", "country": "", "latitude": 46.1027092, "longitude": 16.3777116, "population": 267, "elevation": null, "source": "osm"}, {"name": "Visoko", "country": "", "latitude": 46.090278, "longitude": 16.325, "population": 493, "elevation": null, "source": "osm"}, {"name": "Čanjevo", "country": "", "latitude": 46.106389, "longitude": 16.339444, "population": 184, "elevation": null, "source": "osm"}, {"name": "Beketinec", "country": "", "latitude": 46.0139151, "longitude": 16.436765, "population": 38, "elevation": null, "source": "osm"}, {"name": "Šalovec", "country": "", "latitude": 45.9816297, "longitude": 16.2641733, "population": 169, "elevation": null, "source": "osm"}, {"name": "Velika Kosnica", "country": "", "latitude": 45.7623306, "longitude": 16.0802688, "population": 770, "elevation": null, "source": "osm"}, {"name": "Donja Stubica", "country": "", "latitude": 45.9801727, "longitude": 15.9722428, "population": 2121, "elevation": null, "source": "osm"}, {"name": "Ivanec", "country": "", "latitude": 46.2239676, "longitude": 16.1244407, "population": 4997, "elevation": null, "source": "osm"}, {"name": "Ivanić-Grad", "country": "", "latitude": 45.7056756, "longitude": 16.3920092, "population": 8452, "elevation": null, "source": "osm"}, {"name": "Lepoglava", "country": "", "latitude": 46.2075318, "longitude": 16.0441744, "population": 3400, "elevation": null, "source": "osm"}, {"name": "Čakovec", "country": "", "latitude": 46.3892305, "longitude": 16.4368593, "population": 15078, "elevation": null, "source": "osm"}, {"name": "Donji Tkalec", "country": "", "latitude": 45.954932, "longitude": 16.4514558, "population": 97, "elevation": null, "source": "osm"}, {"name": "Gostović", "country": "", "latitude": 45.9283718, "longitude": 16.4445035, "population": 139, "elevation": null, "source": "osm"}, {"name": "Kućari", "country": "", "latitude": 45.919987, "longitude": 16.4378561, "population": 0, "elevation": null, "source": "osm"}, {"name": "Banovo", "country": "", "latitude": 45.9154019, "longitude": 16.4331037, "population": 113, "elevation": null, "source": "osm"}, {"name": "Luka", "country": "", "latitude": 45.8765214, "longitude": 16.3806102, "population": 840, "elevation": null, "source": "osm"}, {"name": "Dugo Selo", "country": "", "latitude": 45.8060388, "longitude": 16.237771, "population": 11097, "elevation": null, "source": "osm"}, {"name": "Dumovec", "country": "", "latitude": 45.8112871, "longitude": 16.1600015, "population": 840, "elevation": null, "source": "osm"}, {"name": "Brckovljani", "country": "", "latitude": 45.8360624, "longitude": 16.2949281, "population": 1542, "elevation": null, "source": "osm"}, {"name": "Gračec", "country": "", "latitude": 45.8383717, "longitude": 16.3076254, "population": 1127, "elevation": null, "source": "osm"}, {"name": "Črnec Dugoselski", "country": "", "latitude": 45.7618164, "longitude": 16.2659265, "population": 191, "elevation": null, "source": "osm"}, {"name": "Kloštar Ivanić", "country": "", "latitude": 45.7383126, "longitude": 16.4179445, "population": 3583, "elevation": null, "source": "osm"}, {"name": "Trebovec", "country": "", "latitude": 45.7164876, "longitude": 16.3185725, "population": 347, "elevation": null, "source": "osm"}, {"name": "Zelina Breška", "country": "", "latitude": 45.7100401, "longitude": 16.3348672, "population": 99, "elevation": null, "source": "osm"}, {"name": "Ježevo", "country": "", "latitude": 45.7352793, "longitude": 16.298816, "population": 428, "elevation": null, "source": "osm"}, {"name": "Leprovica", "country": "", "latitude": 45.77346, "longitude": 16.2804291, "population": 254, "elevation": null, "source": "osm"}, {"name": "Puhovo", "country": "", "latitude": 45.7909484, "longitude": 16.2510991, "population": 710, "elevation": null, "source": "osm"}, {"name": "Kopčevec", "country": "", "latitude": 45.8039982, "longitude": 16.2147302, "population": 1093, "elevation": null, "source": "osm"}, {"name": "Kozinščak", "country": "", "latitude": 45.8148367, "longitude": 16.260531, "population": 1345, "elevation": null, "source": "osm"}, {"name": "Obedišće Ježevsko", "country": "", "latitude": 45.7573811, "longitude": 16.294468, "population": 119, "elevation": null, "source": "osm"}, {"name": "Mala Ostrna", "country": "", "latitude": 45.7819738, "longitude": 16.2817629, "population": 325, "elevation": null, "source": "osm"}, {"name": "Velika Ostrna", "country": "", "latitude": 45.7890572, "longitude": 16.275626, "population": 1271, "elevation": null, "source": "osm"}, {"name": "Lukarišće", "country": "", "latitude": 45.8151185, "longitude": 16.2753793, "population": 1020, "elevation": null, "source": "osm"}, {"name": "Prozorje", "country": "", "latitude": 45.8314314, "longitude": 16.2338917, "population": 521, "elevation": null, "source": "osm"}, {"name": "Cerje", "country": "", "latitude": 45.8296604, "longitude": 16.191469, "population": 408, "elevation": null, "source": "osm"}, {"name": "Ribnica", "country": "", "latitude": 45.7162945, "longitude": 16.1508043, "population": 803, "elevation": null, "source": "osm"}, {"name": "Jagodno", "country": "", "latitude": 45.7058341, "longitude": 16.1425427, "population": 521, "elevation": null, "source": "osm"}, {"name": "Donje Podotočje", "country": "", "latitude": 45.6953168, "longitude": 16.146085, "population": 375, "elevation": null, "source": "osm"}, {"name": "Đurđekovec", "country": "", "latitude": 45.8763906, "longitude": 16.1208765, "population": 690, "elevation": null, "source": "osm"}, {"name": "Gornje Podotočje", "country": "", "latitude": 45.6836062, "longitude": 16.1324261, "population": 491, "elevation": null, "source": "osm"}, {"name": "Kuče", "country": "", "latitude": 45.6761398, "longitude": 16.1423026, "population": 1453, "elevation": null, "source": "osm"}, {"name": "Andrilovec", "country": "", "latitude": 45.8044692, "longitude": 16.2927879, "population": 286, "elevation": null, "source": "osm"}, {"name": "Čret Posavski", "country": "", "latitude": 45.7155699, "longitude": 16.1951976, "population": 91, "elevation": null, "source": "osm"}, {"name": "Bukevje", "country": "", "latitude": 45.7233045, "longitude": 16.2064527, "population": 0, "elevation": null, "source": "osm"}, {"name": "Drnek", "country": "", "latitude": 45.6951367, "longitude": 16.2219428, "population": 308, "elevation": null, "source": "osm"}, {"name": "Hižanovec", "country": "", "latitude": 46.1137533, "longitude": 16.4217897, "population": 88, "elevation": null, "source": "osm"}, {"name": "Vojnovec Kalnički", "country": "", "latitude": 46.1205647, "longitude": 16.4244075, "population": 122, "elevation": null, "source": "osm"}, {"name": "Šopron", "country": "", "latitude": 46.1202462, "longitude": 16.4652608, "population": 162, "elevation": null, "source": "osm"}, {"name": "Obrež Kalnički", "country": "", "latitude": 46.1182956, "longitude": 16.4352972, "population": 139, "elevation": null, "source": "osm"}, {"name": "Borje", "country": "", "latitude": 46.1231687, "longitude": 16.4456459, "population": 137, "elevation": null, "source": "osm"}, {"name": "Obed", "country": "", "latitude": 45.7300266, "longitude": 16.196031, "population": 51, "elevation": null, "source": "osm"}, {"name": "Lekneno", "country": "", "latitude": 45.7551315, "longitude": 16.1375608, "population": 383, "elevation": null, "source": "osm"}, {"name": "Orle", "country": "", "latitude": 45.6886617, "longitude": 16.2318994, "population": 107, "elevation": null, "source": "osm"}, {"name": "Pešćenica", "country": "", "latitude": 45.6030434, "longitude": 16.1662285, "population": 883, "elevation": null, "source": "osm"}, {"name": "Vrbovo Posavsko", "country": "", "latitude": 45.6824889, "longitude": 16.2452278, "population": 152, "elevation": null, "source": "osm"}, {"name": "Drenčec", "country": "", "latitude": 45.8376412, "longitude": 16.2040602, "population": 136, "elevation": null, "source": "osm"}, {"name": "Veleševec", "country": "", "latitude": 45.6531899, "longitude": 16.2623047, "population": 430, "elevation": null, "source": "osm"}, {"name": "Stružec Posavski", "country": "", "latitude": 45.6644229, "longitude": 16.2515436, "population": 75, "elevation": null, "source": "osm"}, {"name": "Mala Kosnica", "country": "", "latitude": 45.7556437, "longitude": 16.0845684, "population": 49, "elevation": null, "source": "osm"}, {"name": "Petina", "country": "", "latitude": 45.7545113, "longitude": 16.0921765, "population": 213, "elevation": null, "source": "osm"}, {"name": "Selnica Šćitarjevska", "country": "", "latitude": 45.7501648, "longitude": 16.0974407, "population": 535, "elevation": null, "source": "osm"}, {"name": "Ruča", "country": "", "latitude": 45.6423939, "longitude": 16.2847691, "population": 223, "elevation": null, "source": "osm"}, {"name": "Suša", "country": "", "latitude": 45.6293858, "longitude": 16.286315, "population": 113, "elevation": null, "source": "osm"}, {"name": "Rakitovec", "country": "", "latitude": 45.657946, "longitude": 16.1409029, "population": 570, "elevation": null, "source": "osm"}, {"name": "Turopolje", "country": "", "latitude": 45.6491798, "longitude": 16.1402032, "population": 953, "elevation": null, "source": "osm"}, {"name": "Vukovec", "country": "", "latitude": 46.1063863, "longitude": 16.4191809, "population": 101, "elevation": null, "source": "osm"}, {"name": "Popovec Kalnički", "country": "", "latitude": 46.1109511, "longitude": 16.4331905, "population": 98, "elevation": null, "source": "osm"}, {"name": "Okuje", "country": "", "latitude": 45.6751794, "longitude": 16.069032, "population": 467, "elevation": null, "source": "osm"}, {"name": "Mraclin", "country": "", "latitude": 45.6667778, "longitude": 16.0967312, "population": 1074, "elevation": null, "source": "osm"}, {"name": "Lonjica", "country": "", "latitude": 45.8570797, "longitude": 16.3235965, "population": 1020, "elevation": null, "source": "osm"}, {"name": "Planina Gornja", "country": "", "latitude": 45.9384017, "longitude": 16.0794954, "population": 201, "elevation": null, "source": "osm"}, {"name": "Planina Donja", "country": "", "latitude": 45.9272658, "longitude": 16.0879858, "population": 492, "elevation": null, "source": "osm"}, {"name": "Donje Dvorišće", "country": "", "latitude": 45.8238294, "longitude": 16.2758953, "population": 188, "elevation": null, "source": "osm"}, {"name": "Gornje Dvorišće", "country": "", "latitude": 45.8275376, "longitude": 16.2823541, "population": 66, "elevation": null, "source": "osm"}, {"name": "Kravarsko", "country": "", "latitude": 45.5859672, "longitude": 16.0477669, "population": 557, "elevation": null, "source": "osm"}, {"name": "Velika Buna", "country": "", "latitude": 45.6357327, "longitude": 16.0599251, "population": 856, "elevation": null, "source": "osm"}, {"name": "Hudi Bitek", "country": "", "latitude": 45.709719, "longitude": 15.8958866, "population": 464, "elevation": null, "source": "osm"}, {"name": "Strmec Bukevski", "country": "", "latitude": 45.7455485, "longitude": 16.1640607, "population": 366, "elevation": null, "source": "osm"}, {"name": "Zablatje Posavsko", "country": "", "latitude": 45.7430651, "longitude": 16.1860742, "population": 61, "elevation": null, "source": "osm"}, {"name": "Sop Bukevski", "country": "", "latitude": 45.7416284, "longitude": 16.2143963, "population": 85, "elevation": null, "source": "osm"}, {"name": "Donji Vukojevac", "country": "", "latitude": 45.6082969, "longitude": 16.1317962, "population": 499, "elevation": null, "source": "osm"}, {"name": "Ogulinec", "country": "", "latitude": 45.6217226, "longitude": 16.1266344, "population": 292, "elevation": null, "source": "osm"}, {"name": "Slatina Pokupska", "country": "", "latitude": 45.477478, "longitude": 16.015618, "population": 88, "elevation": null, "source": "osm"}, {"name": "Donje Taborište", "country": "", "latitude": 45.4497785, "longitude": 16.004139, "population": 28, "elevation": null, "source": "osm"}, {"name": "Žažina", "country": "", "latitude": 45.5136849, "longitude": 16.2501045, "population": 355, "elevation": null, "source": "osm"}, {"name": "Dužica", "country": "", "latitude": 45.5381486, "longitude": 16.236454, "population": 353, "elevation": null, "source": "osm"}, {"name": "Lekenik", "country": "", "latitude": 45.5842704, "longitude": 16.2106191, "population": 1897, "elevation": null, "source": "osm"}, {"name": "Odra Sisačka", "country": "", "latitude": 45.5004645, "longitude": 16.3408714, "population": 823, "elevation": null, "source": "osm"}, {"name": "Stupno", "country": "", "latitude": 45.5042021, "longitude": 16.3246741, "population": 484, "elevation": null, "source": "osm"}, {"name": "Sela", "country": "", "latitude": 45.5084333, "longitude": 16.3019739, "population": 963, "elevation": null, "source": "osm"}, {"name": "Hrebinec", "country": "", "latitude": 45.8448491, "longitude": 16.2636164, "population": 242, "elevation": null, "source": "osm"}, {"name": "Donja Greda", "country": "", "latitude": 45.7586412, "longitude": 16.2766329, "population": 117, "elevation": null, "source": "osm"}, {"name": "Črnec Rugvički", "country": "", "latitude": 45.7606472, "longitude": 16.2577609, "population": 96, "elevation": null, "source": "osm"}, {"name": "Dubranec", "country": "", "latitude": 45.6122415, "longitude": 15.9652803, "population": 349, "elevation": null, "source": "osm"}, {"name": "Lukinić Brdo", "country": "", "latitude": 45.544497, "longitude": 15.938345, "population": 343, "elevation": null, "source": "osm"}, {"name": "Desno Trebarjevo", "country": "", "latitude": 45.5922178, "longitude": 16.3470423, "population": 334, "elevation": null, "source": "osm"}, {"name": "Šiljakovina", "country": "", "latitude": 45.6337476, "longitude": 16.0228458, "population": 672, "elevation": null, "source": "osm"}, {"name": "Brebernica", "country": "", "latitude": 45.6673289, "longitude": 15.8902916, "population": 44, "elevation": null, "source": "osm"}, {"name": "Donji Trpuci", "country": "", "latitude": 45.664907, "longitude": 15.9217868, "population": 446, "elevation": null, "source": "osm"}, {"name": "Donji Dragonožec", "country": "", "latitude": 45.6610681, "longitude": 15.9471656, "population": 583, "elevation": null, "source": "osm"}, {"name": "Markuševec Turopoljski", "country": "", "latitude": 45.6589484, "longitude": 15.9652693, "population": 328, "elevation": null, "source": "osm"}, {"name": "Gornji Dragonožec", "country": "", "latitude": 45.6483982, "longitude": 15.9368729, "population": 308, "elevation": null, "source": "osm"}, {"name": "Kozjača", "country": "", "latitude": 45.6070855, "longitude": 16.0055627, "population": 342, "elevation": null, "source": "osm"}, {"name": "Novo Brdo", "country": "", "latitude": 45.5863564, "longitude": 16.0228921, "population": 77, "elevation": null, "source": "osm"}, {"name": "Sela Ravenska", "country": "", "latitude": 46.0227476, "longitude": 16.4368327, "population": 70, "elevation": null, "source": "osm"}, {"name": "Kučari", "country": "", "latitude": 46.0106142, "longitude": 16.4466241, "population": 31, "elevation": null, "source": "osm"}, {"name": "Srednji Dubovec", "country": "", "latitude": 46.0132013, "longitude": 16.455147, "population": 93, "elevation": null, "source": "osm"}, {"name": "Donji Dubovec", "country": "", "latitude": 46.0009324, "longitude": 16.4622967, "population": 34, "elevation": null, "source": "osm"}, {"name": "Strelečko", "country": "", "latitude": 45.5191373, "longitude": 16.39334, "population": 537, "elevation": null, "source": "osm"}, {"name": "Kraljev Vrh", "country": "", "latitude": 45.9802419, "longitude": 16.3973594, "population": 0, "elevation": null, "source": "osm"}, {"name": "Gornji Tkalec", "country": "", "latitude": 45.9705265, "longitude": 16.4497054, "population": 185, "elevation": null, "source": "osm"}, {"name": "Preseka", "country": "", "latitude": 45.975415, "longitude": 16.3872226, "population": 104, "elevation": null, "source": "osm"}, {"name": "Celine", "country": "", "latitude": 45.8916188, "longitude": 16.4048813, "population": 0, "elevation": null, "source": "osm"}, {"name": "Topolovec", "country": "", "latitude": 45.9079207, "longitude": 16.4028525, "population": 133, "elevation": null, "source": "osm"}, {"name": "Lukovo", "country": "", "latitude": 45.9201176, "longitude": 16.4041641, "population": 184, "elevation": null, "source": "osm"}, {"name": "Pogančec", "country": "", "latitude": 45.9455926, "longitude": 16.3865448, "population": 125, "elevation": null, "source": "osm"}, {"name": "Lovrečka Velika", "country": "", "latitude": 45.9307463, "longitude": 16.4287263, "population": 198, "elevation": null, "source": "osm"}, {"name": "Žunci", "country": "", "latitude": 45.9568877, "longitude": 16.4242631, "population": 167, "elevation": null, "source": "osm"}, {"name": "Donja Velika", "country": "", "latitude": 45.9682237, "longitude": 16.4292413, "population": 68, "elevation": null, "source": "osm"}, {"name": "Podolec", "country": "", "latitude": 45.918817, "longitude": 16.442574, "population": 96, "elevation": null, "source": "osm"}, {"name": "Gornja Velika", "country": "", "latitude": 45.9979452, "longitude": 16.4161311, "population": 62, "elevation": null, "source": "osm"}, {"name": "Srednja Velika", "country": "", "latitude": 45.9890603, "longitude": 16.4290185, "population": 58, "elevation": null, "source": "osm"}, {"name": "Pavlovec Ravenski", "country": "", "latitude": 45.9980943, "longitude": 16.4496822, "population": 101, "elevation": null, "source": "osm"}, {"name": "Šćitarjevo", "country": "", "latitude": 45.7688858, "longitude": 16.1170565, "population": 442, "elevation": null, "source": "osm"}, {"name": "Novi Golubovec", "country": "", "latitude": 46.1726132, "longitude": 15.9854354, "population": 217, "elevation": null, "source": "osm"}, {"name": "Soblinec", "country": "", "latitude": 45.8643286, "longitude": 16.1541702, "population": 970, "elevation": null, "source": "osm"}, {"name": "Šašinovec", "country": "", "latitude": 45.8505596, "longitude": 16.1655408, "population": 772, "elevation": null, "source": "osm"}, {"name": "Paukovec", "country": "", "latitude": 45.8912, "longitude": 16.2180238, "population": 342, "elevation": null, "source": "osm"}, {"name": "Banje Selo", "country": "", "latitude": 45.85238, "longitude": 16.2502568, "population": 106, "elevation": null, "source": "osm"}, {"name": "Novo Mjesto", "country": "", "latitude": 45.9534304, "longitude": 16.2891326, "population": 147, "elevation": null, "source": "osm"}, {"name": "Polonje", "country": "", "latitude": 45.9682154, "longitude": 16.2894638, "population": 344, "elevation": null, "source": "osm"}, {"name": "Odranski Obrež", "country": "", "latitude": 45.7159096, "longitude": 15.9417396, "population": 1503, "elevation": null, "source": "osm"}, {"name": "Lijevo Sredičko", "country": "", "latitude": 45.5338877, "longitude": 15.8848285, "population": 196, "elevation": null, "source": "osm"}, {"name": "Barbarići Kravarski", "country": "", "latitude": 45.6035209, "longitude": 16.0835107, "population": 202, "elevation": null, "source": "osm"}, {"name": "Dropkovec", "country": "", "latitude": 46.1026259, "longitude": 16.4114361, "population": 172, "elevation": null, "source": "osm"}, {"name": "Fajerovec", "country": "", "latitude": 46.0836775, "longitude": 16.3986658, "population": 76, "elevation": null, "source": "osm"}, {"name": "Donja Rijeka", "country": "", "latitude": 46.0909729, "longitude": 16.3900074, "population": 218, "elevation": null, "source": "osm"}, {"name": "Gornji Kuršanec", "country": "", "latitude": 46.3298681, "longitude": 16.3621336, "population": 793, "elevation": null, "source": "osm"}, {"name": "Pušćine", "country": "", "latitude": 46.3467802, "longitude": 16.3607861, "population": 1289, "elevation": null, "source": "osm"}, {"name": "Štefanec", "country": "", "latitude": 46.303136, "longitude": 16.4579003, "population": 412, "elevation": null, "source": "osm"}, {"name": "Bartolovec", "country": "", "latitude": 46.2970896, "longitude": 16.4351454, "population": 749, "elevation": null, "source": "osm"}, {"name": "Žerjavinec", "country": "", "latitude": 45.8688625, "longitude": 16.1650186, "population": 526, "elevation": null, "source": "osm"}, {"name": "Veliki Brezovec", "country": "", "latitude": 45.9308642, "longitude": 16.467828, "population": 189, "elevation": null, "source": "osm"}, {"name": "Mali Brezovec", "country": "", "latitude": 45.9216999, "longitude": 16.4679353, "population": 77, "elevation": null, "source": "osm"}, {"name": "Štrucljevo", "country": "", "latitude": 46.0566093, "longitude": 15.908845, "population": 365, "elevation": null, "source": "osm"}, {"name": "Pustodol Začretski", "country": "", "latitude": 46.0655691, "longitude": 15.9069895, "population": 231, "elevation": null, "source": "osm"}, {"name": "Zleć", "country": "", "latitude": 46.0597375, "longitude": 15.9017844, "population": 150, "elevation": null, "source": "osm"}, {"name": "Sveti Križ Začretje", "country": "", "latitude": 46.0800162, "longitude": 15.9067264, "population": 897, "elevation": null, "source": "osm"}, {"name": "Ciglenica Zagorska", "country": "", "latitude": 46.0745286, "longitude": 15.919958, "population": 620, "elevation": null, "source": "osm"}, {"name": "Kuzminec", "country": "", "latitude": 46.1577353, "longitude": 15.9628378, "population": 424, "elevation": null, "source": "osm"}, {"name": "Donja Šemnica", "country": "", "latitude": 46.121995, "longitude": 15.9355556, "population": 912, "elevation": null, "source": "osm"}, {"name": "Gornja Šemnica", "country": "", "latitude": 46.155582, "longitude": 15.9421693, "population": 627, "elevation": null, "source": "osm"}, {"name": "Kozjak Začretski", "country": "", "latitude": 46.0930468, "longitude": 15.9240392, "population": 234, "elevation": null, "source": "osm"}, {"name": "Galovec Začretski", "country": "", "latitude": 46.111074, "longitude": 15.8950446, "population": 290, "elevation": null, "source": "osm"}, {"name": "Vrankovec", "country": "", "latitude": 46.0926169, "longitude": 15.9112101, "population": 239, "elevation": null, "source": "osm"}, {"name": "Očura", "country": "", "latitude": 46.2003052, "longitude": 16.0156416, "population": 188, "elevation": null, "source": "osm"}, {"name": "Kaniža", "country": "", "latitude": 46.2209521, "longitude": 16.0886594, "population": 287, "elevation": null, "source": "osm"}, {"name": "Jerovec", "country": "", "latitude": 46.2383368, "longitude": 16.1107851, "population": 827, "elevation": null, "source": "osm"}, {"name": "Ribić Breg", "country": "", "latitude": 46.2466278, "longitude": 16.1270259, "population": 145, "elevation": null, "source": "osm"}, {"name": "Horvatsko", "country": "", "latitude": 46.250556, "longitude": 16.1185451, "population": 173, "elevation": null, "source": "osm"}, {"name": "Goruševnjak", "country": "", "latitude": 46.3306092, "longitude": 16.1180929, "population": 74, "elevation": null, "source": "osm"}, {"name": "Donja Voća", "country": "", "latitude": 46.2981593, "longitude": 16.1118525, "population": 1059, "elevation": null, "source": "osm"}, {"name": "Vinica", "country": "", "latitude": 46.3399991, "longitude": 16.1525126, "population": 1075, "elevation": null, "source": "osm"}, {"name": "Mihovljan", "country": "", "latitude": 46.4049714, "longitude": 16.4469363, "population": 1380, "elevation": null, "source": "osm"}, {"name": "Gornji Hrašćan", "country": "", "latitude": 46.3770333, "longitude": 16.34907, "population": 910, "elevation": null, "source": "osm"}, {"name": "Črečan", "country": "", "latitude": 46.3941873, "longitude": 16.3430803, "population": 434, "elevation": null, "source": "osm"}, {"name": "Slakovec", "country": "", "latitude": 46.405001, "longitude": 16.3728859, "population": 559, "elevation": null, "source": "osm"}, {"name": "Belec", "country": "", "latitude": 46.131774, "longitude": 16.1205009, "population": 356, "elevation": null, "source": "osm"}, {"name": "Gornja Selnica", "country": "", "latitude": 46.1455346, "longitude": 16.135768, "population": 201, "elevation": null, "source": "osm"}, {"name": "Macinec", "country": "", "latitude": 46.3902262, "longitude": 16.3240248, "population": 585, "elevation": null, "source": "osm"}, {"name": "Dunjkovec", "country": "", "latitude": 46.3903891, "longitude": 16.3759477, "population": 967, "elevation": null, "source": "osm"}, {"name": "Badličan", "country": "", "latitude": 46.4235269, "longitude": 16.2804007, "population": 96, "elevation": null, "source": "osm"}, {"name": "Preseka", "country": "HR", "latitude": 46.4210742, "longitude": 16.2773739, "population": 67, "elevation": null, "source": "osm"}, {"name": "Pretetinec", "country": "", "latitude": 46.392624, "longitude": 16.3692434, "population": 541, "elevation": null, "source": "osm"}, {"name": "Gornji Mihaljevec", "country": "", "latitude": 46.4300122, "longitude": 16.3232448, "population": 283, "elevation": null, "source": "osm"}, {"name": "Bogdanovec", "country": "", "latitude": 46.4246251, "longitude": 16.3148452, "population": 136, "elevation": null, "source": "osm"}, {"name": "Blaguša", "country": "", "latitude": 45.9296834, "longitude": 16.1304378, "population": 524, "elevation": null, "source": "osm"}, {"name": "Belovar", "country": "", "latitude": 45.882748, "longitude": 16.1760968, "population": 354, "elevation": null, "source": "osm"}, {"name": "Adamovec", "country": "", "latitude": 45.9044495, "longitude": 16.1633161, "population": 900, "elevation": null, "source": "osm"}, {"name": "Brezovica", "country": "", "latitude": 45.7277707, "longitude": 15.9100676, "population": 642, "elevation": null, "source": "osm"}, {"name": "Budenec", "country": "", "latitude": 45.8360585, "longitude": 16.1752787, "population": 367, "elevation": null, "source": "osm"}, {"name": "Desprim", "country": "", "latitude": 45.7273404, "longitude": 15.9011178, "population": 343, "elevation": null, "source": "osm"}, {"name": "Dobrodol", "country": "", "latitude": 45.8602326, "longitude": 16.0982392, "population": 1165, "elevation": null, "source": "osm"}, {"name": "Drežnik Brezovički", "country": "", "latitude": 45.7229688, "longitude": 15.8964924, "population": 692, "elevation": null, "source": "osm"}, {"name": "Gajec", "country": "", "latitude": 45.882395, "longitude": 16.1418524, "population": 327, "elevation": null, "source": "osm"}, {"name": "Glavnica Gornja", "country": "", "latitude": 45.9315133, "longitude": 16.1417444, "population": 227, "elevation": null, "source": "osm"}, {"name": "Glavnica Donja", "country": "", "latitude": 45.9394273, "longitude": 16.1427946, "population": 506, "elevation": null, "source": "osm"}, {"name": "Glavničica", "country": "", "latitude": 45.8480282, "longitude": 16.2137256, "population": 213, "elevation": null, "source": "osm"}, {"name": "Goranec", "country": "", "latitude": 45.8971186, "longitude": 16.0787646, "population": 297, "elevation": null, "source": "osm"}, {"name": "Gornji Trpuci", "country": "", "latitude": 45.6431708, "longitude": 15.9075865, "population": 96, "elevation": null, "source": "osm"}, {"name": "Grančari", "country": "", "latitude": 45.7037048, "longitude": 15.8928445, "population": 254, "elevation": null, "source": "osm"}, {"name": "Havidić Selo", "country": "", "latitude": 45.6254517, "longitude": 15.9343195, "population": 63, "elevation": null, "source": "osm"}, {"name": "Ivanja Reka", "country": "", "latitude": 45.7991745, "longitude": 16.1177143, "population": 1753, "elevation": null, "source": "osm"}, {"name": "Jesenovec", "country": "", "latitude": 45.9191269, "longitude": 16.1428838, "population": 398, "elevation": null, "source": "osm"}, {"name": "Kašina", "country": "", "latitude": 45.9096473, "longitude": 16.1244822, "population": 1402, "elevation": null, "source": "osm"}, {"name": "Kašinska Sopnica", "country": "", "latitude": 45.9130334, "longitude": 16.1044724, "population": 187, "elevation": null, "source": "osm"}, {"name": "Kučilovina", "country": "", "latitude": 45.9109021, "longitude": 16.0931486, "population": 212, "elevation": null, "source": "osm"}, {"name": "Lipnica", "country": "", "latitude": 45.6305696, "longitude": 15.9220543, "population": 221, "elevation": null, "source": "osm"}, {"name": "Markovo Polje", "country": "", "latitude": 45.8653318, "longitude": 16.1151254, "population": 447, "elevation": null, "source": "osm"}, {"name": "Moravče", "country": "", "latitude": 45.9367991, "longitude": 16.167812, "population": 602, "elevation": null, "source": "osm"}, {"name": "Paruževina", "country": "", "latitude": 45.8871534, "longitude": 16.1286934, "population": 702, "elevation": null, "source": "osm"}, {"name": "Popovec", "country": "", "latitude": 45.8498371, "longitude": 16.1396168, "population": 954, "elevation": null, "source": "osm"}, {"name": "Prekvršje", "country": "", "latitude": 45.8989785, "longitude": 16.1115673, "population": 874, "elevation": null, "source": "osm"}, {"name": "Prepuštovec", "country": "", "latitude": 45.8969236, "longitude": 16.1337767, "population": 284, "elevation": null, "source": "osm"}, {"name": "Strmec", "country": "", "latitude": 45.7101155, "longitude": 15.9181323, "population": 585, "elevation": null, "source": "osm"}, {"name": "Šimunčevec", "country": "", "latitude": 45.8779244, "longitude": 16.0923153, "population": 298, "elevation": null, "source": "osm"}, {"name": "Vugrovec", "country": "", "latitude": 45.8814373, "longitude": 16.1087226, "population": 920, "elevation": null, "source": "osm"}, {"name": "Vurnovec", "country": "", "latitude": 45.8886646, "longitude": 16.1366229, "population": 192, "elevation": null, "source": "osm"}, {"name": "Zadvorsko", "country": "", "latitude": 45.7178353, "longitude": 15.907847, "population": 1260, "elevation": null, "source": "osm"}, {"name": "Gustelnica", "country": "", "latitude": 45.6058084, "longitude": 15.9773277, "population": 118, "elevation": null, "source": "osm"}, {"name": "Brezje", "country": "", "latitude": 46.4167628, "longitude": 16.3942577, "population": 752, "elevation": null, "source": "osm"}, {"name": "Trnovec", "country": "", "latitude": 46.3824617, "longitude": 16.3111314, "population": 390, "elevation": null, "source": "osm"}, {"name": "Novo Selo na Dravi", "country": "", "latitude": 46.3306991, "longitude": 16.4324775, "population": 634, "elevation": null, "source": "osm"}, {"name": "Šandorovec", "country": "", "latitude": 46.3307028, "longitude": 16.4147006, "population": 335, "elevation": null, "source": "osm"}, {"name": "Kuršanec", "country": "", "latitude": 46.3300263, "longitude": 16.3998796, "population": 1584, "elevation": null, "source": "osm"}, {"name": "Ključić Brdo", "country": "", "latitude": 45.6206603, "longitude": 16.0423288, "population": 214, "elevation": null, "source": "osm"}, {"name": "Gudci", "country": "", "latitude": 45.657997, "longitude": 15.9845734, "population": 374, "elevation": null, "source": "osm"}, {"name": "Čakanec", "country": "", "latitude": 45.5836368, "longitude": 15.9976046, "population": 68, "elevation": null, "source": "osm"}, {"name": "Podevčevo", "country": "", "latitude": 46.2100283, "longitude": 16.294275, "population": 737, "elevation": null, "source": "osm"}, {"name": "Trnovec", "country": "", "latitude": 46.2942784, "longitude": 16.3992728, "population": 4185, "elevation": null, "source": "osm"}, {"name": "Strahoninec", "country": "", "latitude": 46.3716848, "longitude": 16.4150213, "population": 2682, "elevation": 164.0, "source": "osm"}, {"name": "Savska Ves", "country": "", "latitude": 46.3725805, "longitude": 16.42678, "population": 1217, "elevation": null, "source": "osm"}, {"name": "Parag", "country": "", "latitude": 46.3773662, "longitude": 16.3124599, "population": 1187, "elevation": null, "source": "osm"}, {"name": "Dragoslavec Selo", "country": "", "latitude": 46.4263542, "longitude": 16.3433704, "population": 214, "elevation": null, "source": "osm"}, {"name": "Šenkovec", "country": "", "latitude": 46.4036547, "longitude": 16.4199505, "population": 2466, "elevation": 173.0, "source": "osm"}, {"name": "Mačkovec", "country": "", "latitude": 46.4212745, "longitude": 16.4321305, "population": 1326, "elevation": null, "source": "osm"}, {"name": "Totovec", "country": "", "latitude": 46.3392148, "longitude": 16.4415659, "population": 534, "elevation": null, "source": "osm"}, {"name": "Naselje Stjepana Radića", "country": "", "latitude": 45.8704375, "longitude": 16.4265295, "population": 246, "elevation": null, "source": "osm"}, {"name": "Brčevec", "country": "", "latitude": 45.8663641, "longitude": 16.4127097, "population": 546, "elevation": null, "source": "osm"}, {"name": "Novo Selo", "country": "", "latitude": 45.8642385, "longitude": 16.388694, "population": 123, "elevation": null, "source": "osm"}, {"name": "Prilesje", "country": "", "latitude": 45.8586483, "longitude": 16.4219004, "population": 181, "elevation": null, "source": "osm"}, {"name": "Martinska Ves", "country": "", "latitude": 45.8805927, "longitude": 16.3975499, "population": 506, "elevation": null, "source": "osm"}, {"name": "Poljanski Lug", "country": "", "latitude": 45.8256902, "longitude": 16.4200169, "population": 0, "elevation": null, "source": "osm"}, {"name": "Savska Cesta", "country": "", "latitude": 45.867978, "longitude": 16.4235385, "population": 162, "elevation": null, "source": "osm"}, {"name": "Poljana", "country": "", "latitude": 45.847406, "longitude": 16.4411653, "population": 423, "elevation": null, "source": "osm"}, {"name": "Tomaševec", "country": "", "latitude": 45.9975986, "longitude": 16.2971105, "population": 198, "elevation": null, "source": "osm"}, {"name": "Keleminovec", "country": "", "latitude": 45.9870356, "longitude": 16.294849, "population": 116, "elevation": null, "source": "osm"}, {"name": "Cerik", "country": "", "latitude": 45.9278755, "longitude": 16.4091332, "population": 48, "elevation": null, "source": "osm"}, {"name": "Hruškovica", "country": "", "latitude": 45.9420992, "longitude": 16.4091168, "population": 71, "elevation": null, "source": "osm"}, {"name": "Marenić", "country": "", "latitude": 45.914663, "longitude": 16.4117099, "population": 58, "elevation": null, "source": "osm"}, {"name": "Cerje", "country": "", "latitude": 45.8973878, "longitude": 16.4154322, "population": 217, "elevation": null, "source": "osm"}, {"name": "Lovrečka Varoš", "country": "", "latitude": 45.909375, "longitude": 16.422388, "population": 157, "elevation": null, "source": "osm"}, {"name": "Gornji Vinkovec", "country": "", "latitude": 45.9868597, "longitude": 16.3392638, "population": 66, "elevation": null, "source": "osm"}, {"name": "Salnik", "country": "", "latitude": 45.9774819, "longitude": 16.3380324, "population": 72, "elevation": null, "source": "osm"}, {"name": "Zrinšćina", "country": "", "latitude": 46.0051932, "longitude": 16.3424618, "population": 126, "elevation": null, "source": "osm"}, {"name": "Donje Makojišće", "country": "", "latitude": 46.1476257, "longitude": 16.2967156, "population": 526, "elevation": null, "source": "osm"}, {"name": "Lučelnica", "country": "", "latitude": 45.5936967, "longitude": 15.9245536, "population": 298, "elevation": null, "source": "osm"}, {"name": "Strmec Stubički", "country": "", "latitude": 45.9672407, "longitude": 15.9167597, "population": 763, "elevation": null, "source": "osm"}, {"name": "Pila", "country": "", "latitude": 45.9495491, "longitude": 15.9326952, "population": 175, "elevation": null, "source": "osm"}, {"name": "Pustike", "country": "", "latitude": 45.5934164, "longitude": 16.0762427, "population": 158, "elevation": null, "source": "osm"}, {"name": "Žitkovčica", "country": "", "latitude": 45.5983004, "longitude": 16.0230062, "population": 39, "elevation": null, "source": "osm"}, {"name": "Lipnica", "country": "", "latitude": 45.9361144, "longitude": 16.3636414, "population": 61, "elevation": null, "source": "osm"}, {"name": "Gornji Dubovec", "country": "", "latitude": 46.0090281, "longitude": 16.4400479, "population": 8, "elevation": null, "source": "osm"}, {"name": "Gornji Vukojevac", "country": "", "latitude": 45.6000023, "longitude": 16.1072275, "population": 67, "elevation": null, "source": "osm"}, {"name": "Oborovo", "country": "", "latitude": 45.6803282, "longitude": 16.2546979, "population": 662, "elevation": null, "source": "osm"}, {"name": "Prevlaka", "country": "", "latitude": 45.6695219, "longitude": 16.2722379, "population": 98, "elevation": null, "source": "osm"}, {"name": "Pokupsko", "country": "", "latitude": 45.4852572, "longitude": 15.9919061, "population": 235, "elevation": null, "source": "osm"}, {"name": "Gladovec Pokupski", "country": "", "latitude": 45.5029782, "longitude": 15.9991327, "population": 152, "elevation": null, "source": "osm"}, {"name": "Hotnja", "country": "", "latitude": 45.5102924, "longitude": 16.0521927, "population": 236, "elevation": null, "source": "osm"}, {"name": "Majerje", "country": "", "latitude": 46.3411535, "longitude": 16.2463419, "population": 757, "elevation": null, "source": "osm"}, {"name": "Petrijanec", "country": "", "latitude": 46.3479673, "longitude": 16.2248414, "population": 1429, "elevation": null, "source": "osm"}, {"name": "Svibovec Podravski", "country": "", "latitude": 46.3534178, "longitude": 16.2811034, "population": 945, "elevation": null, "source": "osm"}, {"name": "Nova Ves Petrijanečka", "country": "", "latitude": 46.3199364, "longitude": 16.2306778, "population": 895, "elevation": null, "source": "osm"}, {"name": "Družbinec", "country": "", "latitude": 46.3553135, "longitude": 16.2206357, "population": 544, "elevation": null, "source": "osm"}, {"name": "Strmec Podravski", "country": "", "latitude": 46.3626579, "longitude": 16.1822399, "population": 663, "elevation": null, "source": "osm"}, {"name": "Donje Ladanje", "country": "", "latitude": 46.3010236, "longitude": 16.1697381, "population": 1166, "elevation": null, "source": "osm"}, {"name": "Koretinec", "country": "", "latitude": 46.2956273, "longitude": 16.1802952, "population": 369, "elevation": null, "source": "osm"}, {"name": "Biljevec", "country": "", "latitude": 46.2866717, "longitude": 16.1978047, "population": 258, "elevation": null, "source": "osm"}, {"name": "Kapelec", "country": "", "latitude": 46.2904083, "longitude": 16.1913674, "population": 106, "elevation": null, "source": "osm"}, {"name": "Maruševec", "country": "", "latitude": 46.2807993, "longitude": 16.183986, "population": 460, "elevation": null, "source": "osm"}, {"name": "Zelendvor", "country": "", "latitude": 46.3326795, "longitude": 16.2067311, "population": 129, "elevation": null, "source": "osm"}, {"name": "Gornje Ladanje", "country": "", "latitude": 46.3160239, "longitude": 16.1572926, "population": 949, "elevation": null, "source": "osm"}, {"name": "Čalinec", "country": "", "latitude": 46.2890601, "longitude": 16.1806256, "population": 572, "elevation": null, "source": "osm"}, {"name": "Marčan", "country": "", "latitude": 46.3313541, "longitude": 16.1505918, "population": 598, "elevation": null, "source": "osm"}, {"name": "Donje Vratno", "country": "", "latitude": 46.3518664, "longitude": 16.1555363, "population": 289, "elevation": null, "source": "osm"}, {"name": "Gornje Vratno", "country": "", "latitude": 46.3607632, "longitude": 16.1402981, "population": 1301, "elevation": null, "source": "osm"}, {"name": "Radovec", "country": "", "latitude": 46.3624692, "longitude": 16.1304001, "population": 336, "elevation": null, "source": "osm"}, {"name": "Cestica", "country": "", "latitude": 46.37204, "longitude": 16.1292002, "population": 504, "elevation": null, "source": "osm"}, {"name": "Križovljan Radovečki", "country": "", "latitude": 46.3674985, "longitude": 16.1262983, "population": 253, "elevation": null, "source": "osm"}, {"name": "Natkrižovljan", "country": "", "latitude": 46.3572091, "longitude": 16.126179, "population": 291, "elevation": null, "source": "osm"}, {"name": "Brezje Dravsko", "country": "", "latitude": 46.3748292, "longitude": 16.0949795, "population": 209, "elevation": null, "source": "osm"}, {"name": "Babinec", "country": "", "latitude": 46.3718386, "longitude": 16.109442, "population": 575, "elevation": null, "source": "osm"}, {"name": "Veliki Lovrečan", "country": "", "latitude": 46.3778672, "longitude": 16.0799848, "population": 337, "elevation": null, "source": "osm"}, {"name": "Hrastovec", "country": "", "latitude": 46.3756476, "longitude": 16.052827, "population": 0, "elevation": null, "source": "osm"}, {"name": "Dubrava Križovljanska", "country": "", "latitude": 46.3819941, "longitude": 16.0558407, "population": 267, "elevation": null, "source": "osm"}, {"name": "Otok Virje", "country": "", "latitude": 46.4010293, "longitude": 16.1477665, "population": 251, "elevation": null, "source": "osm"}, {"name": "Virje Križovljansko", "country": "", "latitude": 46.3822606, "longitude": 16.1401694, "population": 270, "elevation": null, "source": "osm"}, {"name": "Radovec Polje", "country": "", "latitude": 46.3757175, "longitude": 16.1450188, "population": 144, "elevation": null, "source": "osm"}, {"name": "Falinić Breg", "country": "", "latitude": 46.3677302, "longitude": 16.1016737, "population": 100, "elevation": null, "source": "osm"}, {"name": "Mali Lovrečan", "country": "", "latitude": 46.3651538, "longitude": 16.0794864, "population": 65, "elevation": null, "source": "osm"}, {"name": "Kolarovec", "country": "", "latitude": 46.3712836, "longitude": 16.0984121, "population": 249, "elevation": null, "source": "osm"}, {"name": "Vratno Otok", "country": "", "latitude": 46.3835426, "longitude": 16.1614876, "population": 65, "elevation": null, "source": "osm"}, {"name": "Bogačevo", "country": "", "latitude": 46.0832919, "longitude": 16.4272915, "population": 84, "elevation": null, "source": "osm"}, {"name": "Bogačevo Riječko", "country": "", "latitude": 46.0852529, "longitude": 16.4206833, "population": 71, "elevation": null, "source": "osm"}, {"name": "Doljanec", "country": "", "latitude": 45.9908688, "longitude": 16.4493156, "population": 53, "elevation": null, "source": "osm"}, {"name": "Gornji Fodrovec", "country": "", "latitude": 46.0444716, "longitude": 16.39578, "population": 172, "elevation": null, "source": "osm"}, {"name": "Trnje", "country": "", "latitude": 45.7613164, "longitude": 16.141251, "population": 62, "elevation": null, "source": "osm"}, {"name": "Sasi", "country": "", "latitude": 45.7823268, "longitude": 16.1082484, "population": 159, "elevation": null, "source": "osm"}, {"name": "Drenje Šćitarjevsko", "country": "", "latitude": 45.778565, "longitude": 16.1247762, "population": 203, "elevation": null, "source": "osm"}, {"name": "Vukšinec Riječki", "country": "", "latitude": 46.0891935, "longitude": 16.3635273, "population": 79, "elevation": null, "source": "osm"}, {"name": "Ljubelj Kalnički", "country": "", "latitude": 46.1616968, "longitude": 16.4631744, "population": 144, "elevation": null, "source": "osm"}, {"name": "Lijevi Dubrovčak", "country": "", "latitude": 45.6484393, "longitude": 16.3410549, "population": 351, "elevation": null, "source": "osm"}, {"name": "Desni Dubrovčak", "country": "", "latitude": 45.6448808, "longitude": 16.341346, "population": 115, "elevation": null, "source": "osm"}, {"name": "Rugvica", "country": "", "latitude": 45.7439468, "longitude": 16.232906, "population": 722, "elevation": null, "source": "osm"}, {"name": "Dragošička", "country": "", "latitude": 45.7593153, "longitude": 16.2186065, "population": 387, "elevation": null, "source": "osm"}, {"name": "Novaki Oborovski", "country": "", "latitude": 45.7251493, "longitude": 16.2156031, "population": 305, "elevation": null, "source": "osm"}, {"name": "Okunšćak", "country": "", "latitude": 45.7529448, "longitude": 16.2133595, "population": 521, "elevation": null, "source": "osm"}, {"name": "Preseka Oborovska", "country": "", "latitude": 45.7102982, "longitude": 16.2314549, "population": 154, "elevation": null, "source": "osm"}, {"name": "Novaki Nartski", "country": "", "latitude": 45.7584134, "longitude": 16.1753522, "population": 68, "elevation": null, "source": "osm"}, {"name": "Nart Savski", "country": "", "latitude": 45.7567103, "longitude": 16.2014493, "population": 239, "elevation": null, "source": "osm"}, {"name": "Struga Nartska", "country": "", "latitude": 45.762329, "longitude": 16.1933279, "population": 551, "elevation": null, "source": "osm"}, {"name": "Sop", "country": "", "latitude": 45.7885889, "longitude": 16.1469452, "population": 404, "elevation": null, "source": "osm"}, {"name": "Hrušćica", "country": "", "latitude": 45.7906226, "longitude": 16.1353702, "population": 176, "elevation": null, "source": "osm"}, {"name": "Otok Nartski", "country": "", "latitude": 45.7686036, "longitude": 16.1633322, "population": 199, "elevation": null, "source": "osm"}, {"name": "Otok Svibovski", "country": "", "latitude": 45.7795198, "longitude": 16.1623554, "population": 270, "elevation": null, "source": "osm"}, {"name": "Trstenik Nartski", "country": "", "latitude": 45.7764462, "longitude": 16.1762068, "population": 560, "elevation": null, "source": "osm"}, {"name": "Ljubešćica", "country": "", "latitude": 46.1634187, "longitude": 16.3820098, "population": 1261, "elevation": null, "source": "osm"}, {"name": "Možđenec", "country": "", "latitude": 46.1501158, "longitude": 16.3514747, "population": 677, "elevation": null, "source": "osm"}, {"name": "Barlabaševec", "country": "", "latitude": 46.0788155, "longitude": 16.4097117, "population": 19, "elevation": null, "source": "osm"}, {"name": "Lukačevec", "country": "", "latitude": 46.0766557, "longitude": 16.4171497, "population": 23, "elevation": null, "source": "osm"}, {"name": "Brežani", "country": "", "latitude": 46.0445584, "longitude": 16.436077, "population": 24, "elevation": null, "source": "osm"}, {"name": "Osluševci", "country": "", "latitude": 46.4097503, "longitude": 16.0442464, "population": 200, "elevation": 203.0, "source": "osm"}, {"name": "Formin", "country": "", "latitude": 46.4056566, "longitude": 16.0383932, "population": 367, "elevation": 205.0, "source": "osm"}, {"name": "Gorišnica", "country": "", "latitude": 46.4120335, "longitude": 16.0133821, "population": 738, "elevation": 210.0, "source": "osm"}, {"name": "Moškanjci", "country": "", "latitude": 46.4200993, "longitude": 15.9914719, "population": 0, "elevation": null, "source": "osm"}, {"name": "Mihovci pri Veliki Nedelji", "country": "", "latitude": 46.4162046, "longitude": 16.1112668, "population": 563, "elevation": 201.0, "source": "osm"}, {"name": "Trgovišče", "country": "", "latitude": 46.4142237, "longitude": 16.0946719, "population": 218, "elevation": 198.0, "source": "osm"}, {"name": "Cvetkovci", "country": "", "latitude": 46.4132063, "longitude": 16.065103, "population": 469, "elevation": 202.0, "source": "osm"}, {"name": "Mala vas", "country": "", "latitude": 46.3916924, "longitude": 16.0058051, "population": 247, "elevation": 208.9, "source": "osm"}, {"name": "Stojnci", "country": "", "latitude": 46.3796321, "longitude": 15.9750841, "population": 0, "elevation": null, "source": "osm"}, {"name": "Muretinci", "country": "", "latitude": 46.3840326, "longitude": 15.9939731, "population": 487, "elevation": 210.0, "source": "osm"}, {"name": "Bukovci", "country": "", "latitude": 46.3876118, "longitude": 15.9602202, "population": 973, "elevation": 216.0, "source": "osm"}, {"name": "Nova vas pri Markovcih", "country": "", "latitude": 46.384746, "longitude": 15.9362576, "population": 0, "elevation": null, "source": "osm"}, {"name": "Placerovci", "country": "", "latitude": 46.4016265, "longitude": 16.0275007, "population": 155, "elevation": 206.0, "source": "osm"}, {"name": "Gajevci", "country": "", "latitude": 46.3964168, "longitude": 16.014813, "population": 0, "elevation": null, "source": "osm"}, {"name": "Zbelava", "country": "", "latitude": 46.2817876, "longitude": 16.4037313, "population": 504, "elevation": null, "source": "osm"}, {"name": "Donji Kućan", "country": "", "latitude": 46.2827214, "longitude": 16.3899938, "population": 716, "elevation": null, "source": "osm"}, {"name": "Gornji Kućan", "country": "", "latitude": 46.2768283, "longitude": 16.3835354, "population": 1139, "elevation": null, "source": "osm"}, {"name": "Kućan Marof", "country": "", "latitude": 46.2894984, "longitude": 16.370944, "population": 1388, "elevation": null, "source": "osm"}, {"name": "Žabnik", "country": "", "latitude": 46.303901, "longitude": 16.4447041, "population": 177, "elevation": null, "source": "osm"}, {"name": "Imbriovec Jalžabetski", "country": "", "latitude": 46.2559625, "longitude": 16.4605881, "population": 329, "elevation": null, "source": "osm"}, {"name": "Jakopovec", "country": "", "latitude": 46.2456352, "longitude": 16.4116646, "population": 485, "elevation": null, "source": "osm"}, {"name": "Kaštelanec", "country": "", "latitude": 46.2543156, "longitude": 16.418338, "population": 411, "elevation": null, "source": "osm"}, {"name": "Kelemen", "country": "", "latitude": 46.2563185, "longitude": 16.4365126, "population": 584, "elevation": null, "source": "osm"}, {"name": "Leštakovec", "country": "", "latitude": 46.2545678, "longitude": 16.4467694, "population": 263, "elevation": null, "source": "osm"}, {"name": "Letovanić", "country": "", "latitude": 45.5078202, "longitude": 16.198922, "population": 464, "elevation": null, "source": "osm"}, {"name": "Vukomerić", "country": "", "latitude": 45.6155516, "longitude": 15.9485576, "population": 158, "elevation": null, "source": "osm"}, {"name": "Opatija", "country": "", "latitude": 45.5441702, "longitude": 15.9910957, "population": 144, "elevation": null, "source": "osm"}, {"name": "Tišina Kaptolska", "country": "", "latitude": 45.5256673, "longitude": 16.3776306, "population": 259, "elevation": null, "source": "osm"}, {"name": "Caginec", "country": "", "latitude": 45.7135214, "longitude": 16.4490931, "population": 555, "elevation": null, "source": "osm"}, {"name": "Derežani", "country": "", "latitude": 45.7027328, "longitude": 16.4573757, "population": 246, "elevation": null, "source": "osm"}, {"name": "Zagreb", "country": "", "latitude": 45.8130967, "longitude": 15.9772795, "population": 663592, "elevation": 158.0, "source": "osm"}, {"name": "Oroslavje", "country": "", "latitude": 45.9962496, "longitude": 15.9144491, "population": 3253, "elevation": null, "source": "osm"}, {"name": "Kraljev Vrh", "country": "", "latitude": 45.9424836, "longitude": 15.9080276, "population": 0, "elevation": null, "source": "osm"}, {"name": "Vrbovec", "country": "", "latitude": 45.8856479, "longitude": 16.4181159, "population": 4551, "elevation": null, "source": "osm"}, {"name": "Gornja Bistra", "country": "", "latitude": 45.9198183, "longitude": 15.8986398, "population": 1836, "elevation": null, "source": "osm"}, {"name": "Bunjak", "country": "", "latitude": 45.9455111, "longitude": 16.1929714, "population": 133, "elevation": null, "source": "osm"}, {"name": "Gornja Drenova", "country": "", "latitude": 45.9420102, "longitude": 16.18223, "population": 322, "elevation": null, "source": "osm"}, {"name": "Donja Drenova", "country": "", "latitude": 45.9332276, "longitude": 16.1779492, "population": 308, "elevation": null, "source": "osm"}, {"name": "Stubičke Toplice", "country": "", "latitude": 45.9774054, "longitude": 15.931548, "population": 1845, "elevation": null, "source": "osm"}, {"name": "Mokrice", "country": "", "latitude": 45.9962843, "longitude": 15.898121, "population": 758, "elevation": null, "source": "osm"}, {"name": "Zlatar-Bistrica", "country": "", "latitude": 46.0517238, "longitude": 16.084891, "population": 1532, "elevation": null, "source": "osm"}, {"name": "Hrnjanec", "country": "", "latitude": 45.9228444, "longitude": 16.2031824, "population": 409, "elevation": null, "source": "osm"}, {"name": "Buševec", "country": "", "latitude": 45.6339365, "longitude": 16.1157503, "population": 886, "elevation": null, "source": "osm"}, {"name": "Greda Breška", "country": "", "latitude": 45.7089323, "longitude": 16.3482573, "population": 156, "elevation": null, "source": "osm"}, {"name": "Lepšić", "country": "", "latitude": 45.7237621, "longitude": 16.3630297, "population": 46, "elevation": null, "source": "osm"}, {"name": "Opatinec", "country": "", "latitude": 45.7172645, "longitude": 16.3718025, "population": 321, "elevation": null, "source": "osm"}, {"name": "Posavski Bregi", "country": "", "latitude": 45.683909, "longitude": 16.3514639, "population": 816, "elevation": null, "source": "osm"}, {"name": "Prečno", "country": "", "latitude": 45.6630925, "longitude": 16.295582, "population": 98, "elevation": null, "source": "osm"}, {"name": "Prerovec", "country": "", "latitude": 45.6417483, "longitude": 16.2983005, "population": 98, "elevation": null, "source": "osm"}, {"name": "Šemovec Breški", "country": "", "latitude": 45.7026772, "longitude": 16.3529678, "population": 85, "elevation": null, "source": "osm"}, {"name": "Tarno", "country": "", "latitude": 45.7329076, "longitude": 16.3659772, "population": 57, "elevation": null, "source": "osm"}, {"name": "Topolje", "country": "", "latitude": 45.65255, "longitude": 16.3459583, "population": 112, "elevation": null, "source": "osm"}, {"name": "Zaklepica", "country": "", "latitude": 45.6924212, "longitude": 16.3484991, "population": 88, "elevation": null, "source": "osm"}, {"name": "Breg Mokrički", "country": "", "latitude": 45.9586484, "longitude": 16.261019, "population": 45, "elevation": null, "source": "osm"}, {"name": "Curkovec", "country": "", "latitude": 45.9302363, "longitude": 16.2448407, "population": 88, "elevation": null, "source": "osm"}, {"name": "Greda", "country": "", "latitude": 45.86815, "longitude": 16.3496002, "population": 96, "elevation": null, "source": "osm"}, {"name": "Peskovec", "country": "", "latitude": 45.8718147, "longitude": 16.323542, "population": 323, "elevation": null, "source": "osm"}, {"name": "Donja Topličica", "country": "", "latitude": 45.9611668, "longitude": 16.2588757, "population": 68, "elevation": null, "source": "osm"}, {"name": "Donje Psarjevo", "country": "", "latitude": 45.9434583, "longitude": 16.2203369, "population": 311, "elevation": null, "source": "osm"}, {"name": "Filipovići", "country": "", "latitude": 45.9940636, "longitude": 16.2755763, "population": 70, "elevation": null, "source": "osm"}, {"name": "Goričanec", "country": "", "latitude": 45.8985199, "longitude": 16.2464437, "population": 74, "elevation": null, "source": "osm"}, {"name": "Gornje Psarjevo", "country": "", "latitude": 45.950896, "longitude": 16.2122365, "population": 467, "elevation": null, "source": "osm"}, {"name": "Krečaves", "country": "", "latitude": 45.9418998, "longitude": 16.2789231, "population": 256, "elevation": null, "source": "osm"}, {"name": "Križevčec", "country": "", "latitude": 45.8854138, "longitude": 16.2500904, "population": 102, "elevation": null, "source": "osm"}, {"name": "Laktec", "country": "", "latitude": 45.858439, "longitude": 16.230213, "population": 175, "elevation": null, "source": "osm"}, {"name": "Majkovec", "country": "", "latitude": 45.8787779, "longitude": 16.2805576, "population": 194, "elevation": null, "source": "osm"}, {"name": "Marinovec Zelinski", "country": "", "latitude": 45.943086, "longitude": 16.2622214, "population": 73, "elevation": null, "source": "osm"}, {"name": "Obrež Zelinski", "country": "", "latitude": 45.9345458, "longitude": 16.2614472, "population": 64, "elevation": null, "source": "osm"}, {"name": "Šulinec", "country": "", "latitude": 45.9502524, "longitude": 16.259773, "population": 214, "elevation": null, "source": "osm"}, {"name": "Bukovčak", "country": "", "latitude": 45.6246966, "longitude": 15.940203, "population": 65, "elevation": null, "source": "osm"}, {"name": "Cerovski Vrh", "country": "", "latitude": 45.5761509, "longitude": 15.943664, "population": 93, "elevation": null, "source": "osm"}, {"name": "Cvetković Brdo", "country": "", "latitude": 45.5665033, "longitude": 15.9747661, "population": 32, "elevation": null, "source": "osm"}, {"name": "Jerebić", "country": "", "latitude": 45.5775055, "longitude": 15.9636954, "population": 41, "elevation": null, "source": "osm"}, {"name": "Lazi Turopoljski", "country": "", "latitude": 45.6488115, "longitude": 16.1057602, "population": 57, "elevation": null, "source": "osm"}, {"name": "Novaki Šćitarjevski", "country": "", "latitude": 45.777709, "longitude": 16.1035986, "population": 158, "elevation": null, "source": "osm"}, {"name": "Obrezina", "country": "", "latitude": 45.7704366, "longitude": 16.1091522, "population": 555, "elevation": null, "source": "osm"}, {"name": "Petravec", "country": "", "latitude": 45.5890785, "longitude": 15.9481914, "population": 76, "elevation": null, "source": "osm"}, {"name": "Poljana Čička", "country": "", "latitude": 45.6831531, "longitude": 16.1802783, "population": 688, "elevation": null, "source": "osm"}, {"name": "Prvonožina", "country": "", "latitude": 45.5914628, "longitude": 15.9564257, "population": 42, "elevation": null, "source": "osm"}, {"name": "Dijaneš", "country": "", "latitude": 45.9028524, "longitude": 16.355844, "population": 167, "elevation": null, "source": "osm"}, {"name": "Dulepska", "country": "", "latitude": 45.894545, "longitude": 16.3426353, "population": 155, "elevation": null, "source": "osm"}, {"name": "Gaj", "country": "", "latitude": 45.8980811, "longitude": 16.3684819, "population": 381, "elevation": null, "source": "osm"}, {"name": "Pirakovec", "country": "", "latitude": 45.8864835, "longitude": 16.3584796, "population": 170, "elevation": null, "source": "osm"}, {"name": "Vrhovec", "country": "", "latitude": 45.8995334, "longitude": 16.304439, "population": 140, "elevation": null, "source": "osm"}, {"name": "Božjakovina", "country": "", "latitude": 45.8194685, "longitude": 16.2871783, "population": 178, "elevation": null, "source": "osm"}, {"name": "Gornja Greda", "country": "", "latitude": 45.8167947, "longitude": 16.3152959, "population": 625, "elevation": null, "source": "osm"}, {"name": "Kusanovec", "country": "", "latitude": 45.8205055, "longitude": 16.3445502, "population": 49, "elevation": null, "source": "osm"}, {"name": "Lupoglav", "country": "", "latitude": 45.7970952, "longitude": 16.3404828, "population": 1063, "elevation": null, "source": "osm"}, {"name": "Prečec", "country": "", "latitude": 45.7614497, "longitude": 16.3527958, "population": 220, "elevation": null, "source": "osm"}, {"name": "Prikraj", "country": "", "latitude": 45.8259835, "longitude": 16.3149121, "population": 603, "elevation": null, "source": "osm"}, {"name": "Stančić", "country": "", "latitude": 45.8499502, "longitude": 16.2952036, "population": 687, "elevation": null, "source": "osm"}, {"name": "Štakorovec", "country": "", "latitude": 45.8593562, "longitude": 16.2955673, "population": 315, "elevation": null, "source": "osm"}, {"name": "Tedrovec", "country": "", "latitude": 45.7452688, "longitude": 16.3600824, "population": 97, "elevation": null, "source": "osm"}, {"name": "Novo Selište", "country": "", "latitude": 45.4400302, "longitude": 16.247187, "population": 321, "elevation": null, "source": "osm"}, {"name": "Selsko Brdo", "country": "", "latitude": 45.55436, "longitude": 15.9021514, "population": 107, "elevation": null, "source": "osm"}, {"name": "Brest Pokupski", "country": "", "latitude": 45.4532035, "longitude": 16.2560801, "population": 279, "elevation": null, "source": "osm"}, {"name": "Mala Gorica", "country": "", "latitude": 45.4731733, "longitude": 16.2445581, "population": 510, "elevation": null, "source": "osm"}, {"name": "Gornja Stubica", "country": "", "latitude": 45.9749888, "longitude": 16.0175181, "population": 831, "elevation": null, "source": "osm"}, {"name": "Tuhovec", "country": "", "latitude": 46.2087622, "longitude": 16.4546934, "population": 706, "elevation": null, "source": "osm"}, {"name": "Beletinec", "country": "", "latitude": 46.2220831, "longitude": 16.3110767, "population": 956, "elevation": null, "source": "osm"}, {"name": "Sveti Ilija", "country": "", "latitude": 46.2463479, "longitude": 16.3233118, "population": 615, "elevation": null, "source": "osm"}, {"name": "Beretinec", "country": "", "latitude": 46.2481631, "longitude": 16.3052152, "population": 1040, "elevation": null, "source": "osm"}, {"name": "Doljan", "country": "", "latitude": 46.2451174, "longitude": 16.3382976, "population": 409, "elevation": null, "source": "osm"}, {"name": "Žigrovec", "country": "", "latitude": 46.2436417, "longitude": 16.3303796, "population": 211, "elevation": null, "source": "osm"}, {"name": "Donji Kneginec", "country": "", "latitude": 46.25858, "longitude": 16.3820573, "population": 743, "elevation": null, "source": "osm"}, {"name": "Črešnjevo", "country": "", "latitude": 46.2542127, "longitude": 16.2716199, "population": 765, "elevation": null, "source": "osm"}, {"name": "Filipići", "country": "", "latitude": 46.220183, "longitude": 16.2916031, "population": 122, "elevation": null, "source": "osm"}, {"name": "Krušljevec", "country": "", "latitude": 46.2212833, "longitude": 16.3191818, "population": 230, "elevation": null, "source": "osm"}, {"name": "Dvoranci", "country": "", "latitude": 45.5713572, "longitude": 15.8924931, "population": 178, "elevation": null, "source": "osm"}, {"name": "Lijevi Štefanki", "country": "", "latitude": 45.5132794, "longitude": 15.9241881, "population": 218, "elevation": null, "source": "osm"}, {"name": "Greda", "country": "", "latitude": 45.5233281, "longitude": 16.2797236, "population": 858, "elevation": null, "source": "osm"}, {"name": "Stara Drenčina", "country": "", "latitude": 45.4732914, "longitude": 16.3208977, "population": 226, "elevation": null, "source": "osm"}, {"name": "Staro Pračno", "country": "", "latitude": 45.4908659, "longitude": 16.3467955, "population": 895, "elevation": null, "source": "osm"}, {"name": "Desno Željezno", "country": "", "latitude": 45.6191282, "longitude": 16.3293017, "population": 170, "elevation": null, "source": "osm"}, {"name": "Martinšćina", "country": "", "latitude": 46.1390645, "longitude": 16.0886506, "population": 375, "elevation": null, "source": "osm"}, {"name": "Lobor", "country": "", "latitude": 46.1505926, "longitude": 16.0654152, "population": 521, "elevation": null, "source": "osm"}, {"name": "Stari Brod", "country": "", "latitude": 45.4862425, "longitude": 16.1669873, "population": 166, "elevation": null, "source": "osm"}, {"name": "Palanjek", "country": "", "latitude": 45.5213608, "longitude": 16.4098611, "population": 318, "elevation": null, "source": "osm"}, {"name": "Mahovo", "country": "", "latitude": 45.5648371, "longitude": 16.4082303, "population": 269, "elevation": null, "source": "osm"}, {"name": "Hrastelnica", "country": "", "latitude": 45.5069222, "longitude": 16.419523, "population": 744, "elevation": null, "source": "osm"}, {"name": "Setuš", "country": "", "latitude": 45.5489811, "longitude": 16.3950122, "population": 157, "elevation": null, "source": "osm"}, {"name": "Tišina Erdedska", "country": "", "latitude": 45.5314765, "longitude": 16.3836246, "population": 305, "elevation": null, "source": "osm"}, {"name": "Bok Palanječki", "country": "", "latitude": 45.5090841, "longitude": 16.4119109, "population": 138, "elevation": null, "source": "osm"}, {"name": "Mirkovec", "country": "", "latitude": 46.0540852, "longitude": 15.9325918, "population": 476, "elevation": null, "source": "osm"}, {"name": "Gornji Hruševec", "country": "", "latitude": 45.5684382, "longitude": 16.0216039, "population": 240, "elevation": null, "source": "osm"}, {"name": "Donji Hruševec", "country": "", "latitude": 45.5343441, "longitude": 16.075914, "population": 332, "elevation": null, "source": "osm"}, {"name": "Gladovec Kravarski", "country": "", "latitude": 45.5611533, "longitude": 16.0553008, "population": 199, "elevation": null, "source": "osm"}, {"name": "Strezojevo", "country": "", "latitude": 45.5271615, "longitude": 16.0376546, "population": 154, "elevation": null, "source": "osm"}, {"name": "Cvetnić Brdo", "country": "", "latitude": 45.5041814, "longitude": 15.9779611, "population": 37, "elevation": null, "source": "osm"}, {"name": "Cerje Pokupsko", "country": "", "latitude": 45.5012922, "longitude": 15.9637466, "population": 84, "elevation": null, "source": "osm"}, {"name": "Zgurić Brdo", "country": "", "latitude": 45.5139994, "longitude": 15.9834752, "population": 46, "elevation": null, "source": "osm"}, {"name": "Šestak Brdo", "country": "", "latitude": 45.5268017, "longitude": 15.9728033, "population": 76, "elevation": null, "source": "osm"}, {"name": "Ključ", "country": "", "latitude": 46.1693631, "longitude": 16.3611967, "population": 928, "elevation": null, "source": "osm"}, {"name": "Repno", "country": "", "latitude": 46.133675, "longitude": 16.1076241, "population": 231, "elevation": null, "source": "osm"}, {"name": "Zabok", "country": "", "latitude": 46.025686, "longitude": 15.9036337, "population": 3408, "elevation": null, "source": "osm"}, {"name": "Žirčica", "country": "", "latitude": 45.5394139, "longitude": 16.3788661, "population": 119, "elevation": null, "source": "osm"}, {"name": "Brezova", "country": "", "latitude": 46.0524847, "longitude": 15.9239831, "population": 287, "elevation": null, "source": "osm"}, {"name": "Križanče", "country": "", "latitude": 46.0561942, "longitude": 15.9399165, "population": 141, "elevation": null, "source": "osm"}, {"name": "Graberšćak", "country": "", "latitude": 45.9654967, "longitude": 16.4413002, "population": 87, "elevation": null, "source": "osm"}, {"name": "Deklešanec", "country": "", "latitude": 46.1159864, "longitude": 16.403812, "population": 136, "elevation": null, "source": "osm"}, {"name": "Paka", "country": "", "latitude": 46.1268685, "longitude": 16.3199757, "population": 81, "elevation": null, "source": "osm"}, {"name": "Nespeš", "country": "", "latitude": 45.9445742, "longitude": 16.2007596, "population": 338, "elevation": null, "source": "osm"}, {"name": "Gornja Bučica", "country": "", "latitude": 45.4568829, "longitude": 15.9914475, "population": 84, "elevation": null, "source": "osm"}, {"name": "Grdenci", "country": "", "latitude": 46.036459, "longitude": 15.9295506, "population": 459, "elevation": null, "source": "osm"}, {"name": "Brežane Lekeničke", "country": "", "latitude": 45.585222, "longitude": 16.1471251, "population": 302, "elevation": null, "source": "osm"}, {"name": "Čurilovec", "country": "", "latitude": 46.1885652, "longitude": 16.4147889, "population": 131, "elevation": null, "source": "osm"}, {"name": "Lovrentovec", "country": "", "latitude": 46.2057168, "longitude": 16.4647565, "population": 118, "elevation": null, "source": "osm"}, {"name": "Bednja", "country": "", "latitude": 46.229237, "longitude": 15.9826306, "population": 677, "elevation": null, "source": "osm"}, {"name": "Blaževdol", "country": "", "latitude": 45.937317, "longitude": 16.236687, "population": 433, "elevation": null, "source": "osm"}, {"name": "Podvornica", "country": "", "latitude": 45.6094055, "longitude": 16.0700454, "population": 115, "elevation": null, "source": "osm"}, {"name": "Radoboj", "country": "", "latitude": 46.1661371, "longitude": 15.9218192, "population": 1282, "elevation": null, "source": "osm"}, {"name": "Gorjani Sutinski", "country": "", "latitude": 46.1725883, "longitude": 15.9422867, "population": 145, "elevation": null, "source": "osm"}, {"name": "Breznički Hum", "country": "", "latitude": 46.1075848, "longitude": 16.2789216, "population": 497, "elevation": null, "source": "osm"}, {"name": "Ljubljanica", "country": "", "latitude": 45.557671, "longitude": 16.3991548, "population": 31, "elevation": null, "source": "osm"}, {"name": "Petrinja", "country": "", "latitude": 45.4415284, "longitude": 16.278763, "population": 12963, "elevation": null, "source": "osm"}, {"name": "Mošćenica", "country": "", "latitude": 45.4394139, "longitude": 16.3543238, "population": 2470, "elevation": null, "source": "osm"}, {"name": "Budaševo", "country": "", "latitude": 45.4772898, "longitude": 16.4382948, "population": 1664, "elevation": null, "source": "osm"}, {"name": "Varaždin Breg", "country": "", "latitude": 46.2399103, "longitude": 16.3651651, "population": 1640, "elevation": null, "source": "osm"}, {"name": "Biškupec Zelinski", "country": "", "latitude": 45.9615472, "longitude": 16.2325242, "population": 988, "elevation": null, "source": "osm"}, {"name": "Špičkovina", "country": "", "latitude": 46.0288689, "longitude": 15.9626755, "population": 764, "elevation": null, "source": "osm"}, {"name": "Remetinec", "country": "", "latitude": 46.1840724, "longitude": 16.3277427, "population": 1477, "elevation": null, "source": "osm"}, {"name": "Mihovljan", "country": "", "latitude": 46.1335743, "longitude": 15.9700106, "population": 1095, "elevation": null, "source": "osm"}, {"name": "Donja Konjščina", "country": "", "latitude": 46.0592013, "longitude": 16.169992, "population": 139, "elevation": null, "source": "osm"}, {"name": "Klenovnik", "country": "", "latitude": 46.2682132, "longitude": 16.0779742, "population": 982, "elevation": null, "source": "osm"}, {"name": "Poznanovec", "country": "", "latitude": 46.0514757, "longitude": 16.0332967, "population": 937, "elevation": null, "source": "osm"}, {"name": "Madžarevo", "country": "", "latitude": 46.1695487, "longitude": 16.3060711, "population": 910, "elevation": null, "source": "osm"}, {"name": "Podgorje Bistričko", "country": "", "latitude": 45.9921993, "longitude": 16.1392368, "population": 904, "elevation": null, "source": "osm"}, {"name": "Topolovac", "country": "", "latitude": 45.4594541, "longitude": 16.4371339, "population": 897, "elevation": null, "source": "osm"}, {"name": "Presečno", "country": "", "latitude": 46.1964754, "longitude": 16.3469746, "population": 893, "elevation": null, "source": "osm"}, {"name": "Andraševec", "country": "", "latitude": 46.0003464, "longitude": 15.9356094, "population": 859, "elevation": null, "source": "osm"}, {"name": "Završje Podbelsko", "country": "", "latitude": 46.2142589, "longitude": 16.2642711, "population": 850, "elevation": null, "source": "osm"}, {"name": "Donja Zelina", "country": "", "latitude": 45.9113619, "longitude": 16.2323638, "population": 847, "elevation": null, "source": "osm"}, {"name": "Pustodol", "country": "", "latitude": 45.9739938, "longitude": 15.9521052, "population": 844, "elevation": null, "source": "osm"}, {"name": "Žarovnica", "country": "", "latitude": 46.2560712, "longitude": 16.041697, "population": 839, "elevation": null, "source": "osm"}, {"name": "Lužan", "country": "", "latitude": 45.8857938, "longitude": 16.196276, "population": 708, "elevation": null, "source": "osm"}, {"name": "Gornje Jesenje", "country": "", "latitude": 46.2067006, "longitude": 15.907848, "population": 749, "elevation": null, "source": "osm"}, {"name": "Strahinje Radobojsko", "country": "", "latitude": 46.1776774, "longitude": 15.895283, "population": 58, "elevation": null, "source": "osm"}, {"name": "Samoborec", "country": "", "latitude": 45.8935337, "longitude": 16.3178069, "population": 117, "elevation": null, "source": "osm"}, {"name": "Fotez Breg", "country": "", "latitude": 46.2805736, "longitude": 16.1055289, "population": 64, "elevation": null, "source": "osm"}, {"name": "Plemenšćina", "country": "", "latitude": 46.2874802, "longitude": 16.0815553, "population": 109, "elevation": null, "source": "osm"}, {"name": "Mače", "country": "", "latitude": 46.0935427, "longitude": 16.0433754, "population": 696, "elevation": null, "source": "osm"}, {"name": "Lovrečan", "country": "", "latitude": 46.0577162, "longitude": 16.0679353, "population": 405, "elevation": null, "source": "osm"}, {"name": "Lug Poznanovečki", "country": "", "latitude": 46.048771, "longitude": 16.0157462, "population": 659, "elevation": null, "source": "osm"}, {"name": "Selnica", "country": "", "latitude": 46.0266777, "longitude": 16.0448657, "population": 653, "elevation": null, "source": "osm"}, {"name": "Bednjica", "country": "", "latitude": 46.2896096, "longitude": 15.9777675, "population": 209, "elevation": null, "source": "osm"}, {"name": "Cvetlin", "country": "", "latitude": 46.2826441, "longitude": 15.9580263, "population": 283, "elevation": null, "source": "osm"}, {"name": "Donja Višnjica", "country": "", "latitude": 46.2939088, "longitude": 16.0144522, "population": 542, "elevation": null, "source": "osm"}, {"name": "Mala Buna", "country": "", "latitude": 45.643361, "longitude": 16.0553662, "population": 261, "elevation": null, "source": "osm"}, {"name": "Gornja Podgora", "country": "", "latitude": 45.967467, "longitude": 15.9863006, "population": 287, "elevation": null, "source": "osm"}, {"name": "Donja Podgora", "country": "", "latitude": 45.9647821, "longitude": 15.9711882, "population": 371, "elevation": null, "source": "osm"}, {"name": "Presečno Visočko", "country": "", "latitude": 46.0891845, "longitude": 16.3553906, "population": 180, "elevation": null, "source": "osm"}, {"name": "Laz Stubički", "country": "", "latitude": 45.9682667, "longitude": 16.09084, "population": 267, "elevation": null, "source": "osm"}, {"name": "Laz Bistrički", "country": "", "latitude": 45.9710422, "longitude": 16.0987558, "population": 788, "elevation": null, "source": "osm"}, {"name": "Samci", "country": "", "latitude": 45.9874516, "longitude": 16.0106653, "population": 277, "elevation": null, "source": "osm"}, {"name": "Hum Stubički", "country": "", "latitude": 45.9762987, "longitude": 16.0427108, "population": 580, "elevation": null, "source": "osm"}, {"name": "Volavec", "country": "", "latitude": 45.9667157, "longitude": 16.0281625, "population": 20, "elevation": null, "source": "osm"}, {"name": "Jakšinec", "country": "", "latitude": 45.9601377, "longitude": 16.0399538, "population": 283, "elevation": null, "source": "osm"}, {"name": "Karivaroš", "country": "", "latitude": 45.9597404, "longitude": 16.050223, "population": 310, "elevation": null, "source": "osm"}, {"name": "Sveti Matej", "country": "", "latitude": 45.9661121, "longitude": 16.0713028, "population": 579, "elevation": null, "source": "osm"}, {"name": "Ladislavec", "country": "", "latitude": 46.1086074, "longitude": 16.0627954, "population": 144, "elevation": null, "source": "osm"}, {"name": "Cetinovec", "country": "", "latitude": 46.1045497, "longitude": 16.0573758, "population": 129, "elevation": null, "source": "osm"}, {"name": "Stari Farkašić", "country": "", "latitude": 45.4899218, "longitude": 16.1418302, "population": 86, "elevation": null, "source": "osm"}, {"name": "Brkiševina", "country": "", "latitude": 45.4447816, "longitude": 16.0935519, "population": 95, "elevation": null, "source": "osm"}, {"name": "Šišinec", "country": "", "latitude": 45.4502378, "longitude": 16.0791404, "population": 78, "elevation": null, "source": "osm"}, {"name": "Pokupsko Vratečko", "country": "", "latitude": 45.4760703, "longitude": 16.1024493, "population": 23, "elevation": null, "source": "osm"}, {"name": "Vratečko", "country": "", "latitude": 45.4613653, "longitude": 16.1118753, "population": 60, "elevation": null, "source": "osm"}, {"name": "Novi Farkašić", "country": "", "latitude": 45.4718679, "longitude": 16.1533744, "population": 81, "elevation": null, "source": "osm"}, {"name": "Dumače", "country": "", "latitude": 45.4715955, "longitude": 16.1761195, "population": 272, "elevation": null, "source": "osm"}, {"name": "Omamno", "country": "", "latitude": 46.0184525, "longitude": 16.2512662, "population": 151, "elevation": null, "source": "osm"}, {"name": "Novakovec", "country": "", "latitude": 46.0122717, "longitude": 16.2673203, "population": 0, "elevation": null, "source": "osm"}, {"name": "Donje Orešje", "country": "", "latitude": 45.997261, "longitude": 16.2462891, "population": 502, "elevation": null, "source": "osm"}, {"name": "Šurdovec", "country": "", "latitude": 46.0036645, "longitude": 16.2732131, "population": 0, "elevation": null, "source": "osm"}, {"name": "Svorniki", "country": "", "latitude": 46.0100508, "longitude": 16.2526395, "population": 0, "elevation": null, "source": "osm"}, {"name": "Zadrkovec", "country": "", "latitude": 46.0064143, "longitude": 16.2557723, "population": 214, "elevation": null, "source": "osm"}, {"name": "Gradine", "country": "", "latitude": 45.989989, "longitude": 16.2440171, "population": 0, "elevation": null, "source": "osm"}, {"name": "Črečan", "country": "", "latitude": 45.9778045, "longitude": 16.2604724, "population": 167, "elevation": null, "source": "osm"}, {"name": "Kalinje", "country": "", "latitude": 45.9814531, "longitude": 16.2380747, "population": 236, "elevation": null, "source": "osm"}, {"name": "Ljubelj", "country": "", "latitude": 46.1629491, "longitude": 16.4235694, "population": 63, "elevation": null, "source": "osm"}, {"name": "Zajezda", "country": "", "latitude": 46.1556766, "longitude": 16.1900984, "population": 385, "elevation": null, "source": "osm"}, {"name": "Brestovec Orehovički", "country": "", "latitude": 46.0795389, "longitude": 15.9851215, "population": 334, "elevation": null, "source": "osm"}, {"name": "Lijevi Degoj", "country": "HR", "latitude": 45.4759167, "longitude": 15.9621188, "population": 235, "elevation": null, "source": "osm"}, {"name": "Auguštanovec", "country": "HR", "latitude": 45.4748574, "longitude": 15.9383109, "population": 235, "elevation": null, "source": "osm"}, {"name": "Markušbrijeg", "country": "", "latitude": 46.1316087, "longitude": 16.0628664, "population": 488, "elevation": null, "source": "osm"}, {"name": "Završje Loborsko", "country": "", "latitude": 46.1436545, "longitude": 16.0744756, "population": 306, "elevation": null, "source": "osm"}, {"name": "Novaki", "country": "", "latitude": 46.2628239, "longitude": 16.1349515, "population": 533, "elevation": null, "source": "osm"}, {"name": "Selnik", "country": "", "latitude": 46.2728513, "longitude": 16.2018995, "population": 399, "elevation": null, "source": "osm"}, {"name": "Cerje Nebojse", "country": "", "latitude": 46.2567821, "longitude": 16.1791704, "population": 445, "elevation": null, "source": "osm"}, {"name": "Korenjak", "country": "", "latitude": 46.2854423, "longitude": 16.1595849, "population": 82, "elevation": null, "source": "osm"}, {"name": "Brodarovec", "country": "", "latitude": 46.2790158, "longitude": 16.1457124, "population": 202, "elevation": null, "source": "osm"}, {"name": "Druškovec", "country": "", "latitude": 46.2567406, "longitude": 16.1494558, "population": 362, "elevation": null, "source": "osm"}, {"name": "Krkanec", "country": "", "latitude": 46.2817795, "longitude": 16.2545351, "population": 305, "elevation": null, "source": "osm"}, {"name": "Jurketinec", "country": "", "latitude": 46.2829955, "longitude": 16.2184004, "population": 422, "elevation": null, "source": "osm"}, {"name": "Greda", "country": "", "latitude": 46.2736523, "longitude": 16.2134866, "population": 567, "elevation": null, "source": "osm"}, {"name": "Lužan Biškupečki", "country": "", "latitude": 46.2239237, "longitude": 16.3512835, "population": 398, "elevation": null, "source": "osm"}, {"name": "Bikovec", "country": "", "latitude": 46.2819723, "longitude": 16.1989598, "population": 216, "elevation": null, "source": "osm"}, {"name": "Budislavec", "country": "", "latitude": 46.2799851, "longitude": 16.2359742, "population": 220, "elevation": null, "source": "osm"}, {"name": "Koškovec", "country": "", "latitude": 46.2506981, "longitude": 16.1643217, "population": 222, "elevation": null, "source": "osm"}, {"name": "Jarki Horvatićevi", "country": "", "latitude": 46.2248307, "longitude": 16.4451636, "population": 47, "elevation": null, "source": "osm"}, {"name": "Škarnik", "country": "", "latitude": 46.2016972, "longitude": 16.4466013, "population": 84, "elevation": null, "source": "osm"}, {"name": "Hrastovec Toplički", "country": "", "latitude": 46.1948058, "longitude": 16.4071406, "population": 176, "elevation": null, "source": "osm"}, {"name": "Martinkovec", "country": "", "latitude": 46.2216211, "longitude": 16.4223627, "population": 66, "elevation": null, "source": "osm"}, {"name": "Lukačevec Toplički", "country": "", "latitude": 46.2123743, "longitude": 16.4438118, "population": 55, "elevation": null, "source": "osm"}, {"name": "Pihovec", "country": "", "latitude": 46.2360673, "longitude": 16.4487471, "population": 21, "elevation": null, "source": "osm"}, {"name": "Retkovec Svibovečki", "country": "", "latitude": 46.2211639, "longitude": 16.4666427, "population": 23, "elevation": null, "source": "osm"}, {"name": "Petkovec Toplički", "country": "", "latitude": 46.1918867, "longitude": 16.395116, "population": 265, "elevation": null, "source": "osm"}, {"name": "Pišćanovec", "country": "", "latitude": 46.1898149, "longitude": 16.4309157, "population": 73, "elevation": null, "source": "osm"}, {"name": "Črnile", "country": "", "latitude": 46.1851207, "longitude": 16.3888372, "population": 162, "elevation": null, "source": "osm"}, {"name": "Kapela Kalnička", "country": "", "latitude": 46.1799685, "longitude": 16.4007009, "population": 268, "elevation": null, "source": "osm"}, {"name": "Rakovec", "country": "", "latitude": 46.1742036, "longitude": 16.3966261, "population": 122, "elevation": null, "source": "osm"}, {"name": "Bisag", "country": "", "latitude": 46.0337432, "longitude": 16.2989057, "population": 154, "elevation": null, "source": "osm"}, {"name": "Jales Bisaški", "country": "", "latitude": 46.0523311, "longitude": 16.273929, "population": 142, "elevation": null, "source": "osm"}, {"name": "Vrh Visočki", "country": "", "latitude": 46.0913632, "longitude": 16.3411344, "population": 114, "elevation": null, "source": "osm"}, {"name": "Krščenovec", "country": "", "latitude": 46.0980742, "longitude": 16.2503899, "population": 114, "elevation": null, "source": "osm"}, {"name": "Podrute", "country": "", "latitude": 46.1662239, "longitude": 16.245519, "population": 421, "elevation": null, "source": "osm"}, {"name": "Gornje Makojišće", "country": "", "latitude": 46.1442699, "longitude": 16.309935, "population": 400, "elevation": null, "source": "osm"}, {"name": "Orehovec", "country": "", "latitude": 46.1838164, "longitude": 16.3763679, "population": 297, "elevation": null, "source": "osm"}, {"name": "Oštrice", "country": "", "latitude": 46.1881839, "longitude": 16.3565625, "population": 452, "elevation": null, "source": "osm"}, {"name": "Butkovec", "country": "", "latitude": 46.1043826, "longitude": 16.2647666, "population": 203, "elevation": null, "source": "osm"}, {"name": "Strmec Remetinečki", "country": "", "latitude": 46.1981358, "longitude": 16.3277019, "population": 511, "elevation": null, "source": "osm"}, {"name": "Topličica", "country": "", "latitude": 46.1612452, "longitude": 16.2883056, "population": 207, "elevation": null, "source": "osm"}, {"name": "Podvorec", "country": "", "latitude": 46.0389568, "longitude": 16.289357, "population": 142, "elevation": null, "source": "osm"}, {"name": "Borenec", "country": "", "latitude": 46.0441699, "longitude": 16.2995494, "population": 120, "elevation": null, "source": "osm"}, {"name": "Kračevec", "country": "", "latitude": 46.0863778, "longitude": 16.3123168, "population": 135, "elevation": null, "source": "osm"}, {"name": "Breznica", "country": "", "latitude": 46.0682331, "longitude": 16.2726844, "population": 814, "elevation": null, "source": "osm"}, {"name": "Jelenšćak", "country": "", "latitude": 46.1487744, "longitude": 16.2810315, "population": 213, "elevation": null, "source": "osm"}, {"name": "Drašković", "country": "", "latitude": 46.0387095, "longitude": 16.3367042, "population": 415, "elevation": null, "source": "osm"}, {"name": "Jarek Bisaški", "country": "", "latitude": 46.0545499, "longitude": 16.288885, "population": 204, "elevation": null, "source": "osm"}, {"name": "Grana", "country": "", "latitude": 46.1576039, "longitude": 16.3275732, "population": 526, "elevation": null, "source": "osm"}, {"name": "Šćepanje", "country": "", "latitude": 46.1233781, "longitude": 16.2500251, "population": 330, "elevation": null, "source": "osm"}, {"name": "Čret Bisaški", "country": "", "latitude": 46.0535075, "longitude": 16.3005579, "population": 18, "elevation": null, "source": "osm"}, {"name": "Vinično", "country": "", "latitude": 46.078008, "longitude": 16.3007264, "population": 277, "elevation": null, "source": "osm"}, {"name": "Kamena Gorica", "country": "", "latitude": 46.160517, "longitude": 16.2674058, "population": 232, "elevation": null, "source": "osm"}, {"name": "Tkalec", "country": "", "latitude": 46.0268307, "longitude": 16.2991847, "population": 94, "elevation": null, "source": "osm"},