[{"name": "Bad Reichenhall", "country": "", "latitude": 47.7222676, "longitude": 12.8760923, "population": 17513, "elevation": 473.0, "source": "osm"}, {"name": "Wörgl", "country": "", "latitude": 47.4872718, "longitude": 12.0637633, "population": 13811, "elevation": 513.0, "source": "osm"}, {"name": "Kufstein", "country": "", "latitude": 47.582996, "longitude": 12.1692134, "population": 19223, "elevation": null, "source": "osm"}, {"name": "Kirchbichl", "country": "", "latitude": 47.5111617, "longitude": 12.0859208, "population": 1233, "elevation": null, "source": "osm"}, {"name": "Westendorf", "country": "", "latitude": 47.4320467, "longitude": 12.2141675, "population": 3467, "elevation": null, "source": "osm"}, {"name": "Itter", "country": "", "latitude": 47.4701866, "longitude": 12.1434521, "population": 1085, "elevation": null, "source": "osm"}, {"name": "Aschau im Chiemgau", "country": "", "latitude": 47.7764994, "longitude": 12.3234179, "population": 5575, "elevation": 615.0, "source": "osm"}, {"name": "Hohenaschau", "country": "", "latitude": 47.7654148, "longitude": 12.3233588, "population": 0, "elevation": null, "source": "osm"}, {"name": "Bruckhäusl", "country": "", "latitude": 47.4870846, "longitude": 12.1107973, "population": 0, "elevation": 534.0, "source": "osm"}, {"name": "Angath", "country": "", "latitude": 47.5072393, "longitude": 12.0648925, "population": 1008, "elevation": null, "source": "osm"}, {"name": "Oberlangkampfen", "country": "", "latitude": 47.5241403, "longitude": 12.0880059, "population": 654, "elevation": 494.0, "source": "osm"}, {"name": "Kirchseeon", "country": "", "latitude": 48.0710315, "longitude": 11.8879078, "population": 9239, "elevation": null, "source": "osm"}, {"name": "Chieming", "country": "", "latitude": 47.8942626, "longitude": 12.5381465, "population": 4530, "elevation": null, "source": "osm"}, {"name": "Seebruck", "country": "", "latitude": 47.9340156, "longitude": 12.4783274, "population": 993, "elevation": 526.0, "source": "osm"}, {"name": "Angerberg", "country": "", "latitude": 47.5065843, "longitude": 12.0399435, "population": 1890, "elevation": null, "source": "osm"}, {"name": "Mariastein", "country": "", "latitude": 47.5261836, "longitude": 12.05395, "population": 362, "elevation": null, "source": "osm"}, {"name": "Niederbreitenbach", "country": "", "latitude": 47.5379625, "longitude": 12.0816788, "population": 961, "elevation": 519.0, "source": "osm"}, {"name": "Traunreut", "country": "", "latitude": 47.9623271, "longitude": 12.5924162, "population": 20935, "elevation": 550.0, "source": "osm"}, {"name": "Niederau", "country": "", "latitude": 47.4496738, "longitude": 12.0892967, "population": 1069, "elevation": 826.0, "source": "osm"}, {"name": "Oberau", "country": "", "latitude": 47.4441615, "longitude": 12.0526292, "population": 2106, "elevation": 936.0, "source": "osm"}, {"name": "Wasserburg am Inn", "country": "", "latitude": 48.0615171, "longitude": 12.220026, "population": 12439, "elevation": null, "source": "osm"}, {"name": "Rechtmehring", "country": "", "latitude": 48.1238948, "longitude": 12.1598525, "population": 1755, "elevation": null, "source": "osm"}, {"name": "St. Johann in Tirol", "country": "", "latitude": 47.5224141, "longitude": 12.4286809, "population": 0, "elevation": null, "source": "osm"}, {"name": "Reith bei Kitzbühel", "country": "", "latitude": 47.476011, "longitude": 12.3422357, "population": 1691, "elevation": null, "source": "osm"}, {"name": "Sachrang", "country": "", "latitude": 47.6911052, "longitude": 12.2631336, "population": 0, "elevation": 740.0, "source": "osm"}, {"name": "Unterlangkampfen", "country": "", "latitude": 47.5507378, "longitude": 12.1005477, "population": 1926, "elevation": 502.0, "source": "osm"}, {"name": "Bad Aibling", "country": "", "latitude": 47.8640504, "longitude": 12.0097685, "population": 17633, "elevation": 492.0, "source": "osm"}, {"name": "Tittmoning", "country": "", "latitude": 48.0621714, "longitude": 12.7676484, "population": 5826, "elevation": null, "source": "osm"}, {"name": "Großkarolinenfeld", "country": "", "latitude": 47.8912213, "longitude": 12.0801467, "population": 6894, "elevation": null, "source": "osm"}, {"name": "Neubeuern", "country": "", "latitude": 47.7734832, "longitude": 12.1389535, "population": 4229, "elevation": null, "source": "osm"}, {"name": "Lauterbach", "country": "", "latitude": 47.8113591, "longitude": 12.1925827, "population": 0, "elevation": null, "source": "osm"}, {"name": "Niedermoosen", "country": "", "latitude": 47.8360949, "longitude": 12.1796171, "population": 0, "elevation": null, "source": "osm"}, {"name": "Rosenheim", "country": "", "latitude": 47.8539273, "longitude": 12.127262, "population": 61844, "elevation": 447.0, "source": "osm"}, {"name": "Bad Häring", "country": "", "latitude": 47.510719, "longitude": 12.1188475, "population": 2777, "elevation": null, "source": "osm"}, {"name": "Kolbermoor", "country": "", "latitude": 47.8556623, "longitude": 12.0595795, "population": 18065, "elevation": 462.0, "source": "osm"}, {"name": "Mietraching", "country": "", "latitude": 47.8786509, "longitude": 11.9972931, "population": 0, "elevation": null, "source": "osm"}, {"name": "Ellmosen", "country": "", "latitude": 47.8803741, "longitude": 12.0234863, "population": 0, "elevation": null, "source": "osm"}, {"name": "Tuntenhausen", "country": "", "latitude": 47.9344081, "longitude": 12.01462, "population": 6981, "elevation": 508.0, "source": "osm"}, {"name": "Bayrischzell", "country": "", "latitude": 47.673692, "longitude": 12.014881, "population": 1641, "elevation": null, "source": "osm"}, {"name": "Fischbachau", "country": "", "latitude": 47.7195927, "longitude": 11.9517515, "population": 6068, "elevation": null, "source": "osm"}, {"name": "Langenpfunzen", "country": "", "latitude": 47.8797321, "longitude": 12.1229577, "population": 0, "elevation": null, "source": "osm"}, {"name": "Haidholzen", "country": "", "latitude": 47.8614064, "longitude": 12.1726611, "population": 0, "elevation": null, "source": "osm"}, {"name": "Schloßberg", "country": "", "latitude": 47.8593321, "longitude": 12.1471453, "population": 0, "elevation": null, "source": "osm"}, {"name": "Höhenmoos", "country": "", "latitude": 47.8047904, "longitude": 12.2215608, "population": 0, "elevation": null, "source": "osm"}, {"name": "Frasdorf", "country": "", "latitude": 47.8024898, "longitude": 12.2819989, "population": 3000, "elevation": null, "source": "osm"}, {"name": "Pfaffenhofen am Inn", "country": "", "latitude": 47.8904368, "longitude": 12.1245806, "population": 0, "elevation": null, "source": "osm"}, {"name": "Hochstätt", "country": "", "latitude": 47.942134, "longitude": 12.1267674, "population": 0, "elevation": null, "source": "osm"}, {"name": "Rott am Inn", "country": "", "latitude": 47.9827688, "longitude": 12.1277148, "population": 3609, "elevation": null, "source": "osm"}, {"name": "Eiselfing", "country": "", "latitude": 48.0404763, "longitude": 12.2417391, "population": 2951, "elevation": null, "source": "osm"}, {"name": "Alteiselfing", "country": "", "latitude": 48.0296826, "longitude": 12.2393603, "population": 0, "elevation": null, "source": "osm"}, {"name": "Dettendorf", "country": "", "latitude": 47.823673, "longitude": 11.9714605, "population": 0, "elevation": null, "source": "osm"}, {"name": "Au bei Bad Aibling", "country": "", "latitude": 47.7966892, "longitude": 11.9733328, "population": 0, "elevation": null, "source": "osm"}, {"name": "Bad Feilnbach", "country": "", "latitude": 47.7745858, "longitude": 12.0070798, "population": 7199, "elevation": null, "source": "osm"}, {"name": "Hundham", "country": "", "latitude": 47.7562034, "longitude": 11.9442633, "population": 0, "elevation": null, "source": "osm"}, {"name": "Elbach", "country": "", "latitude": 47.7413516, "longitude": 11.9521246, "population": 0, "elevation": null, "source": "osm"}, {"name": "Spitzingsee", "country": "", "latitude": 47.6611977, "longitude": 11.8874166, "population": 0, "elevation": null, "source": "osm"}, {"name": "Hohenthann", "country": "", "latitude": 47.9770865, "longitude": 11.9585014, "population": 0, "elevation": null, "source": "osm"}, {"name": "Altötting", "country": "", "latitude": 48.2268085, "longitude": 12.6757914, "population": 12613, "elevation": null, "source": "osm"}, {"name": "Neuötting", "country": "", "latitude": 48.2405753, "longitude": 12.686742, "population": 8612, "elevation": null, "source": "osm"}, {"name": "Burgkirchen an der Alz", "country": "", "latitude": 48.1676884, "longitude": 12.7307847, "population": 10690, "elevation": null, "source": "osm"}, {"name": "Garching an der Alz", "country": "", "latitude": 48.1318036, "longitude": 12.5827074, "population": 8704, "elevation": null, "source": "osm"}, {"name": "Trostberg", "country": "", "latitude": 48.0277272, "longitude": 12.5530162, "population": 7000, "elevation": null, "source": "osm"}, {"name": "Waldkraiburg", "country": "", "latitude": 48.2061851, "longitude": 12.4021839, "population": 22525, "elevation": 436.0, "source": "osm"}, {"name": "Ampfing", "country": "", "latitude": 48.2550234, "longitude": 12.4190555, "population": 6147, "elevation": null, "source": "osm"}, {"name": "Kössen", "country": "", "latitude": 47.6703019, "longitude": 12.4055164, "population": 3936, "elevation": null, "source": "osm"}, {"name": "Kiefersfelden", "country": "", "latitude": 47.6138408, "longitude": 12.188782, "population": 6941, "elevation": null, "source": "osm"}, {"name": "Rottau", "country": "", "latitude": 47.7946207, "longitude": 12.4136936, "population": 0, "elevation": 538.0, "source": "osm"}, {"name": "Giebing", "country": "", "latitude": 47.8179829, "longitude": 12.3254392, "population": 0, "elevation": null, "source": "osm"}, {"name": "Hittenkirchen", "country": "", "latitude": 47.8236439, "longitude": 12.345218, "population": 0, "elevation": null, "source": "osm"}, {"name": "Waldering", "country": "", "latitude": 47.8696547, "longitude": 12.170854, "population": 0, "elevation": null, "source": "osm"}, {"name": "Prutting", "country": "", "latitude": 47.8919195, "longitude": 12.1979014, "population": 2355, "elevation": null, "source": "osm"}, {"name": "Mietenkam", "country": "", "latitude": 47.7953965, "longitude": 12.4716675, "population": 0, "elevation": 531.0, "source": "osm"}, {"name": "Winkl", "country": "", "latitude": 47.8323692, "longitude": 12.5329039, "population": 0, "elevation": null, "source": "osm"}, {"name": "Tattenhausen", "country": "", "latitude": 47.9215249, "longitude": 12.0740201, "population": 0, "elevation": null, "source": "osm"}, {"name": "Ostermünchen", "country": "", "latitude": 47.9499747, "longitude": 12.0352499, "population": 0, "elevation": null, "source": "osm"}, {"name": "Halfing", "country": "", "latitude": 47.9500426, "longitude": 12.2765095, "population": 2781, "elevation": null, "source": "osm"}, {"name": "Vogtareuth", "country": "", "latitude": 47.9467799, "longitude": 12.1816792, "population": 0, "elevation": null, "source": "osm"}, {"name": "Pittenhart", "country": "", "latitude": 47.9767313, "longitude": 12.3903112, "population": 1654, "elevation": null, "source": "osm"}, {"name": "Amerang", "country": "", "latitude": 47.9919747, "longitude": 12.3085415, "population": 3517, "elevation": null, "source": "osm"}, {"name": "Höslwang", "country": "", "latitude": 47.9538438, "longitude": 12.3270347, "population": 1249, "elevation": null, "source": "osm"}, {"name": "Hemhof", "country": "", "latitude": 47.9111781, "longitude": 12.3353793, "population": 0, "elevation": null, "source": "osm"}, {"name": "Bachmehring", "country": "", "latitude": 48.0464383, "longitude": 12.2397524, "population": 0, "elevation": null, "source": "osm"}, {"name": "Evenhausen", "country": "", "latitude": 48.0249676, "longitude": 12.2892881, "population": 0, "elevation": null, "source": "osm"}, {"name": "Schonstett", "country": "", "latitude": 47.9825676, "longitude": 12.2465632, "population": 1199, "elevation": null, "source": "osm"}, {"name": "Bernau am Chiemsee", "country": "", "latitude": 47.8116312, "longitude": 12.3733927, "population": 0, "elevation": null, "source": "osm"}, {"name": "Übersee", "country": "", "latitude": 47.8195907, "longitude": 12.4802068, "population": 4847, "elevation": 526.0, "source": "osm"}, {"name": "Feldwies", "country": "", "latitude": 47.8337002, "longitude": 12.4818678, "population": 0, "elevation": null, "source": "osm"}, {"name": "Prutdorf", "country": "", "latitude": 47.8339427, "longitude": 12.3110636, "population": 0, "elevation": null, "source": "osm"}, {"name": "Bachham", "country": "", "latitude": 47.8451122, "longitude": 12.3153406, "population": 0, "elevation": null, "source": "osm"}, {"name": "Gstadt am Chiemsee", "country": "", "latitude": 47.8864875, "longitude": 12.4175918, "population": 1368, "elevation": null, "source": "osm"}, {"name": "Klosterseeon", "country": "", "latitude": 47.9747936, "longitude": 12.4455936, "population": 0, "elevation": null, "source": "osm"}, {"name": "Lofer", "country": "", "latitude": 47.5866984, "longitude": 12.6934197, "population": 1129, "elevation": null, "source": "osm"}, {"name": "Wildenwart", "country": "", "latitude": 47.8273959, "longitude": 12.3102537, "population": 0, "elevation": null, "source": "osm"}, {"name": "Unterjettenberg", "country": "", "latitude": 47.6776747, "longitude": 12.8246665, "population": 0, "elevation": null, "source": "osm"}, {"name": "Schneizlreuth", "country": "", "latitude": 47.6893422, "longitude": 12.8039604, "population": 1469, "elevation": null, "source": "osm"}, {"name": "Taufkirchen (Vils)", "country": "", "latitude": 48.3441996, "longitude": 12.1311312, "population": 9265, "elevation": null, "source": "osm"}, {"name": "Pfraundorf", "country": "", "latitude": 47.8050474, "longitude": 12.118143, "population": 1746, "elevation": null, "source": "osm"}, {"name": "Atzing", "country": "", "latitude": 47.8443195, "longitude": 12.3092849, "population": 0, "elevation": null, "source": "osm"}, {"name": "Aßling", "country": "", "latitude": 47.9927671, "longitude": 12.0058332, "population": 4261, "elevation": null, "source": "osm"}, {"name": "Lorenzenberg", "country": "", "latitude": 47.9980489, "longitude": 11.9723322, "population": 0, "elevation": null, "source": "osm"}, {"name": "Schalldorf", "country": "", "latitude": 47.9966704, "longitude": 12.0801634, "population": 0, "elevation": null, "source": "osm"}, {"name": "Berganger", "country": "", "latitude": 47.9792175, "longitude": 11.9174493, "population": 0, "elevation": null, "source": "osm"}, {"name": "Forsting", "country": "", "latitude": 48.0806104, "longitude": 12.0907624, "population": 0, "elevation": null, "source": "osm"}, {"name": "Tulling", "country": "", "latitude": 48.0825254, "longitude": 12.0605232, "population": 500, "elevation": null, "source": "osm"}, {"name": "Moosen", "country": "", "latitude": 47.8636467, "longitude": 12.2599689, "population": 0, "elevation": null, "source": "osm"}, {"name": "Söllhuben", "country": "", "latitude": 47.8335116, "longitude": 12.25331, "population": 0, "elevation": null, "source": "osm"}, {"name": "Pfaffenbichl", "country": "", "latitude": 47.827698, "longitude": 12.2580164, "population": 0, "elevation": null, "source": "osm"}, {"name": "Moosham", "country": "", "latitude": 48.18658, "longitude": 12.1437916, "population": 0, "elevation": null, "source": "osm"}, {"name": "Marquartstein", "country": "", "latitude": 47.7608226, "longitude": 12.4604809, "population": 3105, "elevation": 546.0, "source": "osm"}, {"name": "Oberwössen", "country": "", "latitude": 47.7088825, "longitude": 12.4812041, "population": 0, "elevation": null, "source": "osm"}, {"name": "Schleching", "country": "", "latitude": 47.7209304, "longitude": 12.395497, "population": 1773, "elevation": null, "source": "osm"}, {"name": "Walchsee", "country": "", "latitude": 47.6512311, "longitude": 12.3186415, "population": 725, "elevation": null, "source": "osm"}, {"name": "Sondermoning", "country": "", "latitude": 47.9123691, "longitude": 12.5594511, "population": 600, "elevation": null, "source": "osm"}, {"name": "Lauterbach", "country": "", "latitude": 48.0479583, "longitude": 12.0550476, "population": 0, "elevation": null, "source": "osm"}, {"name": "Frauenneuharting", "country": "", "latitude": 48.0391343, "longitude": 12.0480543, "population": 0, "elevation": null, "source": "osm"}, {"name": "Gersdorf", "country": "", "latitude": 48.0152793, "longitude": 12.0374255, "population": 0, "elevation": null, "source": "osm"}, {"name": "Tegernau", "country": "", "latitude": 48.0209778, "longitude": 12.040371, "population": 0, "elevation": null, "source": "osm"}, {"name": "Albaching", "country": "", "latitude": 48.1103044, "longitude": 12.1112803, "population": 1575, "elevation": null, "source": "osm"}, {"name": "Rettenbach", "country": "", "latitude": 48.0262682, "longitude": 12.0925788, "population": 0, "elevation": null, "source": "osm"}, {"name": "Rattenberg", "country": "", "latitude": 47.4398841, "longitude": 11.8941106, "population": 440, "elevation": null, "source": "osm"}, {"name": "Radfeld", "country": "", "latitude": 47.4464064, "longitude": 11.907867, "population": 2143, "elevation": null, "source": "osm"}, {"name": "Schönau", "country": "", "latitude": 47.5081239, "longitude": 11.9942451, "population": 781, "elevation": 593.0, "source": "osm"}, {"name": "Wolkersdorf", "country": "", "latitude": 47.8798793, "longitude": 12.6074324, "population": 2488, "elevation": null, "source": "osm"}, {"name": "Untereching", "country": "", "latitude": 47.9750526, "longitude": 12.8823927, "population": 584, "elevation": null, "source": "osm"}, {"name": "Leogang", "country": "", "latitude": 47.4386347, "longitude": 12.759888, "population": 389, "elevation": null, "source": "osm"}, {"name": "Gars-Bahnhof", "country": "", "latitude": 48.1469266, "longitude": 12.3001136, "population": 0, "elevation": null, "source": "osm"}, {"name": "Emmerting", "country": "", "latitude": 48.2004242, "longitude": 12.7666283, "population": 4037, "elevation": null, "source": "osm"}, {"name": "Kloster Moosen", "country": "", "latitude": 48.2670092, "longitude": 12.1747072, "population": 0, "elevation": null, "source": "osm"}, {"name": "Schwindkirchen", "country": "", "latitude": 48.2590641, "longitude": 12.2137189, "population": 0, "elevation": null, "source": "osm"}, {"name": "Schwindegg", "country": "", "latitude": 48.2720696, "longitude": 12.2611725, "population": 3524, "elevation": null, "source": "osm"}, {"name": "Hampersdorf", "country": "", "latitude": 48.2846833, "longitude": 12.1730876, "population": 0, "elevation": null, "source": "osm"}, {"name": "Wasentegernbach", "country": "", "latitude": 48.2753304, "longitude": 12.214754, "population": 0, "elevation": null, "source": "osm"}, {"name": "Hubenstein", "country": "", "latitude": 48.3525512, "longitude": 12.1813494, "population": 0, "elevation": null, "source": "osm"}, {"name": "Obertaufkirchen", "country": "", "latitude": 48.2622803, "longitude": 12.2794386, "population": 2431, "elevation": null, "source": "osm"}, {"name": "Langengeisling", "country": "", "latitude": 48.3298765, "longitude": 11.9261079, "population": 2124, "elevation": null, "source": "osm"}, {"name": "Wurmsham", "country": "", "latitude": 48.3430488, "longitude": 12.3374368, "population": 1415, "elevation": null, "source": "osm"}, {"name": "Jakobrettenbach", "country": "", "latitude": 48.3131044, "longitude": 12.1699293, "population": 0, "elevation": null, "source": "osm"}, {"name": "Schönau", "country": "", "latitude": 47.949707, "longitude": 11.9679391, "population": 0, "elevation": null, "source": "osm"}, {"name": "Irschenberg", "country": "", "latitude": 47.8337585, "longitude": 11.9158893, "population": 0, "elevation": 731.0, "source": "osm"}, {"name": "Götting", "country": "", "latitude": 47.8630966, "longitude": 11.9449065, "population": 0, "elevation": null, "source": "osm"}, {"name": "Biberg", "country": "", "latitude": 47.9589729, "longitude": 11.9559042, "population": 0, "elevation": null, "source": "osm"}, {"name": "Pang", "country": "", "latitude": 47.8246167, "longitude": 12.0944248, "population": 0, "elevation": null, "source": "osm"}, {"name": "Petting", "country": "", "latitude": 47.9134668, "longitude": 12.8141114, "population": 2347, "elevation": null, "source": "osm"}, {"name": "St. Radegund", "country": "", "latitude": 48.0965003, "longitude": 12.7631846, "population": 589, "elevation": null, "source": "osm"}, {"name": "Trimmelkam", "country": "", "latitude": 48.0270998, "longitude": 12.8644116, "population": 399, "elevation": null, "source": "osm"}, {"name": "Dorfheim", "country": "", "latitude": 47.4321815, "longitude": 12.8360831, "population": 893, "elevation": null, "source": "osm"}, {"name": "Steinhöring", "country": "", "latitude": 48.0870851, "longitude": 12.0298168, "population": 4096, "elevation": 519.0, "source": "osm"}, {"name": "Ramerberg", "country": "", "latitude": 48.0181473, "longitude": 12.1440524, "population": 1340, "elevation": null, "source": "osm"}, {"name": "Lenzing", "country": "", "latitude": 47.4463638, "longitude": 12.8169752, "population": 391, "elevation": null, "source": "osm"}, {"name": "Taufkirchen", "country": "", "latitude": 48.1476808, "longitude": 12.4545662, "population": 1304, "elevation": null, "source": "osm"}, {"name": "Oberaudorf", "country": "", "latitude": 47.6485636, "longitude": 12.1719882, "population": 4775, "elevation": null, "source": "osm"}, {"name": "Engelsberg", "country": "", "latitude": 48.1156289, "longitude": 12.5435719, "population": 2701, "elevation": null, "source": "osm"}, {"name": "Grafing bei München", "country": "", "latitude": 48.0453808, "longitude": 11.966071, "population": 14096, "elevation": null, "source": "osm"}, {"name": "Oberndorf in Tirol", "country": "", "latitude": 47.499863, "longitude": 12.3832433, "population": 1969, "elevation": null, "source": "osm"}, {"name": "Niederndorf", "country": "", "latitude": 47.6500522, "longitude": 12.2137047, "population": 2648, "elevation": null, "source": "osm"}, {"name": "Fridolfing", "country": "", "latitude": 47.9980103, "longitude": 12.8256389, "population": 4271, "elevation": null, "source": "osm"}, {"name": "Obsmarkt", "country": "", "latitude": 47.4348711, "longitude": 12.8531168, "population": 302, "elevation": null, "source": "osm"}, {"name": "Duttendorf", "country": "", "latitude": 48.1600408, "longitude": 12.8411963, "population": 742, "elevation": null, "source": "osm"}, {"name": "Inning am Holz", "country": "", "latitude": 48.3483977, "longitude": 12.0759324, "population": 1432, "elevation": null, "source": "osm"}, {"name": "St. Ulrich am Pillersee", "country": "", "latitude": 47.5283873, "longitude": 12.5745465, "population": 1441, "elevation": null, "source": "osm"}, {"name": "Niedertaufkirchen", "country": "", "latitude": 48.3299353, "longitude": 12.5496371, "population": 1336, "elevation": null, "source": "osm"}, {"name": "Geratskirchen", "country": "", "latitude": 48.3375764, "longitude": 12.6620784, "population": 873, "elevation": null, "source": "osm"}, {"name": "Ostermiething", "country": "", "latitude": 48.0459363, "longitude": 12.8303402, "population": 3021, "elevation": null, "source": "osm"}, {"name": "Schönberg", "country": "", "latitude": 48.3416104, "longitude": 12.4407516, "population": 929, "elevation": null, "source": "osm"}, {"name": "Breitbrunn am Chiemsee", "country": "", "latitude": 47.8904604, "longitude": 12.400385, "population": 0, "elevation": 537.0, "source": "osm"}, {"name": "Erl", "country": "", "latitude": 47.6817612, "longitude": 12.1815044, "population": 1448, "elevation": null, "source": "osm"}, {"name": "Bergen", "country": "", "latitude": 47.8065264, "longitude": 12.5897834, "population": 4845, "elevation": null, "source": "osm"}, {"name": "Hochburg", "country": "", "latitude": 48.1295081, "longitude": 12.877479, "population": 120, "elevation": null, "source": "osm"}, {"name": "Palling", "country": "", "latitude": 48.000387, "longitude": 12.6389258, "population": 3456, "elevation": null, "source": "osm"}, {"name": "Scheffau am Wilden Kaiser", "country": "", "latitude": 47.5284373, "longitude": 12.2507041, "population": 1333, "elevation": null, "source": "osm"}, {"name": "Schnaitsee", "country": "", "latitude": 48.0702334, "longitude": 12.3686999, "population": 3588, "elevation": null, "source": "osm"}, {"name": "Pastetten", "country": "", "latitude": 48.1991807, "longitude": 11.9434246, "population": 2529, "elevation": null, "source": "osm"}, {"name": "Kienberg", "country": "", "latitude": 48.0358261, "longitude": 12.46226, "population": 1395, "elevation": null, "source": "osm"}, {"name": "Unterreit", "country": "", "latitude": 48.1201191, "longitude": 12.3338335, "population": 1689, "elevation": null, "source": "osm"}, {"name": "Heldenstein", "country": "", "latitude": 48.2415145, "longitude": 12.363229, "population": 2407, "elevation": null, "source": "osm"}, {"name": "Achleit", "country": "", "latitude": 47.4961263, "longitude": 12.0459486, "population": 312, "elevation": null, "source": "osm"}, {"name": "Riedersbach", "country": "", "latitude": 48.0232576, "longitude": 12.8473482, "population": 906, "elevation": null, "source": "osm"}, {"name": "Zeilarn", "country": "", "latitude": 48.3006126, "longitude": 12.83895, "population": 2244, "elevation": null, "source": "osm"}, {"name": "Sankt Martin bei Lofer", "country": "", "latitude": 47.5660104, "longitude": 12.7064192, "population": 1160, "elevation": null, "source": "osm"}, {"name": "Bockhorn", "country": "", "latitude": 48.3136408, "longitude": 11.98632, "population": 4005, "elevation": 460.0, "source": "osm"}, {"name": "Wurmannsquick", "country": "", "latitude": 48.3534641, "longitude": 12.7875267, "population": 3698, "elevation": null, "source": "osm"}, {"name": "Reischach", "country": "", "latitude": 48.2933938, "longitude": 12.72391, "population": 2632, "elevation": null, "source": "osm"}, {"name": "Siegsdorf", "country": "", "latitude": 47.8233812, "longitude": 12.6428177, "population": 8382, "elevation": 600.0, "source": "osm"}, {"name": "Kastl", "country": "", "latitude": 48.195138, "longitude": 12.6959441, "population": 2673, "elevation": null, "source": "osm"}, {"name": "Rattenkirchen", "country": "", "latitude": 48.2416428, "longitude": 12.3138268, "population": 951, "elevation": null, "source": "osm"}, {"name": "Hirnreit", "country": "", "latitude": 47.4356264, "longitude": 12.7750884, "population": 426, "elevation": null, "source": "osm"}, {"name": "Feichten an der Alz", "country": "", "latitude": 48.0809578, "longitude": 12.5956307, "population": 1197, "elevation": null, "source": "osm"}, {"name": "Hadermarkt", "country": "", "latitude": 48.0894281, "longitude": 12.7788659, "population": 508, "elevation": null, "source": "osm"}, {"name": "Neumarkt-Sankt Veit", "country": "", "latitude": 48.3607951, "longitude": 12.5083828, "population": 6256, "elevation": null, "source": "osm"}, {"name": "Hohlwegen", "country": "", "latitude": 47.480919, "longitude": 12.8315809, "population": 66, "elevation": null, "source": "osm"}, {"name": "Ebbs", "country": "", "latitude": 47.630874, "longitude": 12.2154318, "population": 5023, "elevation": null, "source": "osm"}, {"name": "Emmering", "country": "", "latitude": 47.9972778, "longitude": 12.0551783, "population": 1405, "elevation": null, "source": "osm"}, {"name": "Eggstätt", "country": "", "latitude": 47.9267455, "longitude": 12.3799269, "population": 2887, "elevation": null, "source": "osm"}, {"name": "Hinterthiersee", "country": "", "latitude": 47.5839477, "longitude": 12.0666935, "population": 602, "elevation": null, "source": "osm"}, {"name": "Burghausen", "country": "", "latitude": 48.1588645, "longitude": 12.8329419, "population": 17715, "elevation": 421.0, "source": "osm"}, {"name": "Tacherting", "country": "", "latitude": 48.0790001, "longitude": 12.5705051, "population": 5645, "elevation": null, "source": "osm"}, {"name": "Jettenbach", "country": "", "latitude": 48.1687715, "longitude": 12.3811715, "population": 728, "elevation": null, "source": "osm"}, {"name": "Mettenheim", "country": "", "latitude": 48.265898, "longitude": 12.4641168, "population": 3277, "elevation": null, "source": "osm"}, {"name": "Polling", "country": "", "latitude": 48.2145951, "longitude": 12.5597508, "population": 3454, "elevation": null, "source": "osm"}, {"name": "Eitting", "country": "", "latitude": 48.358828, "longitude": 11.8908175, "population": 2478, "elevation": null, "source": "osm"}, {"name": "Aschau am Inn", "country": "", "latitude": 48.197888, "longitude": 12.3516386, "population": 3131, "elevation": 457.0, "source": "osm"}, {"name": "Haigermoos", "country": "", "latitude": 48.0444121, "longitude": 12.8824738, "population": 580, "elevation": 470.0, "source": "osm"}, {"name": "Rain", "country": "", "latitude": 47.4350818, "longitude": 12.7349579, "population": 229, "elevation": null, "source": "osm"}, {"name": "Sankt Georgen bei Salzburg", "country": "", "latitude": 47.994607, "longitude": 12.8795575, "population": 220, "elevation": null, "source": "osm"}, {"name": "Tarsdorf", "country": "", "latitude": 48.0786825, "longitude": 12.8267386, "population": 511, "elevation": null, "source": "osm"}, {"name": "Brandenberg", "country": "", "latitude": 47.4901867, "longitude": 11.8939235, "population": 1524, "elevation": null, "source": "osm"}, {"name": "Kirchberg in Tirol", "country": "", "latitude": 47.4475913, "longitude": 12.3144495, "population": 5223, "elevation": null, "source": "osm"}, {"name": "Rohrdorf", "country": "", "latitude": 47.7990707, "longitude": 12.1675812, "population": 5458, "elevation": null, "source": "osm"}, {"name": "Velden", "country": "", "latitude": 48.3661998, "longitude": 12.2549189, "population": 6520, "elevation": null, "source": "osm"}, {"name": "Oberbergkirchen", "country": "", "latitude": 48.3056741, "longitude": 12.3865738, "population": 1660, "elevation": null, "source": "osm"}, {"name": "Grießen", "country": "", "latitude": 47.4526573, "longitude": 12.6656039, "population": 79, "elevation": null, "source": "osm"}, {"name": "Kirchweidach", "country": "", "latitude": 48.0849473, "longitude": 12.64315, "population": 2296, "elevation": null, "source": "osm"}, {"name": "Babensham", "country": "", "latitude": 48.0812405, "longitude": 12.2693623, "population": 2873, "elevation": null, "source": "osm"}, {"name": "Wildshut", "country": "", "latitude": 48.0072368, "longitude": 12.8660256, "population": 145, "elevation": null, "source": "osm"}, {"name": "Tüßling", "country": "", "latitude": 48.2126986, "longitude": 12.6003582, "population": 3054, "elevation": null, "source": "osm"}, {"name": "Lauterbach", "country": "", "latitude": 47.4500554, "longitude": 12.2607583, "population": 714, "elevation": null, "source": "osm"}, {"name": "Stammham", "country": "", "latitude": 48.2500011, "longitude": 12.8832962, "population": 1065, "elevation": null, "source": "osm"}, {"name": "Wörth", "country": "", "latitude": 48.2455026, "longitude": 11.9026032, "population": 4358, "elevation": 495.0, "source": "osm"}, {"name": "Isen", "country": "", "latitude": 48.2120342, "longitude": 12.0571384, "population": 5522, "elevation": 519.0, "source": "osm"}, {"name": "Kirchanschöring", "country": "", "latitude": 47.9554748, "longitude": 12.8334372, "population": 3288, "elevation": null, "source": "osm"}, {"name": "Griesstätt", "country": "", "latitude": 47.9944149, "longitude": 12.1774939, "population": 2590, "elevation": null, "source": "osm"}, {"name": "Tyrlaching", "country": "", "latitude": 48.0609552, "longitude": 12.6675105, "population": 1028, "elevation": null, "source": "osm"}, {"name": "Schwoich", "country": "", "latitude": 47.5440468, "longitude": 12.1407757, "population": 2520, "elevation": null, "source": "osm"}, {"name": "Sinning", "country": "", "latitude": 47.4451833, "longitude": 12.7760332, "population": 198, "elevation": null, "source": "osm"}, {"name": "Perach", "country": "", "latitude": 48.2660795, "longitude": 12.7678316, "population": 1351, "elevation": null, "source": "osm"}, {"name": "Riedering", "country": "", "latitude": 47.8394639, "longitude": 12.2069217, "population": 5342, "elevation": null, "source": "osm"}, {"name": "Wiesersberg", "country": "", "latitude": 47.4511898, "longitude": 12.8082468, "population": 322, "elevation": null, "source": "osm"}, {"name": "Dorfen", "country": "", "latitude": 48.272779, "longitude": 12.1505507, "population": 14052, "elevation": null, "source": "osm"}, {"name": "Bruck", "country": "", "latitude": 48.0212017, "longitude": 11.9076128, "population": 1184, "elevation": null, "source": "osm"}, {"name": "Forstinning", "country": "", "latitude": 48.1682027, "longitude": 11.9124301, "population": 3376, "elevation": null, "source": "osm"}, {"name": "Hopfgarten im Brixental", "country": "", "latitude": 47.4504996, "longitude": 12.1558791, "population": 5365, "elevation": null, "source": "osm"}, {"name": "Kraiburg am Inn", "country": "", "latitude": 48.1819246, "longitude": 12.4287163, "population": 4091, "elevation": null, "source": "osm"}, {"name": "St. Leonhard am Wonneberg", "country": "", "latitude": 47.9156489, "longitude": 12.7192798, "population": 1449, "elevation": null, "source": "osm"}, {"name": "Ullach", "country": "", "latitude": 47.4480718, "longitude": 12.7668758, "population": 122, "elevation": null, "source": "osm"}, {"name": "Brixen im Thale", "country": "", "latitude": 47.4494684, "longitude": 12.2494696, "population": 2598, "elevation": null, "source": "osm"}, {"name": "Überackern", "country": "", "latitude": 48.1931447, "longitude": 12.8760256, "population": 209, "elevation": null, "source": "osm"}, {"name": "Kirchdorf in Tirol", "country": "", "latitude": 47.5586658, "longitude": 12.4489994, "population": 3492, "elevation": null, "source": "osm"}, {"name": "Aschau", "country": "", "latitude": 47.5096917, "longitude": 11.8890843, "population": 395, "elevation": null, "source": "osm"}, {"name": "Stephanskirchen", "country": "", "latitude": 47.8554023, "longitude": 12.1843546, "population": 0, "elevation": null, "source": "osm"}, {"name": "Waidring", "country": "", "latitude": 47.5842705, "longitude": 12.5687421, "population": 1899, "elevation": null, "source": "osm"}, {"name": "Halsbach", "country": "", "latitude": 48.1252686, "longitude": 12.6756254, "population": 885, "elevation": null, "source": "osm"}, {"name": "Samerberg", "country": "", "latitude": 47.7833, "longitude": 12.2167, "population": 2615, "elevation": null, "source": "osm"}, {"name": "Lengdorf", "country": "", "latitude": 48.2542338, "longitude": 12.0508366, "population": 2728, "elevation": 473.0, "source": "osm"}, {"name": "Teising", "country": "", "latitude": 48.2271495, "longitude": 12.6112847, "population": 1933, "elevation": null, "source": "osm"}, {"name": "Vorderthiersee", "country": "", "latitude": 47.5948303, "longitude": 12.1180112, "population": 1679, "elevation": null, "source": "osm"}, {"name": "Erlbach", "country": "", "latitude": 48.3083682, "longitude": 12.784312, "population": 1233, "elevation": null, "source": "osm"}, {"name": "Bachwinkl", "country": "", "latitude": 47.4465379, "longitude": 12.8520129, "population": 62, "elevation": null, "source": "osm"}, {"name": "Oberndorf", "country": "", "latitude": 47.6171008, "longitude": 12.2114387, "population": 807, "elevation": null, "source": "osm"}, {"name": "Mitterskirchen", "country": "", "latitude": 48.3493403, "longitude": 12.7331661, "population": 2079, "elevation": null, "source": "osm"}, {"name": "Reichertsheim", "country": "", "latitude": 48.1985976, "longitude": 12.2874971, "population": 1654, "elevation": null, "source": "osm"}, {"name": "Pleiskirchen", "country": "", "latitude": 48.3056381, "longitude": 12.5963199, "population": 2348, "elevation": null, "source": "osm"}, {"name": "Surberg", "country": "", "latitude": 47.8620941, "longitude": 12.7054187, "population": 3170, "elevation": null, "source": "osm"}, {"name": "Kirchdorf bei Haag", "country": "", "latitude": 48.176609, "longitude": 12.19713, "population": 1290, "elevation": 551.0, "source": "osm"}, {"name": "Altenmarkt an der Alz", "country": "", "latitude": 48.0024333, "longitude": 12.5360462, "population": 4200, "elevation": null, "source": "osm"}, {"name": "Grabenstätt", "country": "", "latitude": 47.8430257, "longitude": 12.5417574, "population": 4090, "elevation": null, "source": "osm"}, {"name": "Fieberbrunn", "country": "", "latitude": 47.4762087, "longitude": 12.5454618, "population": 4300, "elevation": null, "source": "osm"}, {"name": "Ebersberg", "country": "", "latitude": 48.0782763, "longitude": 11.9694372, "population": 11132, "elevation": null, "source": "osm"}, {"name": "Erharting", "country": "", "latitude": 48.2773744, "longitude": 12.5768979, "population": 948, "elevation": null, "source": "osm"}, {"name": "Erpfendorf", "country": "", "latitude": 47.5761037, "longitude": 12.4780969, "population": 0, "elevation": null, "source": "osm"}, {"name": "Berg", "country": "", "latitude": 47.4479674, "longitude": 12.697437, "population": 130, "elevation": null, "source": "osm"}, {"name": "Breitenbach am Inn", "country": "", "latitude": 47.4785413, "longitude": 11.9737896, "population": 3475, "elevation": null, "source": "osm"}, {"name": "Taching am See", "country": "", "latitude": 47.9613232, "longitude": 12.7261058, "population": 1941, "elevation": null, "source": "osm"}, {"name": "Vachendorf", "country": "", "latitude": 47.8430597, "longitude": 12.6047113, "population": 1804, "elevation": null, "source": "osm"}, {"name": "Nußdorf", "country": "", "latitude": 47.9056898, "longitude": 12.596737, "population": 2449, "elevation": 603.0, "source": "osm"}, {"name": "Staudach", "country": "", "latitude": 47.7809303, "longitude": 12.4799498, "population": 1110, "elevation": null, "source": "osm"}, {"name": "Forstern", "country": "", "latitude": 48.1840494, "longitude": 11.9767205, "population": 3345, "elevation": null, "source": "osm"}, {"name": "Ellmau", "country": "", "latitude": 47.5136972, "longitude": 12.3024747, "population": 2676, "elevation": null, "source": "osm"}, {"name": "Söll", "country": "", "latitude": 47.5037676, "longitude": 12.1914903, "population": 3578, "elevation": null, "source": "osm"}, {"name": "Rosental", "country": "", "latitude": 47.4421035, "longitude": 12.7681293, "population": 241, "elevation": null, "source": "osm"}, {"name": "Teisendorf", "country": "", "latitude": 47.849038, "longitude": 12.8218357, "population": 9115, "elevation": null, "source": "osm"}, {"name": "Unken", "country": "", "latitude": 47.6511097, "longitude": 12.7303379, "population": 371, "elevation": null, "source": "osm"}, {"name": "Sonnberg", "country": "", "latitude": 47.4470694, "longitude": 12.735945, "population": 635, "elevation": null, "source": "osm"}, {"name": "Oberneukirchen", "country": "", "latitude": 48.173534, "longitude": 12.5225471, "population": 818, "elevation": null, "source": "osm"}, {"name": "Schwendt", "country": "", "latitude": 47.6319693, "longitude": 12.3914614, "population": 764, "elevation": null, "source": "osm"}, {"name": "Lohkirchen", "country": "", "latitude": 48.3101291, "longitude": 12.4467928, "population": 678, "elevation": null, "source": "osm"}, {"name": "Seeon", "country": "", "latitude": 47.9765682, "longitude": 12.4598714, "population": 4505, "elevation": null, "source": "osm"}, {"name": "Walpertskirchen", "country": "", "latitude": 48.2589192, "longitude": 11.972518, "population": 2045, "elevation": 464.0, "source": "osm"}, {"name": "Grassau", "country": "", "latitude": 47.779457, "longitude": 12.4537954, "population": 6303, "elevation": 538.0, "source": "osm"}, {"name": "Niederbergkirchen", "country": "", "latitude": 48.312232, "longitude": 12.5075581, "population": 1244, "elevation": null, "source": "osm"}, {"name": "Anger", "country": "", "latitude": 47.8044937, "longitude": 12.8547005, "population": 4340, "elevation": null, "source": "osm"}, {"name": "Buchbach", "country": "", "latitude": 48.3126655, "longitude": 12.2730641, "population": 3158, "elevation": null, "source": "osm"}, {"name": "Embach", "country": "", "latitude": 47.5217376, "longitude": 12.0264833, "population": 259, "elevation": null, "source": "osm"}, {"name": "Gars am Inn", "country": "", "latitude": 48.1518983, "longitude": 12.2772031, "population": 3842, "elevation": null, "source": "osm"}, {"name": "Bruckmühl", "country": "", "latitude": 47.8828325, "longitude": 11.914614, "population": 15878, "elevation": 511.0, "source": "osm"}, {"name": "Euring", "country": "", "latitude": 47.4506369, "longitude": 12.8186102, "population": 191, "elevation": null, "source": "osm"}, {"name": "Rettenschöss", "country": "", "latitude": 47.6568865, "longitude": 12.26899, "population": 0, "elevation": 685.0, "source": "osm"}, {"name": "Inzell", "country": "", "latitude": 47.7633488, "longitude": 12.7492369, "population": 4345, "elevation": null, "source": "osm"}, {"name": "Pfaffing", "country": "", "latitude": 48.053862, "longitude": 12.1089154, "population": 3819, "elevation": null, "source": "osm"}, {"name": "Pirzbichl", "country": "", "latitude": 47.431627, "longitude": 12.7485546, "population": 67, "elevation": null, "source": "osm"}, {"name": "Schechen", "country": "", "latitude": 47.9293283, "longitude": 12.1235996, "population": 4500, "elevation": null, "source": "osm"}, {"name": "Unterneukirchen", "country": "", "latitude": 48.1657808, "longitude": 12.6187943, "population": 0, "elevation": null, "source": "osm"}, {"name": "Soyen", "country": "", "latitude": 48.1065973, "longitude": 12.2113356, "population": 2643, "elevation": null, "source": "osm"}, {"name": "Weißbach bei Lofer", "country": "", "latitude": 47.5220215, "longitude": 12.7525756, "population": 387, "elevation": null, "source": "osm"}, {"name": "Edling", "country": "", "latitude": 48.0568885, "longitude": 12.1636628, "population": 0, "elevation": null, "source": "osm"}, {"name": "Mühldorf am Inn", "country": "", "latitude": 48.2405007, "longitude": 12.5250991, "population": 20500, "elevation": null, "source": "osm"}, {"name": "Zangberg", "country": "", "latitude": 48.2760893, "longitude": 12.4249033, "population": 1010, "elevation": null, "source": "osm"}, {"name": "Reit im Winkl", "country": "", "latitude": 47.6767292, "longitude": 12.4703636, "population": 1261, "elevation": 692.0, "source": "osm"}, {"name": "Marktl", "country": "", "latitude": 48.2537608, "longitude": 12.8417327, "population": 2678, "elevation": null, "source": "osm"}, {"name": "Mehring", "country": "", "latitude": 48.1787828, "longitude": 12.7819975, "population": 2240, "elevation": null, "source": "osm"}, {"name": "Landl", "country": "", "latitude": 47.5890029, "longitude": 12.0354284, "population": 431, "elevation": null, "source": "osm"}, {"name": "Taglaching", "country": "", "latitude": 48.0407089, "longitude": 11.9248406, "population": 0, "elevation": null, "source": "osm"}, {"name": "Unterschwillach", "country": "", "latitude": 48.2196433, "longitude": 11.9090494, "population": 500, "elevation": null, "source": "osm"}, {"name": "Kleinhöhenrain", "country": "", "latitude": 47.9195815, "longitude": 11.9043715, "population": 0, "elevation": null, "source": "osm"}, {"name": "Kirchdorf am Haunpold", "country": "", "latitude": 47.8944421, "longitude": 11.9163254, "population": 0, "elevation": null, "source": "osm"}, {"name": "Mittenkirchen", "country": "", "latitude": 47.8705326, "longitude": 11.8970117, "population": 0, "elevation": null, "source": "osm"}, {"name": "Antholing", "country": "", "latitude": 47.9519825, "longitude": 11.9130158, "population": 0, "elevation": null, "source": "osm"}, {"name": "Hörlkofen", "country": "", "latitude": 48.242712, "longitude": 11.9374717, "population": 1000, "elevation": null, "source": "osm"}, {"name": "Unterstrogn", "country": "", "latitude": 48.327038, "longitude": 11.9755867, "population": 64, "elevation": null, "source": "osm"}, {"name": "Grünbach", "country": "", "latitude": 48.3324166, "longitude": 12.0018215, "population": 711, "elevation": null, "source": "osm"}, {"name": "Heufeldmühle", "country": "", "latitude": 47.8760689, "longitude": 11.9382346, "population": 0, "elevation": null, "source": "osm"}, {"name": "Hinrichssegen", "country": "", "latitude": 47.8714645, "longitude": 11.9406824, "population": 0, "elevation": null, "source": "osm"}, {"name": "Heufeld", "country": "", "latitude": 47.8743115, "longitude": 11.9646262, "population": 0, "elevation": null, "source": "osm"}, {"name": "Oberelkofen", "country": "", "latitude": 48.0241416, "longitude": 11.9608631, "population": 0, "elevation": null, "source": "osm"}, {"name": "Eisendorf", "country": "", "latitude": 48.0131884, "longitude": 11.9684928, "population": 0, "elevation": null, "source": "osm"}, {"name": "Fürstätt", "country": "", "latitude": 47.8548894, "longitude": 12.0979441, "population": 0, "elevation": null, "source": "osm"}, {"name": "Nicklheim", "country": "", "latitude": 47.7901116, "longitude": 12.0780615, "population": 0, "elevation": null, "source": "osm"}, {"name": "Stadl", "country": "", "latitude": 48.1280158, "longitude": 12.3173003, "population": 0, "elevation": null, "source": "osm"}, {"name": "Högling", "country": "", "latitude": 47.8879403, "longitude": 11.9503358, "population": 0, "elevation": null, "source": "osm"}, {"name": "Grucking", "country": "", "latitude": 48.3418035, "longitude": 11.9717074, "population": 284, "elevation": null, "source": "osm"}, {"name": "Piusheim", "country": "", "latitude": 47.9575543, "longitude": 11.8956171, "population": 0, "elevation": null, "source": "osm"}, {"name": "Thansau", "country": "", "latitude": 47.8211084, "longitude": 12.156831, "population": 0, "elevation": null, "source": "osm"}, {"name": "Niclasreuth", "country": "", "latitude": 47.9775051, "longitude": 11.9930611, "population": 0, "elevation": null, "source": "osm"}, {"name": "Stöttham", "country": "", "latitude": 47.9049199, "longitude": 12.5240582, "population": 0, "elevation": null, "source": "osm"}, {"name": "Zaisering", "country": "", "latitude": 47.9040868, "longitude": 12.1486507, "population": 0, "elevation": null, "source": "osm"}, {"name": "Großholzhausen", "country": "", "latitude": 47.7643524, "longitude": 12.0787741, "population": 0, "elevation": null, "source": "osm"}, {"name": "Hörafing", "country": "", "latitude": 47.8453406, "longitude": 12.8771677, "population": 0, "elevation": null, "source": "osm"}, {"name": "Oberdorfen", "country": "", "latitude": 48.273554, "longitude": 12.1222474, "population": 0, "elevation": null, "source": "osm"}, {"name": "Zeilhofen", "country": "", "latitude": 48.281663, "longitude": 12.1074686, "population": 0, "elevation": null, "source": "osm"}, {"name": "Landersdorf", "country": "", "latitude": 48.291284, "longitude": 12.0881766, "population": 0, "elevation": null, "source": "osm"}, {"name": "Esterndorf", "country": "", "latitude": 48.2685286, "longitude": 12.088121, "population": 0, "elevation": null, "source": "osm"}, {"name": "Unterelkofen", "country": "", "latitude": 48.0307893, "longitude": 11.9702168, "population": 0, "elevation": null, "source": "osm"}, {"name": "Truchtlaching", "country": "", "latitude": 47.9584444, "longitude": 12.5004194, "population": 0, "elevation": null, "source": "osm"}, {"name": "Lindach", "country": "", "latitude": 48.004004, "longitude": 12.5771034, "population": 0, "elevation": null, "source": "osm"}, {"name": "Stein an der Traun", "country": "", "latitude": 47.9832438, "longitude": 12.5472652, "population": 0, "elevation": null, "source": "osm"}, {"name": "Marwang", "country": "", "latitude": 47.8531327, "longitude": 12.5631123, "population": 0, "elevation": null, "source": "osm"}, {"name": "Erlstätt", "country": "", "latitude": 47.8735435, "longitude": 12.5886433, "population": 0, "elevation": 559.0, "source": "osm"}, {"name": "Hart", "country": "", "latitude": 47.9276563, "longitude": 12.5493006, "population": 0, "elevation": null, "source": "osm"}, {"name": "Knesing", "country": "", "latitude": 47.9444174, "longitude": 12.5460002, "population": 0, "elevation": null, "source": "osm"}, {"name": "Niedergeislbach", "country": "", "latitude": 48.2703499, "longitude": 12.0615119, "population": 150, "elevation": null, "source": "osm"}, {"name": "Willing", "country": "", "latitude": 47.855273, "longitude": 11.984619, "population": 0, "elevation": null, "source": "osm"}, {"name": "Freimehring", "country": "", "latitude": 48.1183899, "longitude": 12.1507993, "population": 0, "elevation": null, "source": "osm"}, {"name": "Pienzenau", "country": "", "latitude": 48.0317505, "longitude": 11.924597, "population": 0, "elevation": null, "source": "osm"}, {"name": "Watzling", "country": "", "latitude": 48.2535476, "longitude": 12.1028788, "population": 0, "elevation": null, "source": "osm"}, {"name": "Reischenhart", "country": "", "latitude": 47.7691542, "longitude": 12.1090223, "population": 0, "elevation": null, "source": "osm"}, {"name": "Kalteneck", "country": "", "latitude": 48.1094262, "longitude": 12.0929573, "population": 132, "elevation": null, "source": "osm"}, {"name": "Asten", "country": "", "latitude": 48.0977854, "longitude": 12.723793, "population": 0, "elevation": null, "source": "osm"}, {"name": "Pirach", "country": "", "latitude": 48.1470964, "longitude": 12.7588076, "population": 0, "elevation": null, "source": "osm"}, {"name": "Holzen", "country": "", "latitude": 48.1576407, "longitude": 12.7299956, "population": 0, "elevation": null, "source": "osm"}, {"name": "Haslach", "country": "", "latitude": 47.8591847, "longitude": 12.6269167, "population": 3267, "elevation": null, "source": "osm"}, {"name": "Armstorf", "country": "", "latitude": 48.2514319, "longitude": 12.1614343, "population": 0, "elevation": null, "source": "osm"}, {"name": "Großschwindau", "country": "", "latitude": 48.230365, "longitude": 12.1388309, "population": 0, "elevation": null, "source": "osm"}, {"name": "Eibach", "country": "", "latitude": 48.30492, "longitude": 12.1549525, "population": 0, "elevation": null, "source": "osm"}, {"name": "Krottenmühl", "country": "", "latitude": 47.8886282, "longitude": 12.2432102, "population": 0, "elevation": null, "source": "osm"}, {"name": "Eichenkofen", "country": "", "latitude": 48.3466698, "longitude": 11.9232149, "population": 458, "elevation": null, "source": "osm"}, {"name": "Traunwalchen", "country": "", "latitude": 47.9398414, "longitude": 12.5998895, "population": 1422, "elevation": 556.0, "source": "osm"}, {"name": "Grüntegernbach", "country": "", "latitude": 48.294596, "longitude": 12.2144208, "population": 0, "elevation": null, "source": "osm"}, {"name": "Unterhofkirchen", "country": "", "latitude": 48.3061311, "longitude": 12.080235, "population": 0, "elevation": null, "source": "osm"}, {"name": "Tittenkofen", "country": "", "latitude": 48.3490251, "longitude": 11.95613, "population": 354, "elevation": null, "source": "osm"}, {"name": "Kopfsburg", "country": "", "latitude": 48.2527563, "longitude": 12.0817282, "population": 0, "elevation": null, "source": "osm"}, {"name": "Singlding", "country": "", "latitude": 48.3605635, "longitude": 11.9940843, "population": 0, "elevation": null, "source": "osm"}, {"name": "Maria Thalheim", "country": "", "latitude": 48.3664256, "longitude": 12.0341834, "population": 560, "elevation": null, "source": "osm"}, {"name": "Unterbierbach", "country": "", "latitude": 48.3537501, "longitude": 12.0558907, "population": 0, "elevation": null, "source": "osm"}, {"name": "Hienraching", "country": "", "latitude": 48.3372079, "longitude": 12.0722906, "population": 0, "elevation": null, "source": "osm"}, {"name": "Großwimpasing", "country": "", "latitude": 48.3628752, "longitude": 12.0724443, "population": 0, "elevation": null, "source": "osm"}, {"name": "Eldering", "country": "", "latitude": 48.3548091, "longitude": 12.1045078, "population": 0, "elevation": null, "source": "osm"}, {"name": "Freutsmoos", "country": "", "latitude": 48.0381609, "longitude": 12.6575055, "population": 0, "elevation": null, "source": "osm"}, {"name": "Eisenärzt", "country": "", "latitude": 47.798074, "longitude": 12.6396406, "population": 0, "elevation": null, "source": "osm"}, {"name": "Mittbach", "country": "", "latitude": 48.1653248, "longitude": 12.0289851, "population": 0, "elevation": null, "source": "osm"}, {"name": "Pemmering", "country": "", "latitude": 48.1699329, "longitude": 12.0288704, "population": 0, "elevation": null, "source": "osm"}, {"name": "Haiden", "country": "", "latitude": 48.1458676, "longitude": 12.2906993, "population": 0, "elevation": null, "source": "osm"}, {"name": "Attel", "country": "", "latitude": 48.0256305, "longitude": 12.1763511, "population": 0, "elevation": null, "source": "osm"}, {"name": "Reichenkirchen", "country": "", "latitude": 48.3584477, "longitude": 11.9769439, "population": 567, "elevation": null, "source": "osm"}, {"name": "Emertsham", "country": "", "latitude": 48.0707809, "longitude": 12.4890243, "population": 0, "elevation": null, "source": "osm"}, {"name": "Wald bei Winhöring", "country": "", "latitude": 48.3126106, "longitude": 12.6589756, "population": 0, "elevation": null, "source": "osm"}, {"name": "Lehen", "country": "", "latitude": 48.0245028, "longitude": 12.1125631, "population": 0, "elevation": null, "source": "osm"}, {"name": "Winhöring", "country": "", "latitude": 48.2670046, "longitude": 12.6509702, "population": 4880, "elevation": null, "source": "osm"}, {"name": "Schönram", "country": "", "latitude": 47.8857782, "longitude": 12.8505941, "population": 0, "elevation": null, "source": "osm"}, {"name": "Holzhausen bei Teisendorf", "country": "", "latitude": 47.867492, "longitude": 12.8069784, "population": 0, "elevation": null, "source": "osm"}, {"name": "Surtal", "country": "", "latitude": 47.8674675, "longitude": 12.7056565, "population": 0, "elevation": null, "source": "osm"}, {"name": "Mauggen", "country": "", "latitude": 48.3026178, "longitude": 11.9857419, "population": 352, "elevation": null, "source": "osm"}, {"name": "Maierklopfen", "country": "", "latitude": 48.3030642, "longitude": 12.0382778, "population": 0, "elevation": null, "source": "osm"}, {"name": "Hörgersdorf", "country": "", "latitude": 48.3015423, "longitude": 12.0562005, "population": 0, "elevation": null, "source": "osm"}, {"name": "Brandlengdorf", "country": "", "latitude": 48.2627699, "longitude": 12.0539761, "population": 0, "elevation": null, "source": "osm"}, {"name": "Algasing", "country": "", "latitude": 48.3020333, "longitude": 12.1636407, "population": 0, "elevation": null, "source": "osm"}, {"name": "Wifling", "country": "", "latitude": 48.2339334, "longitude": 11.8865492, "population": 0, "elevation": null, "source": "osm"}, {"name": "Gebensbach", "country": "", "latitude": 48.3363986, "longitude": 12.2308579, "population": 0, "elevation": null, "source": "osm"}, {"name": "Geislbach", "country": "", "latitude": 48.3643642, "longitude": 12.1654431, "population": 0, "elevation": null, "source": "osm"}, {"name": "Jettenstetten", "country": "", "latitude": 48.3546983, "longitude": 12.2064618, "population": 0, "elevation": null, "source": "osm"}, {"name": "Kreuz", "country": "", "latitude": 48.3588452, "longitude": 12.2246964, "population": 0, "elevation": null, "source": "osm"}, {"name": "Niederaudorf", "country": "", "latitude": 47.6669413, "longitude": 12.1684313, "population": 0, "elevation": null, "source": "osm"}, {"name": "Oberteisendorf", "country": "", "latitude": 47.8528535, "longitude": 12.7891906, "population": 0, "elevation": null, "source": "osm"}, {"name": "Kirchötting", "country": "", "latitude": 48.2408448, "longitude": 11.917709, "population": 0, "elevation": null, "source": "osm"}, {"name": "Teufstetten", "country": "", "latitude": 48.251746, "longitude": 11.9149884, "population": 0, "elevation": null, "source": "osm"}, {"name": "Breitötting", "country": "", "latitude": 48.239057, "longitude": 11.9039692, "population": 0, "elevation": null, "source": "osm"}, {"name": "Penzing", "country": "", "latitude": 48.0714791, "longitude": 12.2496451, "population": 0, "elevation": null, "source": "osm"}, {"name": "Bärnham", "country": "", "latitude": 48.083734, "longitude": 12.260965, "population": 0, "elevation": null, "source": "osm"}, {"name": "Wimpasing", "country": "", "latitude": 47.8399016, "longitude": 12.6258774, "population": 0, "elevation": null, "source": "osm"}, {"name": "Kirchheim", "country": "", "latitude": 48.0409889, "longitude": 12.7810977, "population": 0, "elevation": null, "source": "osm"}, {"name": "Pietling", "country": "", "latitude": 48.0159353, "longitude": 12.7991637, "population": 0, "elevation": null, "source": "osm"}, {"name": "Kay", "country": "", "latitude": 48.0437535, "longitude": 12.7459638, "population": 0, "elevation": null, "source": "osm"}, {"name": "Tengling", "country": "", "latitude": 47.9942924, "longitude": 12.7272459, "population": 0, "elevation": null, "source": "osm"}, {"name": "Hufschlag", "country": "", "latitude": 47.8761348, "longitude": 12.6633199, "population": 0, "elevation": null, "source": "osm"}, {"name": "Axdorf", "country": "", "latitude": 47.8509543, "longitude": 12.6174789, "population": 0, "elevation": null, "source": "osm"}, {"name": "Marbach", "country": "", "latitude": 47.7250699, "longitude": 11.952429, "population": 0, "elevation": null, "source": "osm"}, {"name": "Hammer", "country": "", "latitude": 47.7039146, "longitude": 11.9368351, "population": 0, "elevation": null, "source": "osm"}, {"name": "Gumattenkirchen", "country": "", "latitude": 48.2997736, "longitude": 12.4846149, "population": 0, "elevation": null, "source": "osm"}, {"name": "Weißbach an der Alpenstraße", "country": "", "latitude": 47.7208372, "longitude": 12.7689162, "population": 0, "elevation": 610.0, "source": "osm"}, {"name": "Hirschhorn", "country": "", "latitude": 48.362276, "longitude": 12.7562322, "population": 0, "elevation": null, "source": "osm"}, {"name": "Lengmoos", "country": "", "latitude": 48.1410622, "longitude": 12.2198283, "population": 0, "elevation": null, "source": "osm"}, {"name": "Frabertsham", "country": "", "latitude": 48.0259364, "longitude": 12.3704641, "population": 0, "elevation": null, "source": "osm"}, {"name": "Otting", "country": "", "latitude": 47.9370924, "longitude": 12.6989957, "population": 0, "elevation": null, "source": "osm"}, {"name": "Kammer", "country": "", "latitude": 47.9239196, "longitude": 12.6515191, "population": 1465, "elevation": null, "source": "osm"}, {"name": "Mößling", "country": "", "latitude": 48.2666952, "longitude": 12.5214001, "population": 0, "elevation": null, "source": "osm"}, {"name": "Jechling", "country": "", "latitude": 47.781319, "longitude": 12.8840148, "population": 0, "elevation": null, "source": "osm"}, {"name": "Neuhausen", "country": "", "latitude": 47.9214566, "longitude": 12.6346554, "population": 0, "elevation": null, "source": "osm"}, {"name": "Steinhögl", "country": "", "latitude": 47.8222307, "longitude": 12.8723563, "population": 0, "elevation": null, "source": "osm"}, {"name": "Pullenhofen", "country": "", "latitude": 48.0298473, "longitude": 11.9139139, "population": 0, "elevation": null, "source": "osm"}, {"name": "Papferding", "country": "", "latitude": 48.2827362, "longitude": 11.9691115, "population": 0, "elevation": null, "source": "osm"}, {"name": "Breitasch", "country": "", "latitude": 48.2819364, "longitude": 11.9892167, "population": 0, "elevation": null, "source": "osm"}, {"name": "Englpolding", "country": "", "latitude": 48.2815365, "longitude": 11.9980144, "population": 0, "elevation": null, "source": "osm"}, {"name": "Kirchasch", "country": "", "latitude": 48.2887899, "longitude": 12.0002031, "population": 0, "elevation": null, "source": "osm"}, {"name": "Hart an der Alz", "country": "", "latitude": 48.1456423, "longitude": 12.6178969, "population": 0, "elevation": null, "source": "osm"}, {"name": "Wald an der Alz", "country": "", "latitude": 48.1288324, "longitude": 12.5960424, "population": 0, "elevation": null, "source": "osm"}, {"name": "Angerskirchen", "country": "", "latitude": 48.3144224, "longitude": 12.1116253, "population": 0, "elevation": null, "source": "osm"}, {"name": "Alxing", "country": "", "latitude": 48.0231046, "longitude": 11.9302637, "population": 0, "elevation": null, "source": "osm"}, {"name": "Obergeislbach", "country": "", "latitude": 48.2729865, "longitude": 12.0189031, "population": 0, "elevation": null, "source": "osm"}, {"name": "Litzldorf", "country": "", "latitude": 47.760845, "longitude": 12.0522864, "population": 0, "elevation": null, "source": "osm"}, {"name": "Neufahrn", "country": "", "latitude": 48.26095, "longitude": 11.9974584, "population": 0, "elevation": null, "source": "osm"}, {"name": "Thann", "country": "", "latitude": 48.2664157, "longitude": 12.041884, "population": 0, "elevation": null, "source": "osm"}, {"name": "Oberreith", "country": "", "latitude": 48.1153005, "longitude": 12.3219057, "population": 0, "elevation": null, "source": "osm"}, {"name": "Ranoldsberg", "country": "", "latitude": 48.308518, "longitude": 12.3336887, "population": 0, "elevation": null, "source": "osm"}, {"name": "Rabenden", "country": "", "latitude": 48.0033067, "longitude": 12.4707536, "population": 0, "elevation": null, "source": "osm"}, {"name": "Niklasreuth", "country": "", "latitude": 47.7847884, "longitude": 11.9206989, "population": 0, "elevation": null, "source": "osm"}, {"name": "Pauluszell", "country": "", "latitude": 48.3649831, "longitude": 12.3065756, "population": 0, "elevation": null, "source": "osm"}, {"name": "Seifriedswörth", "country": "", "latitude": 48.3374146, "longitude": 12.3535761, "population": 0, "elevation": null, "source": "osm"}, {"name": "Münster", "country": "", "latitude": 48.362185, "longitude": 12.3287527, "population": 0, "elevation": null, "source": "osm"}, {"name": "Kirchdorf am Inn", "country": "", "latitude": 47.7795631, "longitude": 12.1089407, "population": 0, "elevation": null, "source": "osm"}, {"name": "Ebing", "country": "", "latitude": 48.2148509, "longitude": 12.472722, "population": 0, "elevation": null, "source": "osm"}, {"name": "Pürten", "country": "", "latitude": 48.2011807, "longitude": 12.424677, "population": 0, "elevation": null, "source": "osm"}, {"name": "Happing", "country": "", "latitude": 47.8294338, "longitude": 12.1268445, "population": 0, "elevation": null, "source": "osm"}, {"name": "Außerbittlbach", "country": "", "latitude": 48.2430438, "longitude": 12.0292663, "population": 0, "elevation": null, "source": "osm"}, {"name": "Aham", "country": "", "latitude": 48.347529, "longitude": 12.1603382, "population": 0, "elevation": null, "source": "osm"}, {"name": "Ramsau", "country": "", "latitude": 48.1722566, "longitude": 12.2315368, "population": 0, "elevation": null, "source": "osm"}, {"name": "Mitterbuch", "country": "", "latitude": 48.2022456, "longitude": 12.0000107, "population": 0, "elevation": null, "source": "osm"}, {"name": "Schwabering", "country": "", "latitude": 47.9036417, "longitude": 12.2360819, "population": 0, "elevation": null, "source": "osm"}, {"name": "Obermoos", "country": "", "latitude": 47.8520904, "longitude": 12.7961322, "population": 0, "elevation": null, "source": "osm"}, {"name": "Achthal", "country": "", "latitude": 47.8353367, "longitude": 12.7763998, "population": 0, "elevation": null, "source": "osm"}, {"name": "Roßdorf", "country": "", "latitude": 47.835867, "longitude": 12.8503757, "population": 0, "elevation": null, "source": "osm"}, {"name": "Innerbittlbach", "country": "", "latitude": 48.2358926, "longitude": 12.0293807, "population": 0, "elevation": null, "source": "osm"}, {"name": "Traundorf", "country": "", "latitude": 47.8390814, "longitude": 12.63924, "population": 0, "elevation": null, "source": "osm"}, {"name": "Mehring", "country": "", "latitude": 47.8646593, "longitude": 12.7949734, "population": 0, "elevation": null, "source": "osm"}, {"name": "Roßbach", "country": "", "latitude": 48.3553572, "longitude": 12.5827165, "population": 0, "elevation": null, "source": "osm"}, {"name": "Punschern", "country": "", "latitude": 47.8569817, "longitude": 12.8453283, "population": 0, "elevation": null, "source": "osm"}, {"name": "Reit", "country": "", "latitude": 48.0546673, "longitude": 12.5659806, "population": 0, "elevation": null, "source": "osm"}, {"name": "Wörth", "country": "", "latitude": 48.2767959, "longitude": 12.2803664, "population": 0, "elevation": null, "source": "osm"}, {"name": "St. Georgen", "country": "", "latitude": 47.9706887, "longitude": 12.5615936, "population": 3000, "elevation": null, "source": "osm"}, {"name": "Abersdorf", "country": "", "latitude": 48.1010532, "longitude": 12.0362159, "population": 350, "elevation": null, "source": "osm"}, {"name": "Preisendorf", "country": "", "latitude": 48.1712616, "longitude": 11.9898583, "population": 0, "elevation": null, "source": "osm"}, {"name": "Ufering", "country": "", "latitude": 47.845814, "longitude": 12.8496172, "population": 0, "elevation": null, "source": "osm"}, {"name": "Granting", "country": "", "latitude": 48.35037, "longitude": 12.1731216, "population": 0, "elevation": null, "source": "osm"}, {"name": "Sterneck", "country": "", "latitude": 48.2922447, "longitude": 12.3250642, "population": 0, "elevation": null, "source": "osm"}, {"name": "Walkersaich", "country": "", "latitude": 48.2773651, "longitude": 12.3016331, "population": 135, "elevation": null, "source": "osm"}, {"name": "Salmanskirchen", "country": "", "latitude": 48.2747905, "longitude": 12.3844029, "population": 0, "elevation": null, "source": "osm"}, {"name": "Stefanskirchen", "country": "", "latitude": 48.279228, "longitude": 12.3530497, "population": 0, "elevation": null, "source": "osm"}, {"name": "Niedergottsau", "country": "", "latitude": 48.2401614, "longitude": 12.8793111, "population": 0, "elevation": null, "source": "osm"}, {"name": "Förgenthal", "country": "", "latitude": 48.0533112, "longitude": 12.5704822, "population": 0, "elevation": null, "source": "osm"}, {"name": "Lengloh", "country": "", "latitude": 48.0580188, "longitude": 12.5689555, "population": 0, "elevation": null, "source": "osm"}, {"name": "Wajon", "country": "", "latitude": 48.0671398, "longitude": 12.5791693, "population": 0, "elevation": null, "source": "osm"}, {"name": "Neuschalchen", "country": "", "latitude": 48.0653845, "longitude": 12.5736652, "population": 0, "elevation": null, "source": "osm"}, {"name": "Tinning", "country": "", "latitude": 48.0507909, "longitude": 12.5499749, "population": 0, "elevation": null, "source": "osm"}, {"name": "Eiberg", "country": "", "latitude": 48.340227, "longitude": 12.8822743, "population": 0, "elevation": null, "source": "osm"}, {"name": "Oberbrunn", "country": "", "latitude": 47.9642975, "longitude": 12.4163718, "population": 0, "elevation": null, "source": "osm"}, {"name": "Ising", "country": "", "latitude": 47.9246771, "longitude": 12.5054962, "population": 0, "elevation": null, "source": "osm"}, {"name": "Winden", "country": "", "latitude": 48.1706297, "longitude": 12.1518163, "population": 0, "elevation": null, "source": "osm"}, {"name": "Berg", "country": "", "latitude": 48.1780538, "longitude": 12.1761448, "population": 0, "elevation": null, "source": "osm"}, {"name": "Schönbrunn", "country": "", "latitude": 48.2097675, "longitude": 12.2175495, "population": 0, "elevation": null, "source": "osm"}, {"name": "Schildthurn", "country": "", "latitude": 48.3019443, "longitude": 12.8614029, "population": 0, "elevation": null, "source": "osm"}, {"name": "Mettenheim-Hart", "country": "", "latitude": 48.253967, "longitude": 12.4650914, "population": 3376, "elevation": 411.0, "source": "osm"}, {"name": "Niederndorf", "country": "", "latitude": 48.1921346, "longitude": 12.4217665, "population": 0, "elevation": null, "source": "osm"}, {"name": "Raiten", "country": "", "latitude": 47.7398069, "longitude": 12.4377004, "population": 0, "elevation": 571.0, "source": "osm"}, {"name": "Grafing-Bahnhof", "country": "", "latitude": 48.0441567, "longitude": 11.9405737, "population": 0, "elevation": null, "source": "osm"}, {"name": "Thunstetten", "country": "", "latitude": 47.8682196, "longitude": 12.6866601, "population": 0, "elevation": null, "source": "osm"}, {"name": "Ettenhausen", "country": "", "latitude": 47.7090146, "longitude": 12.38657, "population": 0, "elevation": null, "source": "osm"}, {"name": "Gaden", "country": "", "latitude": 47.9347618, "longitude": 12.7543577, "population": 0, "elevation": null, "source": "osm"}, {"name": "Rogglfing", "country": "", "latitude": 48.3503597, "longitude": 12.8415116, "population": 0, "elevation": null, "source": "osm"}, {"name": "Mitterland", "country": "", "latitude": 47.5889925, "longitude": 12.0963739, "population": 595, "elevation": null, "source": "osm"}, {"name": "Schmiedtal", "country": "", "latitude": 47.5951435, "longitude": 12.0712353, "population": 0, "elevation": null, "source": "osm"}, {"name": "Sankt Wolfgang", "country": "", "latitude": 48.2192116, "longitude": 12.1344678, "population": 4278, "elevation": null, "source": "osm"}, {"name": "Ach", "country": "", "latitude": 48.1561256, "longitude": 12.8350851, "population": 0, "elevation": null, "source": "osm"}, {"name": "Buch am Buchrain", "country": "", "latitude": 48.2157453, "longitude": 11.9936163, "population": 1461, "elevation": null, "source": "osm"}, {"name": "Kundl", "country": "", "latitude": 47.4691393, "longitude": 11.9845598, "population": 4464, "elevation": null, "source": "osm"}, {"name": "Holzhausen", "country": "", "latitude": 47.9536336, "longitude": 12.6813765, "population": 0, "elevation": null, "source": "osm"}, {"name": "Sankt Erasmus", "country": "", "latitude": 48.1924688, "longitude": 12.40935, "population": 0, "elevation": null, "source": "osm"}, {"name": "Tettenhausen", "country": "", "latitude": 47.9562624, "longitude": 12.7552977, "population": 288, "elevation": null, "source": "osm"}, {"name": "Pörsdorf", "country": "", "latitude": 48.009152, "longitude": 12.0112409, "population": 0, "elevation": null, "source": "osm"}, {"name": "Gasteig", "country": "", "latitude": 47.5603535, "longitude": 12.4153243, "population": 0, "elevation": null, "source": "osm"}, {"name": "Lampoding", "country": "", "latitude": 47.9429455, "longitude": 12.8014248, "population": 0, "elevation": null, "source": "osm"}, {"name": "Ringham", "country": "", "latitude": 47.896097, "longitude": 12.8215166, "population": 0, "elevation": null, "source": "osm"}, {"name": "Alzgern", "country": "", "latitude": 48.2416433, "longitude": 12.7541503, "population": 0, "elevation": null, "source": "osm"}, {"name": "Arbing", "country": "", "latitude": 48.3236551, "longitude": 12.7113637, "population": 0, "elevation": null, "source": "osm"}, {"name": "Jakobneuharting", "country": "", "latitude": 48.0296062, "longitude": 12.0463082, "population": 0, "elevation": null, "source": "osm"}, {"name": "Weibhausen", "country": "", "latitude": 47.8991895, "longitude": 12.6916554, "population": 0, "elevation": null, "source": "osm"}, {"name": "Bad Endorf", "country": "", "latitude": 47.906411, "longitude": 12.3013697, "population": 0, "elevation": null, "source": "osm"}, {"name": "Töging am Inn", "country": "", "latitude": 48.2547192, "longitude": 12.5864967, "population": 9357, "elevation": null, "source": "osm"}, {"name": "Neukirchen am Teisenberg", "country": "", "latitude": 47.8328604, "longitude": 12.7419919, "population": 0, "elevation": null, "source": "osm"}, {"name": "Kitzbühel", "country": "", "latitude": 47.4463585, "longitude": 12.3911473, "population": 8574, "elevation": null, "source": "osm"}, {"name": "Frauendorf", "country": "", "latitude": 48.198612, "longitude": 12.4865088, "population": 0, "elevation": null, "source": "osm"}, {"name": "St. Jakob in Haus", "country": "", "latitude": 47.498375, "longitude": 12.5502397, "population": 670, "elevation": null, "source": "osm"}, {"name": "Haunzenbergersöll", "country": "", "latitude": 48.3615449, "longitude": 12.3860446, "population": 0, "elevation": null, "source": "osm"}, {"name": "Gschwall", "country": "", "latitude": 47.7838366, "longitude": 12.7263265, "population": 0, "elevation": null, "source": "osm"}, {"name": "Wolfsberg", "country": "", "latitude": 47.8111492, "longitude": 12.6736504, "population": 0, "elevation": null, "source": "osm"}, {"name": "Rückstetten", "country": "", "latitude": 47.8732775, "longitude": 12.7810827, "population": 0, "elevation": null, "source": "osm"}, {"name": "Lauter", "country": "", "latitude": 47.8728309, "longitude": 12.7138029, "population": 0, "elevation": null, "source": "osm"}, {"name": "Unterau", "country": "", "latitude": 47.7856968, "longitude": 12.7349878, "population": 0, "elevation": null, "source": "osm"}, {"name": "Eck", "country": "", "latitude": 47.7663918, "longitude": 12.7638771, "population": 0, "elevation": null, "source": "osm"}, {"name": "Bernhaupten", "country": "", "latitude": 47.8240113, "longitude": 12.5954607, "population": 0, "elevation": null, "source": "osm"}, {"name": "Pfaffing", "country": "", "latitude": 47.8932098, "longitude": 12.5459746, "population": 0, "elevation": null, "source": "osm"}, {"name": "Frauenchiemsee", "country": "", "latitude": 47.8741947, "longitude": 12.426273, "population": 232, "elevation": null, "source": "osm"}, {"name": "Waging am See", "country": "", "latitude": 47.9335806, "longitude": 12.7341255, "population": 6888, "elevation": null, "source": "osm"}, {"name": "Haag in Oberbayern", "country": "", "latitude": 48.1614571, "longitude": 12.1827736, "population": 6411, "elevation": 540.0, "source": "osm"}, {"name": "Maitenbeth", "country": "", "latitude": 48.14952, "longitude": 12.0933719, "population": 0, "elevation": null, "source": "osm"}, {"name": "Eisenfelden", "country": "", "latitude": 48.2598853, "longitude": 12.6903469, "population": 0, "elevation": null, "source": "osm"}, {"name": "Steinhöring", "country": "", "latitude": 48.2627847, "longitude": 12.6696449, "population": 0, "elevation": null, "source": "osm"}, {"name": "Hohenlinden", "country": "", "latitude": 48.1572696, "longitude": 11.9966653, "population": 3701, "elevation": null, "source": "osm"}, {"name": "Westerndorf St. Peter", "country": "", "latitude": 47.8763822, "longitude": 12.1112256, "population": 0, "elevation": null, "source": "osm"}, {"name": "Flintsbach am Inn", "country": "", "latitude": 47.7257389, "longitude": 12.1237221, "population": 2857, "elevation": null, "source": "osm"}, {"name": "Brannenburg", "country": "", "latitude": 47.7375435, "longitude": 12.1043795, "population": 5671, "elevation": null, "source": "osm"}, {"name": "Oberfeldkirchen", "country": "", "latitude": 48.0501413, "longitude": 12.5307517, "population": 0, "elevation": null, "source": "osm"}, {"name": "Wiesmühl an der Alz", "country": "", "latitude": 48.1060467, "longitude": 12.5662787, "population": 0, "elevation": null, "source": "osm"}, {"name": "Obing", "country": "", "latitude": 47.9990609, "longitude": 12.4054592, "population": 3958, "elevation": null, "source": "osm"}, {"name": "Peterskirchen", "country": "", "latitude": 48.0945388, "longitude": 12.4763039, "population": 0, "elevation": null, "source": "osm"}, {"name": "Gasteig", "country": "", "latitude": 48.1809989, "longitude": 12.6307565, "population": 0, "elevation": null, "source": "osm"}, {"name": "Egerdach", "country": "", "latitude": 47.8959444, "longitude": 12.7035497, "population": 0, "elevation": null, "source": "osm"}, {"name": "Rettenbach", "country": "", "latitude": 47.9130974, "longitude": 12.6508151, "population": 0, "elevation": null, "source": "osm"}, {"name": "Mörmoosen", "country": "", "latitude": 48.1955246, "longitude": 12.5861784, "population": 0, "elevation": null, "source": "osm"}, {"name": "Neue Heimat", "country": "", "latitude": 48.2030456, "longitude": 12.593136, "population": 0, "elevation": null, "source": "osm"}, {"name": "Grünbach", "country": "", "latitude": 48.2033924, "longitude": 12.5365619, "population": 0, "elevation": null, "source": "osm"}, {"name": "Oberflossing", "country": "", "latitude": 48.2178961, "longitude": 12.5042555, "population": 0, "elevation": null, "source": "osm"}, {"name": "Waldhausen", "country": "", "latitude": 48.1056619, "longitude": 12.4065651, "population": 0, "elevation": null, "source": "osm"}, {"name": "Harpfing", "country": "", "latitude": 48.067193, "longitude": 12.4165409, "population": 0, "elevation": null, "source": "osm"}, {"name": "Prien am Chiemsee", "country": "", "latitude": 47.8541669, "longitude": 12.3455493, "population": 10512, "elevation": null, "source": "osm"}, {"name": "Haslach", "country": "", "latitude": 47.9708147, "longitude": 11.8858776, "population": 0, "elevation": null, "source": "osm"}, {"name": "Osternach", "country": "", "latitude": 47.8681765, "longitude": 12.358924, "population": 0, "elevation": null, "source": "osm"}, {"name": "Weidenbach", "country": "", "latitude": 48.255108, "longitude": 12.3432003, "population": 0, "elevation": null, "source": "osm"}, {"name": "Ruhpolding", "country": "", "latitude": 47.7620099, "longitude": 12.6459934, "population": 6904, "elevation": null, "source": "osm"}, {"name": "Roitham", "country": "", "latitude": 47.9591077, "longitude": 12.4497576, "population": 0, "elevation": null, "source": "osm"}, {"name": "Reichhausen", "country": "", "latitude": 47.8274778, "longitude": 12.6148026, "population": 0, "elevation": null, "source": "osm"}, {"name": "Wernleiten", "country": "", "latitude": 47.8291901, "longitude": 12.6521011, "population": 0, "elevation": null, "source": "osm"}, {"name": "Hammer", "country": "", "latitude": 47.8010547, "longitude": 12.7043002, "population": 0, "elevation": null, "source": "osm"}, {"name": "Wattenham", "country": "", "latitude": 47.9683958, "longitude": 12.435571, "population": 0, "elevation": null, "source": "osm"}, {"name": "Neuhofen", "country": "", "latitude": 48.1981141, "longitude": 12.8575027, "population": 0, "elevation": null, "source": "osm"}, {"name": "Westerndorf", "country": "", "latitude": 47.8226377, "longitude": 12.0772239, "population": 0, "elevation": null, "source": "osm"}, {"name": "Beyharting", "country": "", "latitude": 47.9255184, "longitude": 11.989428, "population": 0, "elevation": null, "source": "osm"}, {"name": "Berbling", "country": "", "latitude": 47.8439088, "longitude": 11.973415, "population": 0, "elevation": null, "source": "osm"}, {"name": "Haun", "country": "", "latitude": 48.2317772, "longitude": 12.3279694, "population": 0, "elevation": null, "source": "osm"}, {"name": "Oberornau", "country": "", "latitude": 48.2151135, "longitude": 12.2437643, "population": 0, "elevation": null, "source": "osm"}, {"name": "Frauenornau", "country": "", "latitude": 48.2462659, "longitude": 12.2709371, "population": 0, "elevation": null, "source": "osm"}, {"name": "Au am Inn", "country": "", "latitude": 48.1661526, "longitude": 12.3268952, "population": 0, "elevation": null, "source": "osm"}, {"name": "Mittergars", "country": "", "latitude": 48.1519526, "longitude": 12.3297857, "population": 0, "elevation": null, "source": "osm"}, {"name": "Weisham", "country": "", "latitude": 47.8274827, "longitude": 12.3560991, "population": 0, "elevation": null, "source": "osm"}, {"name": "Oberbuch", "country": "", "latitude": 48.0548855, "longitude": 12.6380409, "population": 0, "elevation": null, "source": "osm"}, {"name": "Lappach", "country": "", "latitude": 48.2187571, "longitude": 12.1141653, "population": 0, "elevation": null, "source": "osm"}, {"name": "Traunstein", "country": "", "latitude": 47.8695272, "longitude": 12.6484621, "population": 15000, "elevation": 591.0, "source": "osm"}, {"name": "Großkatzbach", "country": "", "latitude": 48.2863741, "longitude": 12.1896732, "population": 0, "elevation": null, "source": "osm"}, {"name": "Emling", "country": "", "latitude": 48.3191841, "longitude": 11.9666481, "population": 66, "elevation": null, "source": "osm"}, {"name": "Matzing", "country": "", "latitude": 47.9372129, "longitude": 12.5928775, "population": 0, "elevation": null, "source": "osm"}, {"name": "Straußdorf", "country": "", "latitude": 48.0239263, "longitude": 11.993085, "population": 0, "elevation": null, "source": "osm"}, {"name": "Reitmehring", "country": "", "latitude": 48.0612321, "longitude": 12.1893555, "population": 0, "elevation": null, "source": "osm"}, {"name": "Mooslern", "country": "", "latitude": 48.3648838, "longitude": 11.9286854, "population": 0, "elevation": null, "source": "osm"}, {"name": "Luech", "country": "", "latitude": 47.4825578, "longitude": 12.1301908, "population": 0, "elevation": 553.0, "source": "osm"}, {"name": "Moosen (Vils)", "country": "", "latitude": 48.3435261, "longitude": 12.185384, "population": 0, "elevation": null, "source": "osm"}, {"name": "Oberndorf", "country": "", "latitude": 48.0784606, "longitude": 11.9965067, "population": 0, "elevation": null, "source": "osm"}, {"name": "Going", "country": "", "latitude": 47.5142224, "longitude": 12.3275716, "population": 0, "elevation": null, "source": "osm"}, {"name": "Steinkirchen", "country": "", "latitude": 48.2369704, "longitude": 12.2671892, "population": 0, "elevation": null, "source": "osm"}, {"name": "Erding", "country": "", "latitude": 48.3064441, "longitude": 11.9076579, "population": 38644, "elevation": null, "source": "osm"}, {"name": "Lauterbach", "country": "", "latitude": 48.2311908, "longitude": 12.3544888, "population": 0, "elevation": null, "source": "osm"}, {"name": "Annabrunn", "country": "", "latitude": 48.2298111, "longitude": 12.5074649, "population": 0, "elevation": null, "source": "osm"}, {"name": "Oberndorf", "country": "", "latitude": 48.1748339, "longitude": 12.1351249, "population": 0, "elevation": null, "source": "osm"}, {"name": "Hirten", "country": "", "latitude": 48.1512739, "longitude": 12.6591492, "population": 0, "elevation": null, "source": "osm"}, {"name": "Burgrain", "country": "", "latitude": 48.1885984, "longitude": 12.0487251, "population": 0, "elevation": null, "source": "osm"}, {"name": "Gumpersdorf", "country": "", "latitude": 48.2808559, "longitude": 12.8670396, "population": 0, "elevation": null, "source": "osm"}, {"name": "Fisching", "country": "", "latitude": 47.9425291, "longitude": 12.7415728, "population": 0, "elevation": null, "source": "osm"}, {"name": "Pretzen", "country": "", "latitude": 48.2791996, "longitude": 11.9127339, "population": 1335, "elevation": null, "source": "osm"}, {"name": "Siglfing", "country": "", "latitude": 48.3192643, "longitude": 11.8977787, "population": 272, "elevation": null, "source": "osm"}, {"name": "Aufham", "country": "", "latitude": 47.7825451, "longitude": 12.8701152, "population": 0, "elevation": null, "source": "osm"}, {"name": "Einham", "country": "", "latitude": 47.8618512, "longitude": 12.6102961, "population": 0, "elevation": null, "source": "osm"}, {"name": "Aiging", "country": "", "latitude": 47.9085151, "longitude": 12.6165026, "population": 560, "elevation": null, "source": "osm"}, {"name": "Nußdorf am Inn", "country": "", "latitude": 47.7422451, "longitude": 12.156916, "population": 0, "elevation": null, "source": "osm"}, {"name": "Götzing", "country": "", "latitude": 47.9846757, "longitude": 12.8023768, "population": 0, "elevation": null, "source": "osm"}, {"name": "Buchberg", "country": "", "latitude": 47.632169, "longitude": 12.2495992, "population": 90, "elevation": null, "source": "osm"}, {"name": "Reithofen", "country": "", "latitude": 48.2010791, "longitude": 11.9651208, "population": 0, "elevation": null, "source": "osm"}, {"name": "Wörnsmühl", "country": "", "latitude": 47.7675587, "longitude": 11.9077424, "population": 0, "elevation": null, "source": "osm"}, {"name": "Törring", "country": "", "latitude": 48.0070554, "longitude": 12.7486078, "population": 0, "elevation": null, "source": "osm"}, {"name": "Wang", "country": "", "latitude": 48.1188219, "longitude": 12.3011375, "population": 0, "elevation": null, "source": "osm"}, {"name": "Nonn", "country": "", "latitude": 47.7364733, "longitude": 12.8652284, "population": 0, "elevation": null, "source": "osm"}, {"name": "Poigenberg", "country": "", "latitude": 48.2122827, "longitude": 11.9370544, "population": 0, "elevation": null, "source": "osm"}, {"name": "Hirnsberg", "country": "", "latitude": 47.8807706, "longitude": 12.2750108, "population": 0, "elevation": null, "source": "osm"}, {"name": "Unterbierwang", "country": "", "latitude": 48.1271061, "longitude": 12.3827125, "population": 0, "elevation": null, "source": "osm"}, {"name": "Unterwössen", "country": "", "latitude": 47.7357886, "longitude": 12.4594234, "population": 3514, "elevation": null, "source": "osm"}, {"name": "Achenmühle", "country": "", "latitude": 47.795362, "longitude": 12.227934, "population": 0, "elevation": null, "source": "osm"}, {"name": "Rimsting", "country": "", "latitude": 47.8780488, "longitude": 12.3369294, "population": 0, "elevation": null, "source": "osm"}, {"name": "Antwort", "country": "", "latitude": 47.8905139, "longitude": 12.3079255, "population": 0, "elevation": null, "source": "osm"}, {"name": "Raubling", "country": "", "latitude": 47.7892574, "longitude": 12.1100042, "population": 11000, "elevation": null, "source": "osm"}, {"name": "Seiboldsdorf", "country": "", "latitude": 47.8510675, "longitude": 12.6351353, "population": 0, "elevation": null, "source": "osm"}, {"name": "Söchtenau", "country": "", "latitude": 47.9316336, "longitude": 12.2312068, "population": 2633, "elevation": null, "source": "osm"}, {"name": "Spielwang", "country": "", "latitude": 47.8451614, "longitude": 12.5996322, "population": 0, "elevation": null, "source": "osm"}, {"name": "Baierbach", "country": "", "latitude": 47.8613137, "longitude": 12.2034241, "population": 0, "elevation": null, "source": "osm"}, {"name": "Gollenshausen am Chiemsee", "country": "", "latitude": 47.9142691, "longitude": 12.4362553, "population": 0, "elevation": null, "source": "osm"}, {"name": "Wimmern", "country": "", "latitude": 47.8723959, "longitude": 12.8326428, "population": 0, "elevation": null, "source": "osm"}, {"name": "Traunstorf", "country": "", "latitude": 47.8705165, "longitude": 12.620403, "population": 0, "elevation": null, "source": "osm"}, {"name": "Tading", "country": "", "latitude": 48.1887067, "longitude": 11.9832995, "population": 0, "elevation": null, "source": "osm"}, {"name": "Großhöhenrain", "country": "", "latitude": 47.9272563, "longitude": 11.8987942, "population": 0, "elevation": null, "source": "osm"}, {"name": "Egerer", "country": "", "latitude": 47.9067271, "longitude": 12.5381406, "population": 0, "elevation": null, "source": "osm"}, {"name": "Rimsting Bahnhof", "country": "", "latitude": 47.8893416, "longitude": 12.3427979, "population": 0, "elevation": null, "source": "osm"}, {"name": "Wiesmühl", "country": "", "latitude": 48.0232338, "longitude": 12.7379182, "population": 0, "elevation": null, "source": "osm"}, {"name": "Brünning", "country": "", "latitude": 47.9785841, "longitude": 12.6558383, "population": 0, "elevation": null, "source": "osm"}, {"name": "Wolfertsau", "country": "", "latitude": 47.8037845, "longitude": 12.8376886, "population": 0, "elevation": null, "source": "osm"}, {"name": "Reitberg", "country": "", "latitude": 47.7916097, "longitude": 12.8573717, "population": 0, "elevation": null, "source": "osm"}, {"name": "Irlberg", "country": "", "latitude": 47.7997542, "longitude": 12.8393365, "population": 0, "elevation": null, "source": "osm"}, {"name": "Bach", "country": "", "latitude": 47.845295, "longitude": 12.3460957, "population": 0, "elevation": null, "source": "osm"}, {"name": "Ramering", "country": "", "latitude": 48.2209347, "longitude": 12.3186321, "population": 0, "elevation": null, "source": "osm"}, {"name": "Kraimoos", "country": "", "latitude": 47.8006345, "longitude": 12.3721907, "population": 0, "elevation": null, "source": "osm"}, {"name": "Martinskirchen", "country": "", "latitude": 48.3614258, "longitude": 12.8384143, "population": 0, "elevation": null, "source": "osm"}, {"name": "Nunbichl", "country": "", "latitude": 48.0333777, "longitude": 12.5420084, "population": 0, "elevation": null, "source": "osm"}, {"name": "Hörgering", "country": "", "latitude": 47.7939714, "longitude": 12.6444912, "population": 0, "elevation": null, "source": "osm"}, {"name": "Oberemmerting", "country": "", "latitude": 48.197831, "longitude": 12.7608983, "population": 0, "elevation": null, "source": "osm"}, {"name": "Unteremmerting", "country": "", "latitude": 48.2042629, "longitude": 12.7702807, "population": 0, "elevation": null, "source": "osm"}, {"name": "Niederreit", "country": "", "latitude": 47.9904445, "longitude": 11.9968747, "population": 0, "elevation": null, "source": "osm"}, {"name": "Hochfilzen", "country": "", "latitude": 47.4699425, "longitude": 12.6184383, "population": 0, "elevation": null, "source": "osm"}, {"name": "Rehbühel", "country": "", "latitude": 47.4320695, "longitude": 12.4216858, "population": 0, "elevation": null, "source": "osm"}, {"name": "Grub", "country": "", "latitude": 47.4664521, "longitude": 12.3871007, "population": 0, "elevation": null, "source": "osm"}, {"name": "Fronau", "country": "", "latitude": 47.6821542, "longitude": 12.8259923, "population": 0, "elevation": null, "source": "osm"}, {"name": "Kolbermoor", "country": "", "latitude": 47.8524631, "longitude": 12.0619712, "population": 0, "elevation": null, "source": "osm"}, {"name": "Kammer", "country": "", "latitude": 47.9206546, "longitude": 12.6495768, "population": 0, "elevation": null, "source": "osm"}, {"name": "Palling", "country": "", "latitude": 48.0020265, "longitude": 12.6404637, "population": 0, "elevation": null, "source": "osm"}]