[{"name": "Obersdorf", "country": "", "latitude": 47.5698586, "longitude": 13.8900794, "population": 277, "elevation": null, "source": "osm"}, {"name": "Linz", "country": "", "latitude": 48.3059078, "longitude": 14.286198, "population": 207812, "elevation": 266.0, "source": "osm"}, {"name": "Asten", "country": "", "latitude": 48.2202092, "longitude": 14.4214667, "population": 6219, "elevation": null, "source": "osm"}, {"name": "Pettenbach", "country": "", "latitude": 47.9614255, "longitude": 14.0161792, "population": 4846, "elevation": null, "source": "osm"}, {"name": "Wels", "country": "", "latitude": 48.1565472, "longitude": 14.0243752, "population": 59853, "elevation": 317.0, "source": "osm"}, {"name": "Eberstalzell", "country": "", "latitude": 48.0433366, "longitude": 13.9814852, "population": 2485, "elevation": null, "source": "osm"}, {"name": "Schleißheim", "country": "", "latitude": 48.1598261, "longitude": 14.0758845, "population": 1011, "elevation": null, "source": "osm"}, {"name": "Weißkirchen an der Traun", "country": "", "latitude": 48.1642098, "longitude": 14.1271488, "population": 2894, "elevation": null, "source": "osm"}, {"name": "Selzthal", "country": "", "latitude": 47.5495159, "longitude": 14.314379, "population": 1404, "elevation": null, "source": "osm"}, {"name": "Inzersdorf im Kremstal", "country": "", "latitude": 47.9263917, "longitude": 14.0780469, "population": 1788, "elevation": null, "source": "osm"}, {"name": "Scharnstein", "country": "", "latitude": 47.904491, "longitude": 13.9609752, "population": 1212, "elevation": null, "source": "osm"}, {"name": "Schlierbach", "country": "", "latitude": 47.9378369, "longitude": 14.1264301, "population": 0, "elevation": null, "source": "osm"}, {"name": "Kirchdorf an der Krems", "country": "", "latitude": 47.905194, "longitude": 14.1244169, "population": 4099, "elevation": null, "source": "osm"}, {"name": "Pregarten", "country": "", "latitude": 48.3549825, "longitude": 14.5308031, "population": 2509, "elevation": 430.0, "source": "osm"}, {"name": "Hohensteg", "country": "", "latitude": 48.3214963, "longitude": 14.567418, "population": 56, "elevation": null, "source": "osm"}, {"name": "Schwertberg", "country": "", "latitude": 48.2741408, "longitude": 14.5817826, "population": 3718, "elevation": 265.0, "source": "osm"}, {"name": "Mittertreffling", "country": "", "latitude": 48.3380193, "longitude": 14.3650952, "population": 1141, "elevation": null, "source": "osm"}, {"name": "Gallneukirchen", "country": "", "latitude": 48.3531392, "longitude": 14.4164196, "population": 5915, "elevation": null, "source": "osm"}, {"name": "Grein", "country": "", "latitude": 48.2271779, "longitude": 14.8551948, "population": 2141, "elevation": null, "source": "osm"}, {"name": "Saxen", "country": "", "latitude": 48.2080208, "longitude": 14.7895366, "population": 559, "elevation": null, "source": "osm"}, {"name": "Baumgartenberg", "country": "", "latitude": 48.2091891, "longitude": 14.7451588, "population": 373, "elevation": null, "source": "osm"}, {"name": "Arbing", "country": "", "latitude": 48.2285239, "longitude": 14.7036032, "population": 634, "elevation": null, "source": "osm"}, {"name": "Perg", "country": "", "latitude": 48.2500898, "longitude": 14.6338102, "population": 8479, "elevation": null, "source": "osm"}, {"name": "Bad Zell", "country": "", "latitude": 48.3499807, "longitude": 14.6693177, "population": 1154, "elevation": null, "source": "osm"}, {"name": "Enns", "country": "", "latitude": 48.2141482, "longitude": 14.4793948, "population": 8046, "elevation": null, "source": "osm"}, {"name": "Plesching", "country": "", "latitude": 48.3216904, "longitude": 14.3409002, "population": 1117, "elevation": null, "source": "osm"}, {"name": "Innertreffling", "country": "", "latitude": 48.3362459, "longitude": 14.3878682, "population": 483, "elevation": null, "source": "osm"}, {"name": "Schweinbach", "country": "", "latitude": 48.3408475, "longitude": 14.4238901, "population": 1214, "elevation": null, "source": "osm"}, {"name": "Amstetten", "country": "", "latitude": 48.1203262, "longitude": 14.8752424, "population": 13878, "elevation": null, "source": "osm"}, {"name": "Waidhofen an der Ybbs", "country": "", "latitude": 47.9609716, "longitude": 14.7747171, "population": 4559, "elevation": null, "source": "osm"}, {"name": "Gaflenz", "country": "", "latitude": 47.8949595, "longitude": 14.7240481, "population": 0, "elevation": null, "source": "osm"}, {"name": "Hollenstein an der Ybbs", "country": "", "latitude": 47.804154, "longitude": 14.7721536, "population": 0, "elevation": null, "source": "osm"}, {"name": "Hilm", "country": "", "latitude": 48.021809, "longitude": 14.7551378, "population": 0, "elevation": null, "source": "osm"}, {"name": "Tragwein", "country": "", "latitude": 48.3312957, "longitude": 14.6220747, "population": 3296, "elevation": 491.0, "source": "osm"}, {"name": "Krenngraben", "country": "", "latitude": 47.8261786, "longitude": 14.7576839, "population": 168, "elevation": null, "source": "osm"}, {"name": "Haag", "country": "", "latitude": 48.1118898, "longitude": 14.5660884, "population": 5299, "elevation": null, "source": "osm"}, {"name": "Hartkirchen", "country": "", "latitude": 48.3623242, "longitude": 14.0030662, "population": 4178, "elevation": null, "source": "osm"}, {"name": "Liezen", "country": "", "latitude": 47.567685, "longitude": 14.2420508, "population": 6803, "elevation": null, "source": "osm"}, {"name": "Oberzirking", "country": "", "latitude": 48.2587368, "longitude": 14.5397281, "population": 177, "elevation": null, "source": "osm"}, {"name": "Mauthausen", "country": "", "latitude": 48.2404063, "longitude": 14.5162667, "population": 979, "elevation": null, "source": "osm"}, {"name": "Pyburg", "country": "", "latitude": 48.2275146, "longitude": 14.52798, "population": 0, "elevation": null, "source": "osm"}, {"name": "Windpassing", "country": "", "latitude": 48.2239007, "longitude": 14.5178659, "population": 0, "elevation": null, "source": "osm"}, {"name": "Oberwögern", "country": "", "latitude": 48.3570669, "longitude": 14.4430041, "population": 0, "elevation": null, "source": "osm"}, {"name": "Engerwitzdorf", "country": "", "latitude": 48.3444529, "longitude": 14.4420162, "population": 7804, "elevation": null, "source": "osm"}, {"name": "Katsdorf", "country": "", "latitude": 48.3180508, "longitude": 14.4728701, "population": 2925, "elevation": 306.0, "source": "osm"}, {"name": "St. Georgen an der Gusen", "country": "", "latitude": 48.2718132, "longitude": 14.4485413, "population": 3779, "elevation": 262.0, "source": "osm"}, {"name": "Luftenberg", "country": "", "latitude": 48.2729591, "longitude": 14.414374, "population": 4108, "elevation": 295.0, "source": "osm"}, {"name": "Johnsbach", "country": "", "latitude": 47.539816, "longitude": 14.5843377, "population": 150, "elevation": 853.0, "source": "osm"}, {"name": "Admont", "country": "", "latitude": 47.573782, "longitude": 14.4615721, "population": 2482, "elevation": null, "source": "osm"}, {"name": "Hall", "country": "", "latitude": 47.6003519, "longitude": 14.459643, "population": 0, "elevation": null, "source": "osm"}, {"name": "Hieflau", "country": "", "latitude": 47.6070992, "longitude": 14.7443848, "population": 0, "elevation": null, "source": "osm"}, {"name": "Döllach", "country": "", "latitude": 47.5477656, "longitude": 14.2077849, "population": 146, "elevation": null, "source": "osm"}, {"name": "Ketten", "country": "", "latitude": 47.5286774, "longitude": 14.1466223, "population": 307, "elevation": null, "source": "osm"}, {"name": "Lungitz", "country": "", "latitude": 48.2895218, "longitude": 14.4791114, "population": 139, "elevation": null, "source": "osm"}, {"name": "Trautenfels", "country": "", "latitude": 47.5204123, "longitude": 14.0833996, "population": 157, "elevation": null, "source": "osm"}, {"name": "Irdning", "country": "", "latitude": 47.5043706, "longitude": 14.1042098, "population": 0, "elevation": null, "source": "osm"}, {"name": "Lichtenberg", "country": "", "latitude": 48.3599866, "longitude": 14.257648, "population": 2428, "elevation": null, "source": "osm"}, {"name": "Kimmersdorf", "country": "", "latitude": 48.153495, "longitude": 14.2760587, "population": 637, "elevation": null, "source": "osm"}, {"name": "Lehenbrunn", "country": "", "latitude": 48.2597438, "longitude": 14.6677091, "population": 151, "elevation": null, "source": "osm"}, {"name": "Steinfelden", "country": "", "latitude": 47.9161586, "longitude": 13.9919388, "population": 147, "elevation": null, "source": "osm"}, {"name": "Ramsau", "country": "", "latitude": 48.1250243, "longitude": 14.6741319, "population": 367, "elevation": null, "source": "osm"}, {"name": "Tillysburg", "country": "", "latitude": 48.1972506, "longitude": 14.4245152, "population": 134, "elevation": null, "source": "osm"}, {"name": "Allhartsberg", "country": "", "latitude": 48.0266596, "longitude": 14.7906625, "population": 1893, "elevation": null, "source": "osm"}, {"name": "Thening", "country": "", "latitude": 48.2587097, "longitude": 14.1635192, "population": 675, "elevation": null, "source": "osm"}, {"name": "Hiesendorf", "country": "", "latitude": 48.1876113, "longitude": 14.4782387, "population": 618, "elevation": null, "source": "osm"}, {"name": "Groißing", "country": "", "latitude": 48.2411596, "longitude": 14.695001, "population": 110, "elevation": null, "source": "osm"}, {"name": "Schwarzenbach", "country": "", "latitude": 47.4915673, "longitude": 14.4672726, "population": 187, "elevation": null, "source": "osm"}, {"name": "Rosenau am Sonntagberg", "country": "", "latitude": 48.0100799, "longitude": 14.7381495, "population": 1479, "elevation": null, "source": "osm"}, {"name": "Küpfern", "country": "", "latitude": 47.8549946, "longitude": 14.6121981, "population": 100, "elevation": null, "source": "osm"}, {"name": "Garsten", "country": "", "latitude": 48.0222203, "longitude": 14.4077971, "population": 6552, "elevation": null, "source": "osm"}, {"name": "Sipbachzell", "country": "", "latitude": 48.0972277, "longitude": 14.1100234, "population": 1765, "elevation": null, "source": "osm"}, {"name": "Oberaschbach", "country": "", "latitude": 48.0939752, "longitude": 14.7345757, "population": 348, "elevation": null, "source": "osm"}, {"name": "Grünau im Almtal", "country": "", "latitude": 47.8529968, "longitude": 13.9571241, "population": 2062, "elevation": null, "source": "osm"}, {"name": "Zeillern", "country": "", "latitude": 48.1301309, "longitude": 14.8079598, "population": 1650, "elevation": null, "source": "osm"}, {"name": "Allhaming", "country": "", "latitude": 48.1532097, "longitude": 14.171103, "population": 1018, "elevation": null, "source": "osm"}, {"name": "Ardning", "country": "", "latitude": 47.5911294, "longitude": 14.3645596, "population": 790, "elevation": null, "source": "osm"}, {"name": "Sankt Georgen am Reith", "country": "", "latitude": 47.8401979, "longitude": 14.8772272, "population": 222, "elevation": null, "source": "osm"}, {"name": "Tauplitz", "country": "", "latitude": 47.5607088, "longitude": 14.0120625, "population": 0, "elevation": null, "source": "osm"}, {"name": "Untergrünburg", "country": "", "latitude": 47.9727814, "longitude": 14.2639109, "population": 744, "elevation": null, "source": "osm"}, {"name": "Kürnberg", "country": "", "latitude": 48.0074626, "longitude": 14.5463264, "population": 791, "elevation": null, "source": "osm"}, {"name": "Pierbach", "country": "", "latitude": 48.3482252, "longitude": 14.7565283, "population": 225, "elevation": null, "source": "osm"}, {"name": "Reith", "country": "", "latitude": 48.2651809, "longitude": 14.2429657, "population": 88, "elevation": null, "source": "osm"}, {"name": "Aisting", "country": "", "latitude": 48.2631015, "longitude": 14.5777845, "population": 496, "elevation": null, "source": "osm"}, {"name": "Schweinberg", "country": "", "latitude": 48.1496318, "longitude": 14.7360423, "population": 214, "elevation": null, "source": "osm"}, {"name": "Tröstlberg", "country": "", "latitude": 48.0669263, "longitude": 14.499193, "population": 441, "elevation": null, "source": "osm"}, {"name": "Fraham", "country": "", "latitude": 48.2836334, "longitude": 14.0296096, "population": 2036, "elevation": null, "source": "osm"}, {"name": "Wolfsbach", "country": "", "latitude": 48.0793981, "longitude": 14.6692809, "population": 530, "elevation": null, "source": "osm"}, {"name": "Unterhörnbach", "country": "", "latitude": 48.2290033, "longitude": 14.8008132, "population": 64, "elevation": null, "source": "osm"}, {"name": "Naarn im Machlande", "country": "", "latitude": 48.2253622, "longitude": 14.607888, "population": 1156, "elevation": null, "source": "osm"}, {"name": "Ardagger Stift", "country": "", "latitude": 48.1615266, "longitude": 14.8446144, "population": 1002, "elevation": null, "source": "osm"}, {"name": "Gaishorn am See", "country": "", "latitude": 47.4910077, "longitude": 14.5480409, "population": 692, "elevation": null, "source": "osm"}, {"name": "Maria Neustift", "country": "", "latitude": 47.937321, "longitude": 14.6070035, "population": 1665, "elevation": null, "source": "osm"}, {"name": "Edtsdorf", "country": "", "latitude": 48.3057217, "longitude": 14.4760719, "population": 121, "elevation": null, "source": "osm"}, {"name": "Thaling", "country": "", "latitude": 48.1724367, "longitude": 14.475348, "population": 674, "elevation": null, "source": "osm"}, {"name": "Bad Schallerbach", "country": "", "latitude": 48.2303903, "longitude": 13.9194253, "population": 3367, "elevation": null, "source": "osm"}, {"name": "Lanzenberg", "country": "", "latitude": 48.2603375, "longitude": 14.6230359, "population": 149, "elevation": null, "source": "osm"}, {"name": "Losenstein", "country": "", "latitude": 47.9259676, "longitude": 14.4322317, "population": 1706, "elevation": null, "source": "osm"}, {"name": "Niederneukirchen", "country": "", "latitude": 48.160162, "longitude": 14.3391085, "population": 1900, "elevation": null, "source": "osm"}, {"name": "Hiererberg", "country": "", "latitude": 48.2292848, "longitude": 13.8881038, "population": 96, "elevation": null, "source": "osm"}, {"name": "Klam", "country": "", "latitude": 48.224833, "longitude": 14.7825148, "population": 256, "elevation": null, "source": "osm"}, {"name": "Zell an der Ybbs", "country": "", "latitude": 47.9595376, "longitude": 14.781955, "population": 967, "elevation": null, "source": "osm"}, {"name": "Wallsee", "country": "", "latitude": 48.1672231, "longitude": 14.7156931, "population": 1077, "elevation": null, "source": "osm"}, {"name": "Radmer an der Hasel", "country": "", "latitude": 47.5293418, "longitude": 14.7157365, "population": 227, "elevation": 820.0, "source": "osm"}, {"name": "St. Thomas am Blasenstein", "country": "", "latitude": 48.3125231, "longitude": 14.7618378, "population": 884, "elevation": null, "source": "osm"}, {"name": "Palfau", "country": "", "latitude": 47.7101744, "longitude": 14.8029433, "population": 449, "elevation": null, "source": "osm"}, {"name": "Winden", "country": "", "latitude": 48.28455, "longitude": 14.5937276, "population": 32, "elevation": null, "source": "osm"}, {"name": "Scharten", "country": "", "latitude": 48.2519273, "longitude": 14.0372273, "population": 2169, "elevation": null, "source": "osm"}, {"name": "Weilling", "country": "", "latitude": 48.2062665, "longitude": 14.403639, "population": 101, "elevation": null, "source": "osm"}, {"name": "Böhlerwerk", "country": "", "latitude": 47.9859651, "longitude": 14.7474172, "population": 1246, "elevation": null, "source": "osm"}, {"name": "Trieben", "country": "", "latitude": 47.487348, "longitude": 14.4857262, "population": 3300, "elevation": null, "source": "osm"}, {"name": "Au", "country": "", "latitude": 48.2126731, "longitude": 14.782331, "population": 31, "elevation": null, "source": "osm"}, {"name": "Pettendorf", "country": "", "latitude": 47.8881417, "longitude": 14.7171067, "population": 288, "elevation": null, "source": "osm"}, {"name": "Frühstorf", "country": "", "latitude": 48.2258643, "longitude": 14.7171497, "population": 160, "elevation": null, "source": "osm"}, {"name": "In der Krems", "country": "", "latitude": 47.8640256, "longitude": 14.1212199, "population": 103, "elevation": null, "source": "osm"}, {"name": "Kronstorf", "country": "", "latitude": 48.142235, "longitude": 14.4644653, "population": 3115, "elevation": null, "source": "osm"}, {"name": "Edramsberg", "country": "", "latitude": 48.3049744, "longitude": 14.1763411, "population": 642, "elevation": null, "source": "osm"}, {"name": "Hiesbach", "country": "", "latitude": 48.304135, "longitude": 14.6966576, "population": 113, "elevation": null, "source": "osm"}, {"name": "Kremsmünster", "country": "", "latitude": 48.0533652, "longitude": 14.128766, "population": 6435, "elevation": null, "source": "osm"}, {"name": "Aisthofen", "country": "", "latitude": 48.2584445, "longitude": 14.5914745, "population": 125, "elevation": null, "source": "osm"}, {"name": "Judenleiten", "country": "", "latitude": 48.2721111, "longitude": 14.6351367, "population": 98, "elevation": null, "source": "osm"}, {"name": "Radmer an der Stube", "country": "", "latitude": 47.5452552, "longitude": 14.7613233, "population": 567, "elevation": null, "source": "osm"}, {"name": "Oberschlierbach", "country": "", "latitude": 47.9346099, "longitude": 14.1777315, "population": 468, "elevation": null, "source": "osm"}, {"name": "Lettental", "country": "", "latitude": 48.2313372, "longitude": 14.8313898, "population": 180, "elevation": null, "source": "osm"}, {"name": "St. Marien", "country": "", "latitude": 48.1454559, "longitude": 14.2790556, "population": 608, "elevation": 338.0, "source": "osm"}, {"name": "Kleinreifling", "country": "", "latitude": 47.8206985, "longitude": 14.639285, "population": 709, "elevation": null, "source": "osm"}, {"name": "Mooslandl", "country": "", "latitude": 47.6529932, "longitude": 14.7632833, "population": 459, "elevation": null, "source": "osm"}, {"name": "Sankt Peter in der Au-Dorf", "country": "", "latitude": 47.993896, "longitude": 14.60046, "population": 783, "elevation": null, "source": "osm"}, {"name": "Ried", "country": "", "latitude": 48.1449961, "longitude": 14.722497, "population": 442, "elevation": null, "source": "osm"}, {"name": "Bach", "country": "", "latitude": 48.3220616, "longitude": 14.4579844, "population": 40, "elevation": null, "source": "osm"}, {"name": "Berg", "country": "", "latitude": 47.8080531, "longitude": 14.8455961, "population": 66, "elevation": null, "source": "osm"}, {"name": "Am Dachsberg", "country": "", "latitude": 48.2644444, "longitude": 14.5853806, "population": 58, "elevation": null, "source": "osm"}, {"name": "Micheldorf", "country": "", "latitude": 47.8803771, "longitude": 14.1339717, "population": 0, "elevation": null, "source": "osm"}, {"name": "Bad Kreuzen", "country": "", "latitude": 48.2667163, "longitude": 14.8070465, "population": 550, "elevation": null, "source": "osm"}, {"name": "Ernsthofen", "country": "", "latitude": 48.126951, "longitude": 14.482904, "population": 2127, "elevation": null, "source": "osm"}, {"name": "Wolfern", "country": "", "latitude": 48.0838067, "longitude": 14.3782937, "population": 2890, "elevation": null, "source": "osm"}, {"name": "Hinzenbach", "country": "", "latitude": 48.3098868, "longitude": 14.0067274, "population": 1936, "elevation": null, "source": "osm"}, {"name": "Weißenbach an der Enns", "country": "", "latitude": 47.7052113, "longitude": 14.6293527, "population": 369, "elevation": null, "source": "osm"}, {"name": "Stephanshart", "country": "", "latitude": 48.1579057, "longitude": 14.8175661, "population": 991, "elevation": null, "source": "osm"}, {"name": "Piberbach", "country": "", "latitude": 48.1149745, "longitude": 14.2256336, "population": 1757, "elevation": null, "source": "osm"}, {"name": "Behamberg", "country": "", "latitude": 48.0344195, "longitude": 14.4978212, "population": 3155, "elevation": null, "source": "osm"}, {"name": "Altenmarkt bei Sankt Gallen", "country": "", "latitude": 47.7243778, "longitude": 14.6489549, "population": 867, "elevation": null, "source": "osm"}, {"name": "Stainach", "country": "", "latitude": 47.5324271, "longitude": 14.107612, "population": 2853, "elevation": null, "source": "osm"}, {"name": "Buchkirchen", "country": "", "latitude": 48.2241613, "longitude": 14.0226453, "population": 3691, "elevation": null, "source": "osm"}, {"name": "Raumberg", "country": "", "latitude": 47.4900493, "longitude": 14.0988069, "population": 0, "elevation": null, "source": "osm"}, {"name": "Schmierreith", "country": "", "latitude": 48.3630894, "longitude": 14.6115328, "population": 113, "elevation": null, "source": "osm"}, {"name": "Aschach an der Steyr", "country": "", "latitude": 48.012018, "longitude": 14.3346263, "population": 2172, "elevation": null, "source": "osm"}, {"name": "Klendorf", "country": "", "latitude": 48.3241746, "longitude": 14.4497961, "population": 147, "elevation": null, "source": "osm"}, {"name": "Winklarn", "country": "", "latitude": 48.0915707, "longitude": 14.8477591, "population": 1462, "elevation": null, "source": "osm"}, {"name": "Roßleithen", "country": "", "latitude": 47.7013906, "longitude": 14.2746056, "population": 1830, "elevation": null, "source": "osm"}, {"name": "St. Valentin", "country": "", "latitude": 48.1746466, "longitude": 14.5319725, "population": 2997, "elevation": 268.0, "source": "osm"}, {"name": "St. Pantaleon", "country": "", "latitude": 48.2107915, "longitude": 14.5679429, "population": 1658, "elevation": null, "source": "osm"}, {"name": "Weichstetten", "country": "", "latitude": 48.121181, "longitude": 14.3204479, "population": 675, "elevation": 363.0, "source": "osm"}, {"name": "Samesleiten", "country": "", "latitude": 48.207072, "longitude": 14.4204945, "population": 194, "elevation": null, "source": "osm"}, {"name": "Sankt Georgen", "country": "", "latitude": 47.5238989, "longitude": 14.3727603, "population": 285, "elevation": null, "source": "osm"}, {"name": "Dietmannsdorf bei Trieben", "country": "", "latitude": 47.5056004, "longitude": 14.4792031, "population": 0, "elevation": null, "source": "osm"}, {"name": "Pichlern", "country": "", "latitude": 48.0247866, "longitude": 14.3202029, "population": 0, "elevation": null, "source": "osm"}, {"name": "Haarland", "country": "", "latitude": 48.3191246, "longitude": 14.5935835, "population": 184, "elevation": null, "source": "osm"}, {"name": "Oberhörnbach", "country": "", "latitude": 48.2286911, "longitude": 14.7934552, "population": 63, "elevation": null, "source": "osm"}, {"name": "Au an der Donau", "country": "", "latitude": 48.227247, "longitude": 14.5823656, "population": 894, "elevation": null, "source": "osm"}, {"name": "Pachersdorf", "country": "", "latitude": 48.1636166, "longitude": 14.2443291, "population": 371, "elevation": null, "source": "osm"}, {"name": "Pragtal", "country": "", "latitude": 48.2675716, "longitude": 14.6754339, "population": 74, "elevation": null, "source": "osm"}, {"name": "Langenstein", "country": "", "latitude": 48.2512861, "longitude": 14.482099, "population": 1362, "elevation": null, "source": "osm"}, {"name": "Mitter St. Thomas", "country": "", "latitude": 48.3125042, "longitude": 14.7721413, "population": 301, "elevation": null, "source": "osm"}, {"name": "Kreilhof", "country": "", "latitude": 47.9417877, "longitude": 14.803175, "population": 366, "elevation": null, "source": "osm"}, {"name": "Marwach", "country": "", "latitude": 48.2905631, "longitude": 14.5398888, "population": 129, "elevation": null, "source": "osm"}, {"name": "Eggendorf im Traunkreis", "country": "", "latitude": 48.1307378, "longitude": 14.1483274, "population": 731, "elevation": null, "source": "osm"}, {"name": "Großreifling", "country": "", "latitude": 47.6648987, "longitude": 14.712251, "population": 276, "elevation": null, "source": "osm"}, {"name": "St. Konrad", "country": "", "latitude": 47.9135494, "longitude": 13.8892579, "population": 563, "elevation": null, "source": "osm"}, {"name": "Rottenmann", "country": "", "latitude": 47.524226, "longitude": 14.3585643, "population": 5111, "elevation": null, "source": "osm"}, {"name": "Mühldorf", "country": "", "latitude": 47.898176, "longitude": 13.9518094, "population": 1333, "elevation": null, "source": "osm"}, {"name": "Gebersdorf", "country": "", "latitude": 48.2310215, "longitude": 13.9018193, "population": 123, "elevation": null, "source": "osm"}, {"name": "Hinterstoder", "country": "", "latitude": 47.6998016, "longitude": 14.1554223, "population": 993, "elevation": null, "source": "osm"}, {"name": "Sankt Michael am Bruckbach", "country": "", "latitude": 48.0148924, "longitude": 14.6150123, "population": 739, "elevation": null, "source": "osm"}, {"name": "Ansfelden", "country": "", "latitude": 48.2090744, "longitude": 14.2892608, "population": 17748, "elevation": null, "source": "osm"}, {"name": "Goldwörth", "country": "", "latitude": 48.3311512, "longitude": 14.0994466, "population": 886, "elevation": null, "source": "osm"}, {"name": "Sierning", "country": "", "latitude": 48.044724, "longitude": 14.3091999, "population": 8833, "elevation": null, "source": "osm"}, {"name": "Ennsdorf", "country": "", "latitude": 48.2122546, "longitude": 14.4907318, "population": 2362, "elevation": null, "source": "osm"}, {"name": "Gams bei Hieflau", "country": "", "latitude": 47.6678972, "longitude": 14.7865471, "population": 0, "elevation": null, "source": "osm"}, {"name": "Hofkirchen im Traunkreis", "country": "", "latitude": 48.1416786, "longitude": 14.3786659, "population": 1456, "elevation": null, "source": "osm"}, {"name": "Perbersdorf", "country": "", "latitude": 48.0655835, "longitude": 14.8697309, "population": 243, "elevation": null, "source": "osm"}, {"name": "Bad Mitterndorf", "country": "", "latitude": 47.5553729, "longitude": 13.9323276, "population": 1113, "elevation": null, "source": "osm"}, {"name": "Schedlberg", "country": "", "latitude": 48.3138242, "longitude": 14.6040793, "population": 158, "elevation": null, "source": "osm"}, {"name": "Holzleiten", "country": "", "latitude": 48.100325, "longitude": 14.5927279, "population": 398, "elevation": null, "source": "osm"}, {"name": "Ufer", "country": "", "latitude": 48.2207077, "longitude": 14.8532098, "population": 136, "elevation": null, "source": "osm"}, {"name": "Wartberg an der Krems", "country": "", "latitude": 47.9893175, "longitude": 14.1186791, "population": 2965, "elevation": null, "source": "osm"}, {"name": "Achatzberg", "country": "", "latitude": 48.2208559, "longitude": 14.790437, "population": 52, "elevation": null, "source": "osm"}, {"name": "Rubring", "country": "", "latitude": 48.1667, "longitude": 14.4833333, "population": 1543, "elevation": null, "source": "osm"}, {"name": "Hohentauern", "country": "", "latitude": 47.4339999, "longitude": 14.4834523, "population": 374, "elevation": null, "source": "osm"}, {"name": "Thürnbuch", "country": "", "latitude": 48.1596756, "longitude": 14.6172939, "population": 220, "elevation": null, "source": "osm"}, {"name": "Neuaigen", "country": "", "latitude": 48.2562015, "longitude": 14.8188934, "population": 287, "elevation": null, "source": "osm"}, {"name": "Mauer bei Amstetten", "country": "", "latitude": 48.0952714, "longitude": 14.7990916, "population": 2086, "elevation": null, "source": "osm"}, {"name": "Arnberg", "country": "", "latitude": 48.353819, "longitude": 14.4871612, "population": 98, "elevation": null, "source": "osm"}, {"name": "Breitenau", "country": "", "latitude": 47.8723544, "longitude": 14.7080086, "population": 618, "elevation": null, "source": "osm"}, {"name": "Oberlebing", "country": "", "latitude": 48.2903628, "longitude": 14.6345785, "population": 298, "elevation": null, "source": "osm"}, {"name": "Krenglbach", "country": "", "latitude": 48.2052471, "longitude": 13.9556822, "population": 500, "elevation": null, "source": "osm"}, {"name": "Puchenau", "country": "", "latitude": 48.3115806, "longitude": 14.2405637, "population": 4410, "elevation": null, "source": "osm"}, {"name": "Hohenberg", "country": "", "latitude": 47.5277854, "longitude": 14.1332198, "population": 103, "elevation": null, "source": "osm"}, {"name": "Wenten", "country": "", "latitude": 47.7810049, "longitude": 14.7612083, "population": 100, "elevation": null, "source": "osm"}, {"name": "Erla", "country": "", "latitude": 48.1993786, "longitude": 14.5702958, "population": 807, "elevation": null, "source": "osm"}, {"name": "Niederöblarn", "country": "", "latitude": 47.4758759, "longitude": 14.0202397, "population": 419, "elevation": null, "source": "osm"}, {"name": "Penz", "country": "", "latitude": 48.0236562, "longitude": 14.4849816, "population": 1646, "elevation": null, "source": "osm"}, {"name": "Wirts", "country": "", "latitude": 47.9431549, "longitude": 14.7643676, "population": 595, "elevation": null, "source": "osm"}, {"name": "Ternberg", "country": "", "latitude": 47.9458416, "longitude": 14.357251, "population": 3293, "elevation": null, "source": "osm"}, {"name": "Fraundorf", "country": "", "latitude": 48.3191229, "longitude": 14.6245161, "population": 133, "elevation": null, "source": "osm"}, {"name": "Herdmann", "country": "", "latitude": 48.2252414, "longitude": 14.834901, "population": 84, "elevation": null, "source": "osm"}, {"name": "Gusen", "country": "", "latitude": 48.2581303, "longitude": 14.46266, "population": 798, "elevation": null, "source": "osm"}, {"name": "Volkersdorf", "country": "", "latitude": 48.1945449, "longitude": 14.4302603, "population": 178, "elevation": null, "source": "osm"}, {"name": "St. Pankraz", "country": "", "latitude": 47.7646931, "longitude": 14.2067181, "population": 394, "elevation": null, "source": "osm"}, {"name": "Rufling", "country": "", "latitude": 48.2782328, "longitude": 14.2168052, "population": 1137, "elevation": null, "source": "osm"}, {"name": "Zeitling", "country": "", "latitude": 48.2520916, "longitude": 14.6175325, "population": 274, "elevation": null, "source": "osm"}, {"name": "Mitterkirchen im Machland", "country": "", "latitude": 48.1852883, "longitude": 14.7095115, "population": 228, "elevation": null, "source": "osm"}, {"name": "St. Marienkirchen an der Polsenz", "country": "", "latitude": 48.2640983, "longitude": 13.9298283, "population": 0, "elevation": null, "source": "osm"}, {"name": "Lumplgraben", "country": "", "latitude": 47.8627678, "longitude": 14.537122, "population": 659, "elevation": null, "source": "osm"}, {"name": "Raffelstetten", "country": "", "latitude": 48.2376287, "longitude": 14.4031677, "population": 694, "elevation": null, "source": "osm"}, {"name": "Neuzeug", "country": "", "latitude": 48.0455687, "longitude": 14.335169, "population": 1832, "elevation": null, "source": "osm"}, {"name": "Walding", "country": "", "latitude": 48.3513494, "longitude": 14.161397, "population": 1480, "elevation": null, "source": "osm"}, {"name": "Öhling", "country": "", "latitude": 48.1011179, "longitude": 14.7983672, "population": 902, "elevation": null, "source": "osm"}, {"name": "Molln", "country": "", "latitude": 47.8861962, "longitude": 14.2572718, "population": 3735, "elevation": 442.0, "source": "osm"}, {"name": "Traun", "country": "", "latitude": 48.2214369, "longitude": 14.2368078, "population": 10627, "elevation": null, "source": "osm"}, {"name": "Baumgarten", "country": "", "latitude": 48.3164805, "longitude": 14.6476036, "population": 43, "elevation": null, "source": "osm"}, {"name": "Neuhofen an der Krems", "country": "", "latitude": 48.1379716, "longitude": 14.2284929, "population": 6521, "elevation": null, "source": "osm"}, {"name": "Puchberg im Machland", "country": "", "latitude": 48.2234198, "longitude": 14.7226965, "population": 118, "elevation": null, "source": "osm"}, {"name": "Prambachkirchen", "country": "", "latitude": 48.3164376, "longitude": 13.9072152, "population": 2806, "elevation": null, "source": "osm"}, {"name": "Zudersdorf", "country": "", "latitude": 48.3447891, "longitude": 14.5965668, "population": 68, "elevation": null, "source": "osm"}, {"name": "Zell-Arzberg", "country": "", "latitude": 47.9571937, "longitude": 14.7911948, "population": 1210, "elevation": null, "source": "osm"}, {"name": "Brandhof", "country": "", "latitude": 48.2221945, "longitude": 13.9010213, "population": 315, "elevation": null, "source": "osm"}, {"name": "Sankt Gallen", "country": "", "latitude": 47.6923547, "longitude": 14.6172935, "population": 815, "elevation": null, "source": "osm"}, {"name": "Linzerberg", "country": "", "latitude": 48.3416275, "longitude": 14.4076409, "population": 757, "elevation": null, "source": "osm"}, {"name": "Mönchdorf", "country": "", "latitude": 48.3606598, "longitude": 14.7960579, "population": 0, "elevation": null, "source": "osm"}, {"name": "Steyr", "country": "", "latitude": 48.0390046, "longitude": 14.4191276, "population": 38344, "elevation": 310.0, "source": "osm"}, {"name": "Abetzberg", "country": "", "latitude": 48.0839721, "longitude": 14.76567, "population": 260, "elevation": null, "source": "osm"}, {"name": "Lindau", "country": "", "latitude": 47.9, "longitude": 14.6833333, "population": 330, "elevation": null, "source": "osm"}, {"name": "Schieferegg", "country": "", "latitude": 48.1635264, "longitude": 14.4632545, "population": 44, "elevation": null, "source": "osm"}, {"name": "Neulassing", "country": "", "latitude": 47.5459406, "longitude": 14.3055416, "population": 433, "elevation": null, "source": "osm"}, {"name": "Fischlham", "country": "", "latitude": 48.0882154, "longitude": 13.9470248, "population": 1276, "elevation": null, "source": "osm"}, {"name": "Leonstein", "country": "", "latitude": 47.89509, "longitude": 14.230809, "population": 1702, "elevation": null, "source": "osm"}, {"name": "Steinbach an der Steyr", "country": "", "latitude": 47.9695546, "longitude": 14.2672948, "population": 1989, "elevation": null, "source": "osm"}, {"name": "Langholzfeld", "country": "", "latitude": 48.2426426, "longitude": 14.2434314, "population": 3269, "elevation": null, "source": "osm"}, {"name": "Bodendorf", "country": "", "latitude": 48.3244774, "longitude": 14.4866822, "population": 339, "elevation": null, "source": "osm"}, {"name": "Panholz", "country": "", "latitude": 48.2428143, "longitude": 14.8727308, "population": 95, "elevation": null, "source": "osm"}, {"name": "Edlbach", "country": "", "latitude": 47.710282, "longitude": 14.3416611, "population": 666, "elevation": null, "source": "osm"}, {"name": "Ottensheim", "country": "", "latitude": 48.3318812, "longitude": 14.1757273, "population": 2814, "elevation": null, "source": "osm"}, {"name": "Thalheim bei Wels", "country": "", "latitude": 48.1522388, "longitude": 14.030993, "population": 5278, "elevation": null, "source": "osm"}, {"name": "Klaus an der Pyhrnbahn", "country": "", "latitude": 47.8319921, "longitude": 14.1573375, "population": 1157, "elevation": null, "source": "osm"}, {"name": "Weinzierl", "country": "", "latitude": 48.2551654, "longitude": 14.6049111, "population": 297, "elevation": null, "source": "osm"}, {"name": "Kröllendorf", "country": "", "latitude": 48.0429148, "longitude": 14.7926802, "population": 200, "elevation": null, "source": "osm"}, {"name": "Feichtenberg", "country": "", "latitude": 47.9520267, "longitude": 13.9417311, "population": 100, "elevation": null, "source": "osm"}, {"name": "Schiedlberg", "country": "", "latitude": 48.0920742, "longitude": 14.2645752, "population": 1251, "elevation": null, "source": "osm"}, {"name": "Garsten Nord", "country": "", "latitude": 48.0311164, "longitude": 14.4010101, "population": 407, "elevation": null, "source": "osm"}, {"name": "Haidershofen", "country": "", "latitude": 48.077021, "longitude": 14.459324, "population": 3483, "elevation": null, "source": "osm"}, {"name": "Hößgang", "country": "", "latitude": 48.2289292, "longitude": 14.8803175, "population": 163, "elevation": null, "source": "osm"}, {"name": "Holzschachen", "country": "", "latitude": 48.0629594, "longitude": 14.5640379, "population": 271, "elevation": null, "source": "osm"}, {"name": "Wörschach", "country": "", "latitude": 47.5523492, "longitude": 14.146968, "population": 1166, "elevation": null, "source": "osm"}, {"name": "Riegl", "country": "", "latitude": 48.3482086, "longitude": 14.6567387, "population": 77, "elevation": null, "source": "osm"}, {"name": "Großmaseldorf", "country": "", "latitude": 48.294763, "longitude": 14.7823611, "population": 73, "elevation": null, "source": "osm"}, {"name": "Adlwang", "country": "", "latitude": 47.9920979, "longitude": 14.2178482, "population": 1653, "elevation": null, "source": "osm"}, {"name": "Hagenau", "country": "", "latitude": 48.3236472, "longitude": 14.1353595, "population": 204, "elevation": null, "source": "osm"}, {"name": "Sankt Georgen in der Klaus", "country": "", "latitude": 47.9880819, "longitude": 14.7041187, "population": 576, "elevation": null, "source": "osm"}, {"name": "Hartl", "country": "", "latitude": 48.3055547, "longitude": 14.5672655, "population": 151, "elevation": null, "source": "osm"}, {"name": "Kriechbaum", "country": "", "latitude": 48.3091739, "longitude": 14.6190005, "population": 157, "elevation": null, "source": "osm"}, {"name": "Sierninghofen", "country": "", "latitude": 48.0482748, "longitude": 14.3340688, "population": 875, "elevation": null, "source": "osm"}, {"name": "Vorchdorf", "country": "", "latitude": 48.0035141, "longitude": 13.922837, "population": 7255, "elevation": 413.0, "source": "osm"}, {"name": "Kirchberg", "country": "", "latitude": 48.2650502, "longitude": 14.1593682, "population": 0, "elevation": null, "source": "osm"}, {"name": "Sankt Martin am Grimming", "country": "", "latitude": 47.4889805, "longitude": 13.9815417, "population": 235, "elevation": null, "source": "osm"}, {"name": "Pichl bei Wels", "country": "", "latitude": 48.1851073, "longitude": 13.9007289, "population": 2817, "elevation": null, "source": "osm"}, {"name": "Haid", "country": "", "latitude": 48.327863, "longitude": 14.4283237, "population": 42, "elevation": null, "source": "osm"}, {"name": "Pabneukirchen", "country": "", "latitude": 48.3192979, "longitude": 14.8170064, "population": 1706, "elevation": null, "source": "osm"}, {"name": "Rechberg", "country": "", "latitude": 48.3216248, "longitude": 14.7109188, "population": 924, "elevation": null, "source": "osm"}, {"name": "Vorderstoder", "country": "", "latitude": 47.7127562, "longitude": 14.2250312, "population": 752, "elevation": null, "source": "osm"}, {"name": "Statzing", "country": "", "latitude": 48.2724034, "longitude": 14.4282524, "population": 520, "elevation": null, "source": "osm"}, {"name": "Windhaag bei Perg", "country": "", "latitude": 48.2840594, "longitude": 14.6815075, "population": 1384, "elevation": null, "source": "osm"}, {"name": "Wartberg ob der Aist", "country": "", "latitude": 48.3503176, "longitude": 14.5082316, "population": 4010, "elevation": null, "source": "osm"}, {"name": "Holzheim", "country": "", "latitude": 48.2945203, "longitude": 14.2583043, "population": 136, "elevation": null, "source": "osm"}, {"name": "Sattledt", "country": "", "latitude": 48.0702992, "longitude": 14.0581292, "population": 0, "elevation": null, "source": "osm"}, {"name": "Sankt Peter in der Au-Markt", "country": "", "latitude": 48.0457858, "longitude": 14.6252355, "population": 1803, "elevation": null, "source": "osm"}, {"name": "Oed", "country": "", "latitude": 48.1215567, "longitude": 14.7403915, "population": 581, "elevation": null, "source": "osm"}, {"name": "Lina", "country": "", "latitude": 48.2960729, "longitude": 14.6150453, "population": 98, "elevation": null, "source": "osm"}, {"name": "Gründberg", "country": "", "latitude": 48.0568072, "longitude": 14.353222, "population": 1426, "elevation": null, "source": "osm"}, {"name": "Meilersdorf", "country": "", "latitude": 48.1072452, "longitude": 14.6550961, "population": 514, "elevation": null, "source": "osm"}, {"name": "Oftering", "country": "", "latitude": 48.2342492, "longitude": 14.1339547, "population": 1860, "elevation": null, "source": "osm"}, {"name": "St. Ulrich bei Steyr", "country": "", "latitude": 48.0217605, "longitude": 14.4236916, "population": 3098, "elevation": null, "source": "osm"}, {"name": "Ertl", "country": "", "latitude": 47.97638, "longitude": 14.630648, "population": 1243, "elevation": null, "source": "osm"}, {"name": "Steinerkirchen an der Traun", "country": "", "latitude": 48.0789591, "longitude": 13.9578064, "population": 2233, "elevation": null, "source": "osm"}, {"name": "Steinhaus", "country": "", "latitude": 48.1155227, "longitude": 14.0199015, "population": 1818, "elevation": null, "source": "osm"}, {"name": "Leonding", "country": "", "latitude": 48.2793314, "longitude": 14.2487457, "population": 24416, "elevation": null, "source": "osm"}, {"name": "Tobra", "country": "", "latitude": 48.230946, "longitude": 14.6863804, "population": 164, "elevation": null, "source": "osm"}, {"name": "Aschbach-Markt", "country": "", "latitude": 48.0728164, "longitude": 14.7493618, "population": 3620, "elevation": null, "source": "osm"}, {"name": "Stranzberg", "country": "", "latitude": 48.3288326, "longitude": 14.5716768, "population": 131, "elevation": null, "source": "osm"}, {"name": "Oberbergen", "country": "", "latitude": 48.2152338, "longitude": 14.842969, "population": 68, "elevation": null, "source": "osm"}, {"name": "Windischgarsten", "country": "", "latitude": 47.7218417, "longitude": 14.3289935, "population": 2442, "elevation": null, "source": "osm"}, {"name": "Ried im Traunkreis", "country": "", "latitude": 48.0252687, "longitude": 14.0748708, "population": 2478, "elevation": null, "source": "osm"}, {"name": "St. Florian", "country": "", "latitude": 48.2072861, "longitude": 14.3816038, "population": 5518, "elevation": null, "source": "osm"}, {"name": "Reitberg", "country": "", "latitude": 48.2120021, "longitude": 14.8069772, "population": 55, "elevation": null, "source": "osm"}, {"name": "Hartlmühl", "country": "", "latitude": 48.0620557, "longitude": 14.609013, "population": 322, "elevation": null, "source": "osm"}, {"name": "Walcherbauer", "country": "", "latitude": 47.8249308, "longitude": 14.7525006, "population": 238, "elevation": null, "source": "osm"}, {"name": "Kematen an der Krems", "country": "", "latitude": 48.1100081, "longitude": 14.1918548, "population": 2210, "elevation": null, "source": "osm"}, {"name": "Schön", "country": "", "latitude": 47.8530003, "longitude": 14.1491948, "population": 245, "elevation": null, "source": "osm"}, {"name": "Hohenreith", "country": "", "latitude": 48.0000878, "longitude": 14.600356, "population": 204, "elevation": null, "source": "osm"}, {"name": "Ober St. Thomas", "country": "", "latitude": 48.3217448, "longitude": 14.7370563, "population": 189, "elevation": null, "source": "osm"}, {"name": "Weistrach", "country": "", "latitude": 48.0552209, "longitude": 14.5844344, "population": 2187, "elevation": null, "source": "osm"}, {"name": "Unterfreundorf", "country": "", "latitude": 48.2588344, "longitude": 13.9421717, "population": 0, "elevation": null, "source": "osm"}, {"name": "Lorch", "country": "", "latitude": 48.2250991, "longitude": 14.4736705, "population": 336, "elevation": null, "source": "osm"}, {"name": "Eferding", "country": "", "latitude": 48.3082607, "longitude": 14.0203999, "population": 3521, "elevation": null, "source": "osm"}, {"name": "Audorf", "country": "", "latitude": 48.2210536, "longitude": 14.2816544, "population": 943, "elevation": null, "source": "osm"}, {"name": "Au bei Gaishorn am See", "country": "", "latitude": 47.4891212, "longitude": 14.5263142, "population": 0, "elevation": null, "source": "osm"}, {"name": "Steyregg", "country": "", "latitude": 48.2858001, "longitude": 14.3721605, "population": 5039, "elevation": 259.0, "source": "osm"}, {"name": "Sand", "country": "", "latitude": 47.99893, "longitude": 14.4007044, "population": 124, "elevation": null, "source": "osm"}, {"name": "St. Martin", "country": "", "latitude": 48.2386683, "longitude": 14.2612364, "population": 6536, "elevation": null, "source": "osm"}, {"name": "Forndorf", "country": "", "latitude": 48.2626008, "longitude": 14.6674517, "population": 41, "elevation": null, "source": "osm"}, {"name": "Ried in der Riedmark", "country": "", "latitude": 48.2701907, "longitude": 14.5291869, "population": 897, "elevation": null, "source": "osm"}, {"name": "Schilchermühle", "country": "", "latitude": 47.9660283, "longitude": 14.7863642, "population": 457, "elevation": null, "source": "osm"}, {"name": "Holzhausen", "country": "", "latitude": 48.2230119, "longitude": 14.0968764, "population": 648, "elevation": null, "source": "osm"}, {"name": "Freindorf", "country": "", "latitude": 48.2250089, "longitude": 14.2958912, "population": 100, "elevation": null, "source": "osm"}, {"name": "Bubendorf", "country": "", "latitude": 48.0553482, "longitude": 14.6560579, "population": 765, "elevation": null, "source": "osm"}, {"name": "St. Dionysen", "country": "", "latitude": 48.2322862, "longitude": 14.2499788, "population": 2859, "elevation": null, "source": "osm"}, {"name": "Altenhofen", "country": "", "latitude": 48.1816048, "longitude": 14.547469, "population": 504, "elevation": null, "source": "osm"}, {"name": "Münzbach", "country": "", "latitude": 48.267199, "longitude": 14.7132266, "population": 746, "elevation": null, "source": "osm"}, {"name": "Nußbach", "country": "", "latitude": 47.9717312, "longitude": 14.1633096, "population": 2288, "elevation": null, "source": "osm"}, {"name": "Neubau", "country": "", "latitude": 48.2193357, "longitude": 14.1927666, "population": 1064, "elevation": null, "source": "osm"}, {"name": "Unterweidlham", "country": "", "latitude": 48.1891713, "longitude": 14.4013028, "population": 42, "elevation": null, "source": "osm"}, {"name": "Strengberg", "country": "", "latitude": 48.1434729, "longitude": 14.6503692, "population": 607, "elevation": null, "source": "osm"}, {"name": "Kienberg", "country": "", "latitude": 47.851062, "longitude": 14.1580514, "population": 107, "elevation": null, "source": "osm"}, {"name": "Anger", "country": "", "latitude": 47.854803, "longitude": 14.6341539, "population": 258, "elevation": null, "source": "osm"}, {"name": "Krenstetten", "country": "", "latitude": 48.0620679, "longitude": 14.7108854, "population": 434, "elevation": null, "source": "osm"}, {"name": "Konradsheim", "country": "", "latitude": 47.95, "longitude": 14.7166667, "population": 656, "elevation": null, "source": "osm"}, {"name": "Hofkirchen", "country": "", "latitude": 48.2045089, "longitude": 14.8025223, "population": 220, "elevation": null, "source": "osm"}, {"name": "Platten", "country": "", "latitude": 47.9, "longitude": 14.6333333, "population": 127, "elevation": null, "source": "osm"}, {"name": "Plaik", "country": "", "latitude": 48.1292946, "longitude": 14.4668592, "population": 269, "elevation": null, "source": "osm"}, {"name": "Windegg", "country": "", "latitude": 48.2929037, "longitude": 14.5960338, "population": 267, "elevation": null, "source": "osm"}, {"name": "Pasching", "country": "", "latitude": 48.2576453, "longitude": 14.2044214, "population": 6440, "elevation": null, "source": "osm"}, {"name": "Kirchham", "country": "", "latitude": 47.9706301, "longitude": 13.8992429, "population": 44, "elevation": null, "source": "osm"}, {"name": "Bad Hall", "country": "", "latitude": 48.0348017, "longitude": 14.2091385, "population": 4727, "elevation": null, "source": "osm"}, {"name": "Kristein", "country": "", "latitude": 48.2151219, "longitude": 14.4463159, "population": 926, "elevation": null, "source": "osm"}, {"name": "Albern", "country": "", "latitude": 48.2380728, "longitude": 14.5495032, "population": 159, "elevation": null, "source": "osm"}, {"name": "Wilhering", "country": "", "latitude": 48.3235801, "longitude": 14.1921444, "population": 256, "elevation": null, "source": "osm"}, {"name": "Königsbergau", "country": "", "latitude": 47.8252534, "longitude": 14.8556711, "population": 100, "elevation": null, "source": "osm"}, {"name": "Hennberg", "country": "", "latitude": 48.3251331, "longitude": 14.6422688, "population": 89, "elevation": null, "source": "osm"}, {"name": "Gunskirchen", "country": "", "latitude": 48.1334587, "longitude": 13.9427447, "population": 5344, "elevation": null, "source": "osm"}, {"name": "Lassing", "country": "", "latitude": 47.5269086, "longitude": 14.2633436, "population": 1828, "elevation": null, "source": "osm"}, {"name": "Kematen an der Ybbs", "country": "", "latitude": 48.0292938, "longitude": 14.7675296, "population": 2462, "elevation": null, "source": "osm"}, {"name": "Holzwiesen", "country": "", "latitude": 48.3370409, "longitude": 14.4049618, "population": 51, "elevation": null, "source": "osm"}, {"name": "Pfarrkirchen bei Bad Hall", "country": "", "latitude": 48.0290289, "longitude": 14.1984423, "population": 621, "elevation": null, "source": "osm"}, {"name": "Ramingdorf", "country": "", "latitude": 48.0661514, "longitude": 14.4580771, "population": 427, "elevation": null, "source": "osm"}, {"name": "Aist", "country": "", "latitude": 48.3396297, "longitude": 14.5354016, "population": 115, "elevation": null, "source": "osm"}, {"name": "Steyrling", "country": "", "latitude": 47.8061192, "longitude": 14.1296505, "population": 595, "elevation": null, "source": "osm"}, {"name": "Waldneukirchen", "country": "", "latitude": 47.9962459, "longitude": 14.2597211, "population": 2201, "elevation": null, "source": "osm"}, {"name": "Ulmerfeld", "country": "", "latitude": 48.0777668, "longitude": 14.8268194, "population": 840, "elevation": null, "source": "osm"}, {"name": "Laussa", "country": "", "latitude": 47.9519917, "longitude": 14.4557065, "population": 0, "elevation": null, "source": "osm"}, {"name": "Hargelsberg", "country": "", "latitude": 48.1482307, "longitude": 14.4245338, "population": 1122, "elevation": null, "source": "osm"}, {"name": "Aschach an der Donau", "country": "", "latitude": 48.3620058, "longitude": 14.0191063, "population": 1866, "elevation": null, "source": "osm"}, {"name": "Aiser", "country": "", "latitude": 48.2767272, "longitude": 14.5892858, "population": 71, "elevation": null, "source": "osm"}, {"name": "Spital am Pyhrn", "country": "", "latitude": 47.6646136, "longitude": 14.3401869, "population": 2243, "elevation": null, "source": "osm"}, {"name": "Berg", "country": "", "latitude": 48.1278092, "longitude": 14.7484019, "population": 66, "elevation": null, "source": "osm"}, {"name": "Igelschwang", "country": "", "latitude": 48.1460592, "longitude": 14.7046784, "population": 316, "elevation": null, "source": "osm"}, {"name": "Mistlberg", "country": "", "latitude": 48.3374742, "longitude": 14.5916232, "population": 314, "elevation": null, "source": "osm"}, {"name": "Bad Wimsbach-Neydharting", "country": "", "latitude": 48.0633093, "longitude": 13.901416, "population": 2375, "elevation": null, "source": "osm"}, {"name": "Saaß", "country": "", "latitude": 48.0236057, "longitude": 14.3632507, "population": 800, "elevation": null, "source": "osm"}, {"name": "Kronhobl", "country": "", "latitude": 47.9772604, "longitude": 14.7719263, "population": 337, "elevation": null, "source": "osm"}, {"name": "Wallern an der Trattnach", "country": "", "latitude": 48.2320968, "longitude": 13.9462068, "population": 1792, "elevation": null, "source": "osm"}, {"name": "Opponitz", "country": "", "latitude": 47.8780194, "longitude": 14.8232542, "population": 990, "elevation": null, "source": "osm"}, {"name": "Haid", "country": "", "latitude": 48.2051627, "longitude": 14.2530078, "population": 42, "elevation": null, "source": "osm"}, {"name": "Mollnegg", "country": "", "latitude": 48.2503723, "longitude": 14.7248165, "population": 136, "elevation": null, "source": "osm"}, {"name": "Gröbming", "country": "", "latitude": 47.4459809, "longitude": 13.9008766, "population": 3052, "elevation": null, "source": "osm"}, {"name": "Rems", "country": "", "latitude": 48.2004386, "longitude": 14.5289744, "population": 359, "elevation": null, "source": "osm"}, {"name": "Sattel", "country": "", "latitude": 47.7903987, "longitude": 14.7889425, "population": 57, "elevation": null, "source": "osm"}, {"name": "Treglwang", "country": "", "latitude": 47.4760629, "longitude": 14.5930711, "population": 360, "elevation": null, "source": "osm"}, {"name": "Maitschern", "country": "", "latitude": 47.5463785, "longitude": 14.1404733, "population": 411, "elevation": null, "source": "osm"}, {"name": "Thurnharting", "country": "", "latitude": 48.2672, "longitude": 14.1894444, "population": 152, "elevation": null, "source": "osm"}, {"name": "Kronstorfberg", "country": "", "latitude": 48.1387196, "longitude": 14.4595231, "population": 48, "elevation": null, "source": "osm"}, {"name": "Unter-Eisendorf", "country": "", "latitude": 48.3223095, "longitude": 14.8432141, "population": 87, "elevation": null, "source": "osm"}, {"name": "Steinbach am Ziehberg", "country": "", "latitude": 47.8914824, "longitude": 14.0315701, "population": 841, "elevation": null, "source": "osm"}, {"name": "Haid", "country": "", "latitude": 48.2432425, "longitude": 14.5572299, "population": 42, "elevation": null, "source": "osm"}, {"name": "Mühlein", "country": "", "latitude": 47.8524891, "longitude": 14.6810343, "population": 221, "elevation": null, "source": "osm"}, {"name": "Neuhofen an der Ybbs", "country": "", "latitude": 48.0574921, "longitude": 14.8553586, "population": 774, "elevation": null, "source": "osm"}, {"name": "Rosenau am Hengstpaß", "country": "", "latitude": 47.7131356, "longitude": 14.3882249, "population": 105, "elevation": null, "source": "osm"}, {"name": "Pergkirchen", "country": "", "latitude": 48.245284, "longitude": 14.6762905, "population": 267, "elevation": 335.0, "source": "osm"}, {"name": "Schwaig", "country": "", "latitude": 48.0228979, "longitude": 14.5602078, "population": 155, "elevation": null, "source": "osm"}, {"name": "Sankt Lorenzen im Paltental", "country": "", "latitude": 47.4948295, "longitude": 14.4540333, "population": 374, "elevation": null, "source": "osm"}, {"name": "Enzenwinkl", "country": "", "latitude": 48.2828988, "longitude": 14.2398257, "population": 124, "elevation": null, "source": "osm"}, {"name": "Alkoven", "country": "", "latitude": 48.2877185, "longitude": 14.1071126, "population": 5244, "elevation": null, "source": "osm"}, {"name": "Neudorf", "country": "", "latitude": 47.8790614, "longitude": 14.672861, "population": 83, "elevation": null, "source": "osm"}, {"name": "Niederlebing", "country": "", "latitude": 48.2828663, "longitude": 14.6288165, "population": 89, "elevation": null, "source": "osm"}, {"name": "Wimm", "country": "", "latitude": 48.2909404, "longitude": 13.8861877, "population": 47, "elevation": null, "source": "osm"}, {"name": "Ölkam", "country": "", "latitude": 48.2248966, "longitude": 14.3583727, "population": 179, "elevation": null, "source": "osm"}, {"name": "Wald am Schoberpaß", "country": "", "latitude": 47.4494381, "longitude": 14.6748123, "population": 0, "elevation": 845.0, "source": "osm"}, {"name": "Sankt Johann in Engstetten", "country": "", "latitude": 48.0736953, "longitude": 14.6156094, "population": 516, "elevation": null, "source": "osm"}, {"name": "Öblarn", "country": "", "latitude": 47.4611236, "longitude": 13.9909816, "population": 1090, "elevation": null, "source": "osm"}, {"name": "Ardagger Markt", "country": "", "latitude": 48.1803394, "longitude": 14.8267196, "population": 515, "elevation": null, "source": "osm"}, {"name": "Marbach", "country": "", "latitude": 48.2618584, "longitude": 14.5119938, "population": 139, "elevation": null, "source": "osm"}, {"name": "Viechtwang", "country": "", "latitude": 47.9152987, "longitude": 13.9633664, "population": 1272, "elevation": null, "source": "osm"}, {"name": "Kurzenkirchen", "country": "", "latitude": 48.1652143, "longitude": 14.2928225, "population": 152, "elevation": null, "source": "osm"}, {"name": "Unterzell", "country": "", "latitude": 47.9683535, "longitude": 14.7727498, "population": 703, "elevation": null, "source": "osm"}, {"name": "Unterhaus", "country": "", "latitude": 48.1636377, "longitude": 14.4689734, "population": 440, "elevation": null, "source": "osm"}, {"name": "Lugendorf", "country": "", "latitude": 48.3567508, "longitude": 14.6272503, "population": 189, "elevation": null, "source": "osm"}, {"name": "Rohr im Kremstal", "country": "", "latitude": 48.0668691, "longitude": 14.1904565, "population": 1229, "elevation": null, "source": "osm"}, {"name": "Biberbach", "country": "", "latitude": 48.0291168, "longitude": 14.708497, "population": 2101, "elevation": null, "source": "osm"}, {"name": "Obsweyer", "country": "", "latitude": 47.8676537, "longitude": 14.6752581, "population": 272, "elevation": null, "source": "osm"}, {"name": "Greinsberg", "country": "", "latitude": 48.2892841, "longitude": 14.5042751, "population": 44, "elevation": null, "source": "osm"}, {"name": "Marchtrenk", "country": "", "latitude": 48.1907992, "longitude": 14.1117625, "population": 12951, "elevation": null, "source": "osm"}, {"name": "Unter St. Thomas", "country": "", "latitude": 48.301691, "longitude": 14.7562747, "population": 75, "elevation": null, "source": "osm"}, {"name": "Pucking", "country": "", "latitude": 48.188769, "longitude": 14.1849396, "population": 3639, "elevation": null, "source": "osm"}, {"name": "Dörfl", "country": "", "latitude": 48.2501009, "longitude": 14.6831846, "population": 213, "elevation": null, "source": "osm"}, {"name": "Altirdning", "country": "", "latitude": 47.4961608, "longitude": 14.089828, "population": 0, "elevation": null, "source": "osm"}, {"name": "Mosing", "country": "", "latitude": 48.0772759, "longitude": 14.4792785, "population": 0, "elevation": null, "source": "osm"}, {"name": "St. Leonhard am Wald", "country": "", "latitude": 47.9948926, "longitude": 14.8738488, "population": 0, "elevation": null, "source": "osm"}, {"name": "Fernbach", "country": "", "latitude": 48.1818862, "longitude": 14.3787015, "population": 121, "elevation": null, "source": "osm"}, {"name": "Reichraming", "country": "", "latitude": 47.8913917, "longitude": 14.4604915, "population": 0, "elevation": null, "source": "osm"}, {"name": "Aigen im Ennstal", "country": "", "latitude": 47.520529, "longitude": 14.1431493, "population": 0, "elevation": null, "source": "osm"}, {"name": "Haagberg", "country": "", "latitude": 48.048963, "longitude": 14.8500499, "population": 0, "elevation": null, "source": "osm"}, {"name": "Feldkirchen an der Donau", "country": "", "latitude": 48.3448903, "longitude": 14.0534296, "population": 5181, "elevation": null, "source": "osm"}, {"name": "Waldheim", "country": "", "latitude": 48.096136, "longitude": 14.8220367, "population": 0, "elevation": null, "source": "osm"}, {"name": "Großraming", "country": "", "latitude": 47.8862041, "longitude": 14.550121, "population": 0, "elevation": null, "source": "osm"}, {"name": "Hattmannsdorf", "country": "", "latitude": 48.3620023, "longitude": 14.4450618, "population": 0, "elevation": null, "source": "osm"}, {"name": "Schlattham", "country": "", "latitude": 47.5131031, "longitude": 14.1191265, "population": 0, "elevation": null, "source": "osm"}, {"name": "Hilbern", "country": "", "latitude": 48.0626437, "longitude": 14.2798354, "population": 0, "elevation": null, "source": "osm"}, {"name": "Greinsfurth", "country": "", "latitude": 48.1091092, "longitude": 14.8464294, "population": 1014, "elevation": null, "source": "osm"}, {"name": "Aschbach-Dorf", "country": "", "latitude": 48.0669507, "longitude": 14.7626079, "population": 0, "elevation": null, "source": "osm"}, {"name": "Vestenthal", "country": "", "latitude": 48.0773364, "longitude": 14.5191249, "population": 0, "elevation": null, "source": "osm"}, {"name": "Ottendorf", "country": "", "latitude": 48.1350282, "longitude": 14.6749887, "population": 0, "elevation": null, "source": "osm"}, {"name": "Kogl", "country": "", "latitude": 47.9464646, "longitude": 13.9004442, "population": 0, "elevation": null, "source": "osm"}, {"name": "Edtholz", "country": "", "latitude": 47.9346893, "longitude": 13.8992285, "population": 0, "elevation": null, "source": "osm"}, {"name": "Hagenmühle", "country": "", "latitude": 47.9453336, "longitude": 13.9206217, "population": 0, "elevation": 474.0, "source": "osm"}, {"name": "Niederzirking", "country": "", "latitude": 48.2667685, "longitude": 14.5506676, "population": 324, "elevation": 255.0, "source": "osm"}, {"name": "Simling", "country": "", "latitude": 48.3459982, "longitude": 14.4287509, "population": 0, "elevation": null, "source": "osm"}, {"name": "Doppl", "country": "", "latitude": 48.2493999, "longitude": 14.2593573, "population": 0, "elevation": null, "source": "osm"}, {"name": "Niederhausleiten an der Ybbs", "country": "", "latitude": 48.0521306, "longitude": 14.7571621, "population": 0, "elevation": null, "source": "osm"}, {"name": "Gebetsberg", "country": "", "latitude": 48.1371425, "longitude": 14.7832984, "population": 0, "elevation": null, "source": "osm"}, {"name": "Sommerau", "country": "", "latitude": 48.1569057, "longitude": 14.7399453, "population": 0, "elevation": null, "source": "osm"}, {"name": "Sindelburg", "country": "", "latitude": 48.1586663, "longitude": 14.7165565, "population": 0, "elevation": null, "source": "osm"}, {"name": "Stroheim", "country": "", "latitude": 48.3368822, "longitude": 13.9570273, "population": 1576, "elevation": null, "source": "osm"}, {"name": "Nach der Enns", "country": "", "latitude": 47.8111515, "longitude": 14.6440092, "population": 289, "elevation": null, "source": "osm"}, {"name": "Weyer", "country": "", "latitude": 47.8572561, "longitude": 14.6635607, "population": 4213, "elevation": null, "source": "osm"}, {"name": "Wagram", "country": "", "latitude": 48.2432231, "longitude": 14.2311332, "population": 908, "elevation": null, "source": "osm"}, {"name": "Dietach", "country": "", "latitude": 48.0911262, "longitude": 14.4158759, "population": 3000, "elevation": null, "source": "osm"}, {"name": "Neufurth", "country": "", "latitude": 48.0800468, "longitude": 14.8113985, "population": 0, "elevation": null, "source": "osm"}, {"name": "Hausmening", "country": "", "latitude": 48.0764367, "longitude": 14.8166626, "population": 0, "elevation": null, "source": "osm"}, {"name": "Unterwögern", "country": "", "latitude": 48.3560079, "longitude": 14.4669108, "population": 0, "elevation": null, "source": "osm"}, {"name": "Arthofen", "country": "", "latitude": 48.0976536, "longitude": 14.8569408, "population": 0, "elevation": null, "source": "osm"}, {"name": "Letten", "country": "", "latitude": 48.0321031, "longitude": 14.3349679, "population": 0, "elevation": null, "source": "osm"}, {"name": "Hilbern", "country": "", "latitude": 48.0497721, "longitude": 14.2754015, "population": 0, "elevation": null, "source": "osm"}, {"name": "Hart", "country": "", "latitude": 48.105815, "longitude": 14.8553215, "population": 0, "elevation": null, "source": "osm"}, {"name": "Allersdorf", "country": "", "latitude": 48.1096849, "longitude": 14.8720978, "population": 0, "elevation": null, "source": "osm"}, {"name": "Allerheiligen im Mühlkreis", "country": "", "latitude": 48.3015218, "longitude": 14.6510888, "population": 309, "elevation": null, "source": "osm"}, {"name": "Pupping", "country": "", "latitude": 48.3374474, "longitude": 13.9995498, "population": 1895, "elevation": null, "source": "osm"}, {"name": "Adersdorf", "country": "", "latitude": 48.0178352, "longitude": 14.7330845, "population": 0, "elevation": null, "source": "osm"}, {"name": "Linden", "country": "", "latitude": 48.1049621, "longitude": 14.7008046, "population": 0, "elevation": null, "source": "osm"}, {"name": "Langenhart", "country": "", "latitude": 48.1715816, "longitude": 14.5124892, "population": 0, "elevation": null, "source": "osm"}, {"name": "Gerstberg", "country": "", "latitude": 48.1584005, "longitude": 14.6426834, "population": 0, "elevation": null, "source": "osm"}, {"name": "Edt bei Lambach", "country": "", "latitude": 48.096852, "longitude": 13.8951529, "population": 0, "elevation": null, "source": "osm"}, {"name": "Sankt Aegidi", "country": "", "latitude": 47.9792784, "longitude": 14.8585354, "population": 0, "elevation": null, "source": "osm"}, {"name": "Windhag", "country": "", "latitude": 47.9791367, "longitude": 14.802365, "population": 0, "elevation": null, "source": "osm"}, {"name": "Enghagen", "country": "", "latitude": 48.2327846, "longitude": 14.4786233, "population": 0, "elevation": null, "source": "osm"}, {"name": "Hörsching", "country": "", "latitude": 48.2264661, "longitude": 14.1782774, "population": 5996, "elevation": null, "source": "osm"}, {"name": "Pürgg", "country": "", "latitude": 47.531388, "longitude": 14.0682068, "population": 160, "elevation": null, "source": "osm"}, {"name": "Mitterstoder", "country": "", "latitude": 47.7041807, "longitude": 14.174155, "population": 283, "elevation": null, "source": "osm"}, {"name": "Oberreith", "country": "", "latitude": 47.6643469, "longitude": 14.5985234, "population": 409, "elevation": null, "source": "osm"}, {"name": "Fichtenhain", "country": "", "latitude": 48.2626392, "longitude": 14.6698423, "population": 0, "elevation": null, "source": "osm"}, {"name": "Dambach", "country": "", "latitude": 47.9913577, "longitude": 14.4127214, "population": 0, "elevation": null, "source": "osm"}, {"name": "Seitenstetten", "country": "", "latitude": 48.0364443, "longitude": 14.6531199, "population": 0, "elevation": null, "source": "osm"}, {"name": "Sulzbach", "country": "", "latitude": 47.9718212, "longitude": 14.5730679, "population": 0, "elevation": null, "source": "osm"}, {"name": "Haid", "country": "", "latitude": 48.0500583, "longitude": 14.191584, "population": 0, "elevation": null, "source": "osm"}, {"name": "Obersebern", "country": "", "latitude": 48.2374517, "longitude": 14.5688898, "population": 0, "elevation": null, "source": "osm"}, {"name": "Sonnseite", "country": "", "latitude": 47.8970718, "longitude": 14.2563933, "population": 0, "elevation": null, "source": "osm"}]