[{"name": "Alpirsbach", "country": "", "latitude": 48.3456021, "longitude": 8.4033079, "population": 6310, "elevation": 441.0, "source": "osm"}, {"name": "Waltalingen", "country": "", "latitude": 47.6219604, "longitude": 8.7790569, "population": 684, "elevation": null, "source": "osm"}, {"name": "Basadingen", "country": "", "latitude": 47.6690315, "longitude": 8.7449691, "population": 0, "elevation": null, "source": "osm"}, {"name": "Todtmoos", "country": "", "latitude": 47.7387447, "longitude": 8.0013624, "population": 2085, "elevation": null, "source": "osm"}, {"name": "Hasel", "country": "", "latitude": 47.6526083, "longitude": 7.8969746, "population": 1100, "elevation": null, "source": "osm"}, {"name": "Neuhausen", "country": "", "latitude": 47.6811644, "longitude": 8.6197347, "population": 10220, "elevation": 410.0, "source": "osm"}, {"name": "Schluchsee", "country": "", "latitude": 47.8185928, "longitude": 8.177035, "population": 2562, "elevation": 952.0, "source": "osm"}, {"name": "Schaffhausen", "country": "", "latitude": 47.6960491, "longitude": 8.634513, "population": 35927, "elevation": 403.0, "source": "osm"}, {"name": "Höchenschwand", "country": "", "latitude": 47.7354379, "longitude": 8.1659943, "population": 2522, "elevation": null, "source": "osm"}, {"name": "St. Blasien", "country": "", "latitude": 47.7602106, "longitude": 8.131426, "population": 4080, "elevation": null, "source": "osm"}, {"name": "Görwihl", "country": "", "latitude": 47.6411618, "longitude": 8.0784862, "population": 4555, "elevation": null, "source": "osm"}, {"name": "Etzgen", "country": "", "latitude": 47.5720309, "longitude": 8.1108566, "population": 426, "elevation": 330.0, "source": "osm"}, {"name": "Mettau", "country": "", "latitude": 47.5639096, "longitude": 8.1274979, "population": 301, "elevation": 346.0, "source": "osm"}, {"name": "Schwaderloch", "country": "", "latitude": 47.5853969, "longitude": 8.1435346, "population": 662, "elevation": 327.0, "source": "osm"}, {"name": "Hottwil", "country": "", "latitude": 47.5474422, "longitude": 8.1623003, "population": 253, "elevation": 407.0, "source": "osm"}, {"name": "Gansingen", "country": "", "latitude": 47.5432969, "longitude": 8.1343542, "population": 1030, "elevation": 382.0, "source": "osm"}, {"name": "Böttstein", "country": "", "latitude": 47.5568329, "longitude": 8.221822, "population": 3986, "elevation": 350.0, "source": "osm"}, {"name": "Leuggern", "country": "", "latitude": 47.5798217, "longitude": 8.217218, "population": 2143, "elevation": 331.0, "source": "osm"}, {"name": "Todtnau", "country": "", "latitude": 47.8303378, "longitude": 7.9452378, "population": 5077, "elevation": null, "source": "osm"}, {"name": "Leibstadt", "country": "", "latitude": 47.5905075, "longitude": 8.1756561, "population": 1278, "elevation": 342.0, "source": "osm"}, {"name": "Rheinsulz", "country": "", "latitude": 47.5556365, "longitude": 8.0909838, "population": 0, "elevation": null, "source": "osm"}, {"name": "Densbüren", "country": "", "latitude": 47.4543265, "longitude": 8.0538734, "population": 726, "elevation": 474.0, "source": "osm"}, {"name": "Remigen", "country": "", "latitude": 47.5164278, "longitude": 8.1903933, "population": 1066, "elevation": 392.0, "source": "osm"}, {"name": "Warth", "country": "", "latitude": 47.5841761, "longitude": 8.8738433, "population": 0, "elevation": null, "source": "osm"}, {"name": "Rüßwihl", "country": "", "latitude": 47.6311262, "longitude": 8.0702978, "population": 0, "elevation": 640.0, "source": "osm"}, {"name": "Tiefenstein", "country": "", "latitude": 47.6247411, "longitude": 8.0864903, "population": 0, "elevation": null, "source": "osm"}, {"name": "Niederwihl", "country": "", "latitude": 47.6195223, "longitude": 8.0731225, "population": 0, "elevation": null, "source": "osm"}, {"name": "Oberwihl", "country": "", "latitude": 47.6211557, "longitude": 8.0481705, "population": 0, "elevation": 726.0, "source": "osm"}, {"name": "Segeten", "country": "", "latitude": 47.660436, "longitude": 8.0259978, "population": 0, "elevation": 880.0, "source": "osm"}, {"name": "Strittmatt", "country": "", "latitude": 47.6647046, "longitude": 8.0471098, "population": 0, "elevation": 868.0, "source": "osm"}, {"name": "Riniken", "country": "", "latitude": 47.4939693, "longitude": 8.1876762, "population": 1478, "elevation": 392.0, "source": "osm"}, {"name": "Umiken", "country": "", "latitude": 47.482462, "longitude": 8.1893151, "population": 1069, "elevation": 358.0, "source": "osm"}, {"name": "Lauffohr", "country": "", "latitude": 47.5007623, "longitude": 8.231152, "population": 0, "elevation": null, "source": "osm"}, {"name": "Ueken", "country": "", "latitude": 47.4844622, "longitude": 8.0486412, "population": 895, "elevation": 400.0, "source": "osm"}, {"name": "Feuerthalen", "country": "", "latitude": 47.6914771, "longitude": 8.64598, "population": 3848, "elevation": 400.0, "source": "osm"}, {"name": "Langwiesen", "country": "", "latitude": 47.6845666, "longitude": 8.6607483, "population": 0, "elevation": null, "source": "osm"}, {"name": "Mandach", "country": "", "latitude": 47.5468415, "longitude": 8.185889, "population": 334, "elevation": 489.0, "source": "osm"}, {"name": "Wiesendangen", "country": "", "latitude": 47.5213051, "longitude": 8.7889904, "population": 4951, "elevation": 469.0, "source": "osm"}, {"name": "Schottikon", "country": "", "latitude": 47.4996102, "longitude": 8.8119994, "population": 0, "elevation": null, "source": "osm"}, {"name": "Räterschen", "country": "", "latitude": 47.4988088, "longitude": 8.7974005, "population": 0, "elevation": null, "source": "osm"}, {"name": "Buch b. Frauenfeld", "country": "", "latitude": 47.5977723, "longitude": 8.8375279, "population": 0, "elevation": null, "source": "osm"}, {"name": "Gachnang", "country": "", "latitude": 47.5396518, "longitude": 8.8523731, "population": 2906, "elevation": null, "source": "osm"}, {"name": "Schenkenzell", "country": "", "latitude": 48.3105623, "longitude": 8.3717915, "population": 1825, "elevation": null, "source": "osm"}, {"name": "Adlikon", "country": "", "latitude": 47.4460559, "longitude": 8.4659076, "population": 0, "elevation": null, "source": "osm"}, {"name": "Otelfingen", "country": "", "latitude": 47.460873, "longitude": 8.3892173, "population": 2777, "elevation": 440.0, "source": "osm"}, {"name": "Würenlos", "country": "", "latitude": 47.4421058, "longitude": 8.3618108, "population": 6388, "elevation": 415.0, "source": "osm"}, {"name": "Dunningen", "country": "", "latitude": 48.2121531, "longitude": 8.5069055, "population": 6029, "elevation": null, "source": "osm"}, {"name": "Heuweiler", "country": "", "latitude": 48.0547453, "longitude": 7.9056113, "population": 993, "elevation": null, "source": "osm"}, {"name": "Ramsen", "country": "", "latitude": 47.7068419, "longitude": 8.811546, "population": 1375, "elevation": 413.0, "source": "osm"}, {"name": "Stein am Rhein", "country": "CH", "latitude": 47.6597323, "longitude": 8.8596823, "population": 3334, "elevation": 413.0, "source": "osm"}, {"name": "Kaltenbach", "country": "", "latitude": 47.6533487, "longitude": 8.8388165, "population": 0, "elevation": null, "source": "osm"}, {"name": "Buch", "country": "", "latitude": 47.7170103, "longitude": 8.7831625, "population": 416, "elevation": 416.0, "source": "osm"}, {"name": "Gailingen am Hochrhein", "country": "", "latitude": 47.6967723, "longitude": 8.7539974, "population": 3039, "elevation": null, "source": "osm"}, {"name": "Rheinklingen", "country": "", "latitude": 47.6745116, "longitude": 8.8077771, "population": 0, "elevation": null, "source": "osm"}, {"name": "Beringen", "country": "", "latitude": 47.6975693, "longitude": 8.5733833, "population": 4118, "elevation": 449.0, "source": "osm"}, {"name": "Guntmadingen", "country": "", "latitude": 47.6856829, "longitude": 8.556991, "population": 227, "elevation": 439.0, "source": "osm"}, {"name": "Löhningen", "country": "", "latitude": 47.7017281, "longitude": 8.5510216, "population": 1368, "elevation": 479.0, "source": "osm"}, {"name": "Siblingen", "country": "", "latitude": 47.7151451, "longitude": 8.519796, "population": 810, "elevation": 508.0, "source": "osm"}, {"name": "Gächlingen", "country": "", "latitude": 47.7027323, "longitude": 8.499197, "population": 794, "elevation": 460.0, "source": "osm"}, {"name": "Neunkirch", "country": "", "latitude": 47.689983, "longitude": 8.5000759, "population": 2023, "elevation": 429.0, "source": "osm"}, {"name": "Hallau", "country": "", "latitude": 47.6965281, "longitude": 8.4578613, "population": 2071, "elevation": 421.0, "source": "osm"}, {"name": "Oberhallau", "country": "", "latitude": 47.7050973, "longitude": 8.4783357, "population": 433, "elevation": 430.0, "source": "osm"}, {"name": "Trasadingen", "country": "", "latitude": 47.667977, "longitude": 8.4304278, "population": 595, "elevation": 403.0, "source": "osm"}, {"name": "Erzingen", "country": "", "latitude": 47.6573292, "longitude": 8.4215904, "population": 0, "elevation": null, "source": "osm"}, {"name": "Schleitheim", "country": "", "latitude": 47.7488818, "longitude": 8.4845902, "population": 1721, "elevation": 467.0, "source": "osm"}, {"name": "Hemmental", "country": "", "latitude": 47.7345217, "longitude": 8.5797397, "population": 513, "elevation": 563.0, "source": "osm"}, {"name": "Merishausen", "country": "", "latitude": 47.7609436, "longitude": 8.6099627, "population": 828, "elevation": 533.0, "source": "osm"}, {"name": "Büttenhardt", "country": "", "latitude": 47.7560054, "longitude": 8.6538298, "population": 359, "elevation": 658.0, "source": "osm"}, {"name": "Hofen SH", "country": "", "latitude": 47.7829074, "longitude": 8.6767221, "population": 136, "elevation": 474.0, "source": "osm"}, {"name": "Thayngen", "country": "", "latitude": 47.7470005, "longitude": 8.7061689, "population": 5151, "elevation": 437.0, "source": "osm"}, {"name": "Gottmadingen", "country": "", "latitude": 47.734011, "longitude": 8.7763444, "population": 10343, "elevation": null, "source": "osm"}, {"name": "Randegg", "country": "", "latitude": 47.7214839, "longitude": 8.7529344, "population": 1382, "elevation": null, "source": "osm"}, {"name": "Dörflingen", "country": "", "latitude": 47.7073736, "longitude": 8.7203932, "population": 907, "elevation": 451.0, "source": "osm"}, {"name": "Etzwilen", "country": "", "latitude": 47.6606236, "longitude": 8.8186516, "population": 0, "elevation": null, "source": "osm"}, {"name": "Eschenz", "country": "", "latitude": 47.6473559, "longitude": 8.8748245, "population": 1513, "elevation": null, "source": "osm"}, {"name": "Wilchingen", "country": "", "latitude": 47.6674274, "longitude": 8.4668988, "population": 1713, "elevation": 419.0, "source": "osm"}, {"name": "Osterfingen", "country": "", "latitude": 47.6627939, "longitude": 8.4858732, "population": 0, "elevation": null, "source": "osm"}, {"name": "Rüdlingen", "country": "", "latitude": 47.5789455, "longitude": 8.5721611, "population": 754, "elevation": 367.0, "source": "osm"}, {"name": "Buchberg", "country": "", "latitude": 47.5726201, "longitude": 8.56076, "population": 847, "elevation": 487.0, "source": "osm"}, {"name": "Wagenhausen", "country": "CH", "latitude": 47.6590751, "longitude": 8.8503702, "population": 1533, "elevation": null, "source": "osm"}, {"name": "Geschwend", "country": "", "latitude": 47.8044519, "longitude": 7.9389663, "population": 0, "elevation": null, "source": "osm"}, {"name": "Hartschwand", "country": "", "latitude": 47.6687787, "longitude": 8.066153, "population": 0, "elevation": 820.0, "source": "osm"}, {"name": "Hogschür", "country": "", "latitude": 47.6478419, "longitude": 8.0159559, "population": 0, "elevation": 872.0, "source": "osm"}, {"name": "Hofsgrund", "country": "", "latitude": 47.900949, "longitude": 7.8980993, "population": 0, "elevation": null, "source": "osm"}, {"name": "Schlatt am Randen", "country": "", "latitude": 47.7695634, "longitude": 8.7017872, "population": 0, "elevation": null, "source": "osm"}, {"name": "Baden", "country": "", "latitude": 47.4736827, "longitude": 8.3086822, "population": 19168, "elevation": 381.0, "source": "osm"}, {"name": "Ennetbaden", "country": "", "latitude": 47.4785764, "longitude": 8.3153871, "population": 3511, "elevation": 355.0, "source": "osm"}, {"name": "Wettingen", "country": "", "latitude": 47.465839, "longitude": 8.3266114, "population": 21000, "elevation": 395.0, "source": "osm"}, {"name": "Oberndorf am Neckar", "country": "", "latitude": 48.2908613, "longitude": 8.5711222, "population": 14693, "elevation": null, "source": "osm"}, {"name": "Bochingen", "country": "", "latitude": 48.3002072, "longitude": 8.6170641, "population": 0, "elevation": null, "source": "osm"}, {"name": "Boll", "country": "", "latitude": 48.3006473, "longitude": 8.5982174, "population": 0, "elevation": null, "source": "osm"}, {"name": "Gütenbach", "country": "", "latitude": 48.0454535, "longitude": 8.1381577, "population": 1319, "elevation": null, "source": "osm"}, {"name": "Bleibach", "country": "", "latitude": 48.1224647, "longitude": 8.0083804, "population": 0, "elevation": null, "source": "osm"}, {"name": "Simonswald", "country": "", "latitude": 48.1001644, "longitude": 8.0554669, "population": 3101, "elevation": null, "source": "osm"}, {"name": "Fluorn", "country": "", "latitude": 48.2998181, "longitude": 8.489382, "population": 0, "elevation": null, "source": "osm"}, {"name": "Balingen", "country": "", "latitude": 48.2737512, "longitude": 8.8557862, "population": 33270, "elevation": 517.0, "source": "osm"}, {"name": "Dauchingen", "country": "", "latitude": 48.0903198, "longitude": 8.5504079, "population": 3607, "elevation": null, "source": "osm"}, {"name": "Stetten", "country": "", "latitude": 48.3581661, "longitude": 8.8186704, "population": 0, "elevation": null, "source": "osm"}, {"name": "Owingen", "country": "", "latitude": 48.3360586, "longitude": 8.8295372, "population": 0, "elevation": null, "source": "osm"}, {"name": "Winkel", "country": "", "latitude": 47.4933353, "longitude": 8.5538578, "population": 4237, "elevation": 450.0, "source": "osm"}, {"name": "Regensberg", "country": "", "latitude": 47.4827643, "longitude": 8.4374038, "population": 465, "elevation": 617.0, "source": "osm"}, {"name": "Koblenz", "country": "", "latitude": 47.6088321, "longitude": 8.2386953, "population": 1655, "elevation": 316.0, "source": "osm"}, {"name": "Felsenau", "country": "", "latitude": 47.6033178, "longitude": 8.2212101, "population": 0, "elevation": null, "source": "osm"}, {"name": "Endingen", "country": "", "latitude": 47.5376174, "longitude": 8.2901196, "population": 2571, "elevation": 384.0, "source": "osm"}, {"name": "Siggenthal Station", "country": "", "latitude": 47.5202302, "longitude": 8.2436926, "population": 0, "elevation": null, "source": "osm"}, {"name": "Hottingen", "country": "", "latitude": 47.6230017, "longitude": 8.007987, "population": 0, "elevation": 678.0, "source": "osm"}, {"name": "Rickenbach", "country": "", "latitude": 47.6209218, "longitude": 7.9788595, "population": 3827, "elevation": null, "source": "osm"}, {"name": "Vogelbach", "country": "", "latitude": 47.6864436, "longitude": 8.0961791, "population": 0, "elevation": null, "source": "osm"}, {"name": "Wittenschwand", "country": "", "latitude": 47.7299948, "longitude": 8.0989738, "population": 0, "elevation": null, "source": "osm"}, {"name": "Hochfelden", "country": "", "latitude": 47.5225614, "longitude": 8.5160674, "population": 1989, "elevation": 399.0, "source": "osm"}, {"name": "Neerach", "country": "", "latitude": 47.5112292, "longitude": 8.4716, "population": 2366, "elevation": null, "source": "osm"}, {"name": "Riedt", "country": "", "latitude": 47.5008788, "longitude": 8.4710829, "population": 0, "elevation": null, "source": "osm"}, {"name": "Winzeln", "country": "", "latitude": 48.2862366, "longitude": 8.491737, "population": 3087, "elevation": 649.0, "source": "osm"}, {"name": "Killwangen", "country": "", "latitude": 47.4315553, "longitude": 8.3518766, "population": 2075, "elevation": 429.0, "source": "osm"}, {"name": "Fislisbach", "country": "", "latitude": 47.4369631, "longitude": 8.2899457, "population": 5548, "elevation": 426.0, "source": "osm"}, {"name": "Habsburg", "country": "", "latitude": 47.4620655, "longitude": 8.1871807, "population": 433, "elevation": 463.0, "source": "osm"}, {"name": "Windisch", "country": "", "latitude": 47.4793472, "longitude": 8.2179918, "population": 7636, "elevation": 361.0, "source": "osm"}, {"name": "Turgi", "country": "", "latitude": 47.4931594, "longitude": 8.2518887, "population": 2962, "elevation": 337.0, "source": "osm"}, {"name": "Gebenstorf", "country": "", "latitude": 47.4819508, "longitude": 8.2408818, "population": 5249, "elevation": 376.0, "source": "osm"}, {"name": "Döttingen", "country": "", "latitude": 47.5739904, "longitude": 8.2569004, "population": 3885, "elevation": 328.0, "source": "osm"}, {"name": "Klingnau", "country": "", "latitude": 47.5810046, "longitude": 8.2500088, "population": 3480, "elevation": 329.0, "source": "osm"}, {"name": "Tegerfelden", "country": "", "latitude": 47.5607982, "longitude": 8.2858739, "population": 1199, "elevation": 364.0, "source": "osm"}, {"name": "Bad Zurzach", "country": "", "latitude": 47.5866477, "longitude": 8.2940658, "population": 4240, "elevation": 340.0, "source": "osm"}, {"name": "Rheinheim", "country": "", "latitude": 47.5892797, "longitude": 8.3046971, "population": 1253, "elevation": null, "source": "osm"}, {"name": "Schneisingen", "country": "", "latitude": 47.5184104, "longitude": 8.364545, "population": 1396, "elevation": 493.0, "source": "osm"}, {"name": "Mülligen", "country": "", "latitude": 47.457194, "longitude": 8.2402149, "population": 1108, "elevation": 362.0, "source": "osm"}, {"name": "Stadel", "country": "", "latitude": 47.5280984, "longitude": 8.467585, "population": 1739, "elevation": null, "source": "osm"}, {"name": "Windlach", "country": "", "latitude": 47.5417744, "longitude": 8.4745461, "population": 0, "elevation": null, "source": "osm"}, {"name": "Glattfelden", "country": "", "latitude": 47.559752, "longitude": 8.5008282, "population": 4945, "elevation": 387.0, "source": "osm"}, {"name": "Niederhasli", "country": "", "latitude": 47.4812949, "longitude": 8.4858049, "population": 9085, "elevation": 418.0, "source": "osm"}, {"name": "Oberglatt", "country": "", "latitude": 47.4768036, "longitude": 8.5203554, "population": 6789, "elevation": 431.0, "source": "osm"}, {"name": "Rümlang", "country": "", "latitude": 47.4507163, "longitude": 8.5299122, "population": 7752, "elevation": 443.0, "source": "osm"}, {"name": "Dällikon", "country": "", "latitude": 47.4399418, "longitude": 8.4388272, "population": 3950, "elevation": 440.0, "source": "osm"}, {"name": "Bachenbülach", "country": "", "latitude": 47.5047036, "longitude": 8.5473259, "population": 4026, "elevation": 430.0, "source": "osm"}, {"name": "Embrach", "country": "", "latitude": 47.5056384, "longitude": 8.5941089, "population": 9143, "elevation": 425.0, "source": "osm"}, {"name": "Rorbas", "country": "", "latitude": 47.5303235, "longitude": 8.5771089, "population": 2201, "elevation": null, "source": "osm"}, {"name": "Lufingen", "country": "", "latitude": 47.4899328, "longitude": 8.5943645, "population": 2066, "elevation": 459.0, "source": "osm"}, {"name": "Oberembrach", "country": "", "latitude": 47.4876358, "longitude": 8.618543, "population": 1066, "elevation": 459.0, "source": "osm"}, {"name": "Kyburg", "country": "", "latitude": 47.4570858, "longitude": 8.744344, "population": 405, "elevation": 640.0, "source": "osm"}, {"name": "Adlikon b. Andelfingen", "country": "", "latitude": 47.5825032, "longitude": 8.6912556, "population": 587, "elevation": null, "source": "osm"}, {"name": "Rudolfingen", "country": "", "latitude": 47.6407539, "longitude": 8.6738748, "population": 0, "elevation": null, "source": "osm"}, {"name": "Ellikon am Rhein", "country": "", "latitude": 47.6053031, "longitude": 8.5981551, "population": 0, "elevation": 347.0, "source": "osm"}, {"name": "Flaach", "country": "", "latitude": 47.5754461, "longitude": 8.6060755, "population": 1164, "elevation": null, "source": "osm"}, {"name": "Berg am Irchel", "country": "", "latitude": 47.5679698, "longitude": 8.5959486, "population": 573, "elevation": null, "source": "osm"}, {"name": "Volken", "country": "", "latitude": 47.5746457, "longitude": 8.6251185, "population": 339, "elevation": 406.0, "source": "osm"}, {"name": "Humlikon", "country": "", "latitude": 47.5762347, "longitude": 8.6695684, "population": 504, "elevation": 438.0, "source": "osm"}, {"name": "Aesch (Neftenbach)", "country": "", "latitude": 47.5413524, "longitude": 8.6795397, "population": 0, "elevation": null, "source": "osm"}, {"name": "Neftenbach", "country": "", "latitude": 47.528176, "longitude": 8.6680365, "population": 5434, "elevation": 415.0, "source": "osm"}, {"name": "Hünikon (Neftenbach)", "country": "", "latitude": 47.5515491, "longitude": 8.6683818, "population": 0, "elevation": null, "source": "osm"}, {"name": "Hüntwangen", "country": "", "latitude": 47.5954244, "longitude": 8.4925331, "population": 782, "elevation": null, "source": "osm"}, {"name": "Wasterkingen", "country": "", "latitude": 47.590058, "longitude": 8.4707137, "population": 573, "elevation": 393.0, "source": "osm"}, {"name": "Gräslikon", "country": "", "latitude": 47.5571034, "longitude": 8.6059848, "population": 0, "elevation": null, "source": "osm"}, {"name": "Teufen", "country": "", "latitude": 47.5503988, "longitude": 8.5678019, "population": 0, "elevation": null, "source": "osm"}, {"name": "Baltersweil", "country": "", "latitude": 47.6371834, "longitude": 8.5110377, "population": 0, "elevation": null, "source": "osm"}, {"name": "Maleck", "country": "", "latitude": 48.1294507, "longitude": 7.8851394, "population": 416, "elevation": null, "source": "osm"}, {"name": "Sexau", "country": "", "latitude": 48.1024366, "longitude": 7.9082564, "population": 3178, "elevation": null, "source": "osm"}, {"name": "Brütten", "country": "", "latitude": 47.4731491, "longitude": 8.6753241, "population": 2009, "elevation": 610.0, "source": "osm"}, {"name": "Oberwil", "country": "", "latitude": 47.4646638, "longitude": 8.6403132, "population": 0, "elevation": null, "source": "osm"}, {"name": "Dättlikon", "country": "", "latitude": 47.5256653, "longitude": 8.6224807, "population": 756, "elevation": 386.0, "source": "osm"}, {"name": "Pfungen", "country": "", "latitude": 47.5161123, "longitude": 8.6454232, "population": 3535, "elevation": 412.0, "source": "osm"}, {"name": "Dettighofen", "country": "", "latitude": 47.6240598, "longitude": 8.4851391, "population": 1079, "elevation": null, "source": "osm"}, {"name": "Bärental", "country": "", "latitude": 47.8698691, "longitude": 8.0954776, "population": 0, "elevation": null, "source": "osm"}, {"name": "Untersiggenthal", "country": "", "latitude": 47.4992019, "longitude": 8.2574722, "population": 7176, "elevation": 371.0, "source": "osm"}, {"name": "Niedereschach", "country": "", "latitude": 48.1322687, "longitude": 8.528116, "population": 0, "elevation": null, "source": "osm"}, {"name": "Gruol", "country": "", "latitude": 48.3457313, "longitude": 8.7749807, "population": 0, "elevation": null, "source": "osm"}, {"name": "Schramberg", "country": "", "latitude": 48.225478, "longitude": 8.3852168, "population": 20716, "elevation": 426.0, "source": "osm"}, {"name": "Mariazell", "country": "", "latitude": 48.1846233, "longitude": 8.4570987, "population": 0, "elevation": null, "source": "osm"}, {"name": "Locherhof", "country": "", "latitude": 48.1960966, "longitude": 8.4768146, "population": 0, "elevation": null, "source": "osm"}, {"name": "Seedorf", "country": "", "latitude": 48.2485356, "longitude": 8.4899737, "population": 0, "elevation": null, "source": "osm"}, {"name": "Waldmössingen", "country": "", "latitude": 48.2688319, "longitude": 8.4856802, "population": 0, "elevation": null, "source": "osm"}, {"name": "Beffendorf", "country": "", "latitude": 48.2814368, "longitude": 8.5402962, "population": 0, "elevation": null, "source": "osm"}, {"name": "Kirchdorf", "country": "", "latitude": 47.496631, "longitude": 8.275998, "population": 0, "elevation": null, "source": "osm"}, {"name": "Täbingen", "country": "", "latitude": 48.2414112, "longitude": 8.7239539, "population": 0, "elevation": null, "source": "osm"}, {"name": "Zimmern unter der Burg", "country": "", "latitude": 48.2205875, "longitude": 8.7188463, "population": 485, "elevation": null, "source": "osm"}, {"name": "Endingen", "country": "", "latitude": 48.2564471, "longitude": 8.8365517, "population": 0, "elevation": null, "source": "osm"}, {"name": "Erzingen", "country": "", "latitude": 48.2524861, "longitude": 8.8171477, "population": 0, "elevation": null, "source": "osm"}, {"name": "Dotternhausen", "country": "", "latitude": 48.2276969, "longitude": 8.7920689, "population": 1861, "elevation": null, "source": "osm"}, {"name": "Schörzingen", "country": "", "latitude": 48.1793267, "longitude": 8.7462709, "population": 0, "elevation": null, "source": "osm"}, {"name": "Keppenbach", "country": "", "latitude": 48.1442847, "longitude": 7.9197847, "population": 0, "elevation": null, "source": "osm"}, {"name": "Reichenbach", "country": "", "latitude": 48.1581534, "longitude": 7.9243497, "population": 0, "elevation": null, "source": "osm"}, {"name": "Breitnau", "country": "", "latitude": 47.9398612, "longitude": 8.0770221, "population": 1961, "elevation": null, "source": "osm"}, {"name": "Eiken", "country": "", "latitude": 47.5312508, "longitude": 7.9894417, "population": 2277, "elevation": 331.0, "source": "osm"}, {"name": "Frick", "country": "", "latitude": 47.5075081, "longitude": 8.0203065, "population": 5483, "elevation": 349.0, "source": "osm"}, {"name": "Schöfflisdorf", "country": "", "latitude": 47.4998561, "longitude": 8.4162027, "population": 1133, "elevation": null, "source": "osm"}, {"name": "Wegenstetten", "country": "", "latitude": 47.4995108, "longitude": 7.9337595, "population": 1075, "elevation": 433.0, "source": "osm"}, {"name": "Mumpf", "country": "", "latitude": 47.545436, "longitude": 7.920759, "population": 1431, "elevation": 286.0, "source": "osm"}, {"name": "Birrhard", "country": "", "latitude": 47.4326965, "longitude": 8.24414, "population": 705, "elevation": 390.0, "source": "osm"}, {"name": "Elzach", "country": "", "latitude": 48.1757263, "longitude": 8.0718474, "population": 7157, "elevation": null, "source": "osm"}, {"name": "Niederwinden", "country": "", "latitude": 48.1437659, "longitude": 8.0227467, "population": 0, "elevation": null, "source": "osm"}, {"name": "Oberwinden", "country": "", "latitude": 48.152948, "longitude": 8.0450017, "population": 0, "elevation": null, "source": "osm"}, {"name": "Heiligenbronn", "country": "", "latitude": 48.2561857, "longitude": 8.4482817, "population": 0, "elevation": null, "source": "osm"}, {"name": "Schonach im Schwarzwald", "country": "", "latitude": 48.1427148, "longitude": 8.1974937, "population": 3997, "elevation": null, "source": "osm"}, {"name": "Saig", "country": "", "latitude": 47.89294, "longitude": 8.1780582, "population": 0, "elevation": null, "source": "osm"}, {"name": "Lenzkirch", "country": "", "latitude": 47.8682042, "longitude": 8.2022783, "population": 5114, "elevation": null, "source": "osm"}, {"name": "Kappel", "country": "", "latitude": 47.8732181, "longitude": 8.2323048, "population": 0, "elevation": null, "source": "osm"}, {"name": "Schönau im Schwarzwald", "country": "", "latitude": 47.7861792, "longitude": 7.8933977, "population": 2523, "elevation": null, "source": "osm"}, {"name": "Muggenbrunn", "country": "", "latitude": 47.8571914, "longitude": 7.916809, "population": 0, "elevation": null, "source": "osm"}, {"name": "Baldingen", "country": "", "latitude": 47.554707, "longitude": 8.313637, "population": 261, "elevation": 520.0, "source": "osm"}, {"name": "Wittnau", "country": "", "latitude": 47.4811219, "longitude": 7.9753983, "population": 1320, "elevation": 404.0, "source": "osm"}, {"name": "Hausen ob Verena", "country": "", "latitude": 48.0535108, "longitude": 8.7242826, "population": 741, "elevation": null, "source": "osm"}, {"name": "Rickenbach", "country": "", "latitude": 47.5523398, "longitude": 8.7962716, "population": 2591, "elevation": 425.0, "source": "osm"}, {"name": "Frittlingen", "country": "", "latitude": 48.1267587, "longitude": 8.7058756, "population": 2132, "elevation": null, "source": "osm"}, {"name": "Weilen unter den Rinnen", "country": "", "latitude": 48.1892472, "longitude": 8.7662297, "population": 620, "elevation": 707.0, "source": "osm"}, {"name": "Oberwolfach", "country": "", "latitude": 48.3169714, "longitude": 8.2172428, "population": 2754, "elevation": null, "source": "osm"}, {"name": "Löffingen", "country": "", "latitude": 47.8839004, "longitude": 8.3446627, "population": 7962, "elevation": null, "source": "osm"}, {"name": "Brugg", "country": "", "latitude": 47.4824633, "longitude": 8.2085662, "population": 11092, "elevation": 352.0, "source": "osm"}, {"name": "Schleinikon", "country": "", "latitude": 47.4971908, "longitude": 8.3971872, "population": 637, "elevation": null, "source": "osm"}, {"name": "Eglisau", "country": "", "latitude": 47.5733207, "longitude": 8.5239827, "population": 2893, "elevation": null, "source": "osm"}, {"name": "Bubsheim", "country": "", "latitude": 48.120199, "longitude": 8.8299392, "population": 1145, "elevation": null, "source": "osm"}, {"name": "Bassersdorf", "country": "", "latitude": 47.4435706, "longitude": 8.6299131, "population": 11561, "elevation": 460.0, "source": "osm"}, {"name": "Schönwald", "country": "", "latitude": 48.1053473, "longitude": 8.2034483, "population": 2482, "elevation": null, "source": "osm"}, {"name": "Eisenbach", "country": "", "latitude": 47.9624362, "longitude": 8.2710482, "population": 2270, "elevation": null, "source": "osm"}, {"name": "Schupfart", "country": "", "latitude": 47.5145465, "longitude": 7.9657804, "population": 825, "elevation": 446.0, "source": "osm"}, {"name": "Lauchringen", "country": "", "latitude": 47.6279841, "longitude": 8.313767, "population": 7409, "elevation": null, "source": "osm"}, {"name": "Rekingen", "country": "", "latitude": 47.5707146, "longitude": 8.3204135, "population": 933, "elevation": 341.0, "source": "osm"}, {"name": "Schinznach Bad", "country": "", "latitude": 47.4515074, "longitude": 8.1676758, "population": 1298, "elevation": 364.0, "source": "osm"}, {"name": "Jestetten", "country": "", "latitude": 47.65, "longitude": 8.56667, "population": 5194, "elevation": null, "source": "osm"}, {"name": "Oberhofen", "country": "", "latitude": 47.5537006, "longitude": 8.1316233, "population": 282, "elevation": 362.0, "source": "osm"}, {"name": "St. Georgen", "country": "", "latitude": 48.1257642, "longitude": 8.3330247, "population": 13086, "elevation": null, "source": "osm"}, {"name": "Thalheim an der Thur", "country": "", "latitude": 47.5786159, "longitude": 8.7538871, "population": 903, "elevation": 385.0, "source": "osm"}, {"name": "Talheim", "country": "", "latitude": 48.0109609, "longitude": 8.6617485, "population": 1223, "elevation": 750.0, "source": "osm"}, {"name": "Oberweningen", "country": "", "latitude": 47.501261, "longitude": 8.4056983, "population": 1796, "elevation": 465.0, "source": "osm"}, {"name": "Wölflinswil", "country": "", "latitude": 47.4608194, "longitude": 7.9976535, "population": 1042, "elevation": 437.0, "source": "osm"}, {"name": "Wellendingen", "country": "", "latitude": 48.1476966, "longitude": 8.6992712, "population": 3054, "elevation": null, "source": "osm"}, {"name": "Obersiggenthal", "country": "", "latitude": 47.487555, "longitude": 8.2940052, "population": 8564, "elevation": 380.0, "source": "osm"}, {"name": "Balgheim", "country": "", "latitude": 48.0665256, "longitude": 8.7646788, "population": 993, "elevation": null, "source": "osm"}, {"name": "Seelbach", "country": "", "latitude": 48.3145597, "longitude": 7.9400652, "population": 5193, "elevation": null, "source": "osm"}, {"name": "Volkertshausen", "country": "", "latitude": 47.8216419, "longitude": 8.8651353, "population": 2794, "elevation": null, "source": "osm"}, {"name": "Dänikon", "country": "", "latitude": 47.445933, "longitude": 8.4057151, "population": 1888, "elevation": 437.0, "source": "osm"}, {"name": "Oeschgen", "country": "", "latitude": 47.5191409, "longitude": 8.0170821, "population": 1013, "elevation": 340.0, "source": "osm"}, {"name": "Donaueschingen", "country": "", "latitude": 47.9534194, "longitude": 8.4959257, "population": 21434, "elevation": null, "source": "osm"}, {"name": "Kaisten", "country": "", "latitude": 47.5386303, "longitude": 8.0446209, "population": 2649, "elevation": 333.0, "source": "osm"}, {"name": "Bad Säckingen", "country": "", "latitude": 47.5525538, "longitude": 7.9495387, "population": 16673, "elevation": 291.0, "source": "osm"}, {"name": "Stetten SH", "country": "", "latitude": 47.7368279, "longitude": 8.6590681, "population": 1292, "elevation": 563.0, "source": "osm"}, {"name": "Lindau", "country": "", "latitude": 47.4426676, "longitude": 8.6722839, "population": 5379, "elevation": 519.0, "source": "osm"}, {"name": "Elfingen", "country": "", "latitude": 47.5072011, "longitude": 8.0990017, "population": 293, "elevation": 449.0, "source": "osm"}, {"name": "Büsingen am Hochrhein", "country": "", "latitude": 47.6975034, "longitude": 8.6907123, "population": 1335, "elevation": 395.0, "source": "osm"}, {"name": "Hemmiken", "country": "", "latitude": 47.4880195, "longitude": 7.8913586, "population": 290, "elevation": null, "source": "osm"}, {"name": "Königsfeld im Schwarzwald", "country": "", "latitude": 48.1401934, "longitude": 8.4194, "population": 6155, "elevation": null, "source": "osm"}, {"name": "Weilheim", "country": "", "latitude": 47.6582006, "longitude": 8.2413047, "population": 3161, "elevation": null, "source": "osm"}, {"name": "Trossingen", "country": "", "latitude": 48.07506, "longitude": 8.6362987, "population": 17463, "elevation": null, "source": "osm"}, {"name": "Herrischried", "country": "", "latitude": 47.6665531, "longitude": 8.0006455, "population": 2782, "elevation": 874.0, "source": "osm"}, {"name": "Betzweiler", "country": "", "latitude": 48.3607918, "longitude": 8.4835636, "population": 1439, "elevation": null, "source": "osm"}, {"name": "Hilzingen", "country": "", "latitude": 47.7650022, "longitude": 8.7847713, "population": 8364, "elevation": null, "source": "osm"}, {"name": "Wurmlingen", "country": "", "latitude": 48.0026634, "longitude": 8.7765991, "population": 3839, "elevation": null, "source": "osm"}, {"name": "Bad Dürrheim", "country": "", "latitude": 48.0222311, "longitude": 8.5299837, "population": 13260, "elevation": 703.0, "source": "osm"}, {"name": "Gipf-Oberfrick", "country": "", "latitude": 47.4975112, "longitude": 8.0029699, "population": 3502, "elevation": 368.0, "source": "osm"}, {"name": "Oberflachs", "country": "", "latitude": 47.4418412, "longitude": 8.1294405, "population": 468, "elevation": 398.0, "source": "osm"}, {"name": "Rietheim", "country": "", "latitude": 47.6008113, "longitude": 8.2778878, "population": 759, "elevation": 329.0, "source": "osm"}, {"name": "Weisslingen", "country": "", "latitude": 47.4318502, "longitude": 8.7640975, "population": 3255, "elevation": 576.0, "source": "osm"}, {"name": "Triberg", "country": "", "latitude": 48.1298016, "longitude": 8.232271, "population": 0, "elevation": null, "source": "osm"}, {"name": "Buchenbach", "country": "", "latitude": 47.9607582, "longitude": 8.0092808, "population": 3301, "elevation": null, "source": "osm"}, {"name": "Gallenkirch", "country": "", "latitude": 47.4793327, "longitude": 8.1249307, "population": 131, "elevation": 565.0, "source": "osm"}, {"name": "Altikon", "country": "", "latitude": 47.5733928, "longitude": 8.7808347, "population": 638, "elevation": 393.0, "source": "osm"}, {"name": "Haslach im Kinzigtal", "country": "", "latitude": 48.2769011, "longitude": 8.0871643, "population": 6874, "elevation": null, "source": "osm"}, {"name": "Kloten", "country": "", "latitude": 47.4525133, "longitude": 8.5861477, "population": 18412, "elevation": 435.0, "source": "osm"}, {"name": "Rheinau", "country": "", "latitude": 47.6439248, "longitude": 8.6017575, "population": 1300, "elevation": null, "source": "osm"}, {"name": "Dietingen", "country": "", "latitude": 48.2054811, "longitude": 8.64673, "population": 3945, "elevation": null, "source": "osm"}, {"name": "Dinhard", "country": "", "latitude": 47.5551982, "longitude": 8.7681536, "population": 1490, "elevation": 434.0, "source": "osm"}, {"name": "Rümikon", "country": "", "latitude": 47.5658654, "longitude": 8.3755712, "population": 324, "elevation": 342.0, "source": "osm"}, {"name": "Birmenstorf", "country": "", "latitude": 47.4611315, "longitude": 8.2493768, "population": 2969, "elevation": 386.0, "source": "osm"}, {"name": "Wallbach", "country": "", "latitude": 47.5599243, "longitude": 7.902809, "population": 1958, "elevation": 288.0, "source": "osm"}, {"name": "Hohentengen am Hochrhein", "country": "", "latitude": 47.5706677, "longitude": 8.4345076, "population": 3633, "elevation": 378.0, "source": "osm"}, {"name": "Thalheim", "country": "", "latitude": 47.4367098, "longitude": 8.0999521, "population": 836, "elevation": 451.0, "source": "osm"}, {"name": "Sisseln", "country": "", "latitude": 47.5534624, "longitude": 7.989416, "population": 1585, "elevation": 292.0, "source": "osm"}, {"name": "Zell", "country": "", "latitude": 47.448026, "longitude": 8.8227739, "population": 5690, "elevation": 541.0, "source": "osm"}, {"name": "Wutöschingen", "country": "", "latitude": 47.6596219, "longitude": 8.3651806, "population": 6885, "elevation": null, "source": "osm"}, {"name": "Böbikon", "country": "", "latitude": 47.5537308, "longitude": 8.333123, "population": 174, "elevation": 442.0, "source": "osm"}, {"name": "Zeihen", "country": "", "latitude": 47.4765025, "longitude": 8.0856118, "population": 1170, "elevation": 441.0, "source": "osm"}, {"name": "Bachs", "country": "", "latitude": 47.5253778, "longitude": 8.4397426, "population": 577, "elevation": null, "source": "osm"}, {"name": "Nürensdorf", "country": "", "latitude": 47.4492605, "longitude": 8.6470753, "population": 4475, "elevation": null, "source": "osm"}, {"name": "Unterkirnach", "country": "", "latitude": 48.0777092, "longitude": 8.3659473, "population": 2923, "elevation": null, "source": "osm"}, {"name": "Tuttlingen", "country": "", "latitude": 47.9844315, "longitude": 8.8186606, "population": 33394, "elevation": 645.0, "source": "osm"}, {"name": "Ehrendingen", "country": "", "latitude": 47.4948072, "longitude": 8.3418609, "population": 4847, "elevation": 448.0, "source": "osm"}, {"name": "St. Peter", "country": "", "latitude": 48.01786, "longitude": 8.0358335, "population": 2529, "elevation": null, "source": "osm"}, {"name": "Unterstammheim", "country": "", "latitude": 47.638955, "longitude": 8.7907193, "population": 845, "elevation": null, "source": "osm"}, {"name": "Bertschikon", "country": "", "latitude": 47.5262826, "longitude": 8.8138602, "population": 1091, "elevation": 506.0, "source": "osm"}, {"name": "Hausen", "country": "", "latitude": 47.4603829, "longitude": 8.2150502, "population": 3575, "elevation": 380.0, "source": "osm"}, {"name": "Bösingen", "country": "", "latitude": 48.2387297, "longitude": 8.5583786, "population": 3470, "elevation": null, "source": "osm"}, {"name": "Unterendingen", "country": "", "latitude": 47.5469468, "longitude": 8.2890979, "population": 371, "elevation": 386.0, "source": "osm"}, {"name": "Wolfach", "country": "", "latitude": 48.2985845, "longitude": 8.222608, "population": 5949, "elevation": null, "source": "osm"}, {"name": "Rielasingen-Worblingen", "country": "", "latitude": 47.729588, "longitude": 8.8453483, "population": 11938, "elevation": null, "source": "osm"}, {"name": "Grafenhausen", "country": "", "latitude": 47.7744797, "longitude": 8.2606207, "population": 2385, "elevation": null, "source": "osm"}, {"name": "Fischerbach", "country": "", "latitude": 48.287808, "longitude": 8.111432, "population": 1702, "elevation": null, "source": "osm"}, {"name": "Oberried", "country": "", "latitude": 47.9330055, "longitude": 7.9498704, "population": 2871, "elevation": null, "source": "osm"}, {"name": "Niederglatt", "country": "", "latitude": 47.4918429, "longitude": 8.5030113, "population": 4751, "elevation": 411.0, "source": "osm"}, {"name": "Königsheim", "country": "", "latitude": 48.1013677, "longitude": 8.8623586, "population": 553, "elevation": null, "source": "osm"}, {"name": "Scherz", "country": "", "latitude": 47.446326, "longitude": 8.183993, "population": 652, "elevation": 403.0, "source": "osm"}, {"name": "Sulz am Neckar", "country": "", "latitude": 48.3617509, "longitude": 8.6314329, "population": 12638, "elevation": null, "source": "osm"}, {"name": "Sulz", "country": "", "latitude": 47.5347382, "longitude": 8.0961846, "population": 1160, "elevation": 372.0, "source": "osm"}, {"name": "Furtwangen", "country": "", "latitude": 48.0512198, "longitude": 8.2073776, "population": 9004, "elevation": 879.0, "source": "osm"}, {"name": "Ühlingen", "country": "", "latitude": 47.7185032, "longitude": 8.317351, "population": 5216, "elevation": null, "source": "osm"}, {"name": "Geislingen", "country": "", "latitude": 48.2886289, "longitude": 8.8135495, "population": 5990, "elevation": null, "source": "osm"}, {"name": "Uhwiesen", "country": "", "latitude": 47.6709937, "longitude": 8.6350982, "population": 0, "elevation": null, "source": "osm"}, {"name": "Mühlenbach", "country": "", "latitude": 48.2540384, "longitude": 8.1105827, "population": 1719, "elevation": null, "source": "osm"}, {"name": "Fisibach", "country": "", "latitude": 47.5637103, "longitude": 8.4100542, "population": 480, "elevation": 382.0, "source": "osm"}, {"name": "Freienstein", "country": "", "latitude": 47.5311367, "longitude": 8.585086, "population": 2127, "elevation": null, "source": "osm"}, {"name": "Hettlingen", "country": "", "latitude": 47.5467745, "longitude": 8.7095144, "population": 3013, "elevation": 433.0, "source": "osm"}, {"name": "Benken ZH", "country": "", "latitude": 47.6537872, "longitude": 8.6537634, "population": 859, "elevation": 420.0, "source": "osm"}, {"name": "Dogern", "country": "", "latitude": 47.60846, "longitude": 8.1691168, "population": 2342, "elevation": null, "source": "osm"}, {"name": "Veltheim AG", "country": "", "latitude": 47.437709, "longitude": 8.1461059, "population": 1563, "elevation": 372.0, "source": "osm"}, {"name": "Linn", "country": "", "latitude": 47.4701265, "longitude": 8.1309341, "population": 129, "elevation": 566.0, "source": "osm"}, {"name": "Turbenthal", "country": "", "latitude": 47.4368146, "longitude": 8.848521, "population": 4469, "elevation": 554.0, "source": "osm"}, {"name": "Bibern SH", "country": "", "latitude": 47.7732327, "longitude": 8.6770024, "population": 248, "elevation": 462.0, "source": "osm"}, {"name": "Flurlingen", "country": "", "latitude": 47.6860764, "longitude": 8.6272354, "population": 1404, "elevation": 413.0, "source": "osm"}, {"name": "Wil AG", "country": "", "latitude": 47.5609977, "longitude": 8.1519962, "population": 674, "elevation": 375.0, "source": "osm"}, {"name": "Mahlstetten", "country": "", "latitude": 48.074512, "longitude": 8.8363445, "population": 735, "elevation": null, "source": "osm"}, {"name": "Denkingen", "country": "", "latitude": 48.1106966, "longitude": 8.7386889, "population": 2702, "elevation": null, "source": "osm"}, {"name": "Dägerlen", "country": "", "latitude": 47.5605504, "longitude": 8.7217683, "population": 1014, "elevation": 474.0, "source": "osm"}, {"name": "Hausach", "country": "", "latitude": 48.2836305, "longitude": 8.174972, "population": 5807, "elevation": null, "source": "osm"}, {"name": "Aldingen", "country": "", "latitude": 48.092217, "longitude": 8.7025341, "population": 7551, "elevation": null, "source": "osm"}, {"name": "Vöhrenbach", "country": "", "latitude": 48.0458156, "longitude": 8.3039184, "population": 4112, "elevation": null, "source": "osm"}, {"name": "Obernheim", "country": "", "latitude": 48.1628786, "longitude": 8.8605489, "population": 1542, "elevation": null, "source": "osm"}, {"name": "Schömberg", "country": "", "latitude": 48.211058, "longitude": 8.7604633, "population": 4620, "elevation": 676.0, "source": "osm"}, {"name": "Gunningen", "country": "", "latitude": 48.0462909, "longitude": 8.6993514, "population": 715, "elevation": null, "source": "osm"}, {"name": "Wembach", "country": "", "latitude": 47.7734267, "longitude": 7.8877496, "population": 327, "elevation": null, "source": "osm"}, {"name": "Hofstetten", "country": "", "latitude": 48.2589583, "longitude": 8.0677539, "population": 1675, "elevation": null, "source": "osm"}, {"name": "Höri", "country": "", "latitude": 47.5066543, "longitude": 8.5062644, "population": 2639, "elevation": null, "source": "osm"}, {"name": "Hardt", "country": "", "latitude": 48.1830474, "longitude": 8.4084662, "population": 2619, "elevation": null, "source": "osm"}, {"name": "Aitern", "country": "", "latitude": 47.8037979, "longitude": 7.894723, "population": 544, "elevation": null, "source": "osm"}, {"name": "Wenslingen", "country": "", "latitude": 47.440539, "longitude": 7.907641, "population": 718, "elevation": null, "source": "osm"}, {"name": "Kemptthal", "country": "", "latitude": 47.4522951, "longitude": 8.7052115, "population": 0, "elevation": null, "source": "osm"}, {"name": "Rämismühle", "country": "", "latitude": 47.4405517, "longitude": 8.8193439, "population": 0, "elevation": null, "source": "osm"}, {"name": "Wislikofen", "country": "", "latitude": 47.5578734, "longitude": 8.3622093, "population": 342, "elevation": 394.0, "source": "osm"}, {"name": "Niederweningen", "country": "", "latitude": 47.5076024, "longitude": 8.380001, "population": 2220, "elevation": null, "source": "osm"}, {"name": "Zuzgen", "country": "", "latitude": 47.52544, "longitude": 7.900246, "population": 886, "elevation": 377.0, "source": "osm"}, {"name": "Hornussen", "country": "", "latitude": 47.5005311, "longitude": 8.0633909, "population": 936, "elevation": 383.0, "source": "osm"}, {"name": "Siglistorf", "country": "", "latitude": 47.5453889, "longitude": 8.3808698, "population": 630, "elevation": 444.0, "source": "osm"}, {"name": "Dornhan", "country": "", "latitude": 48.3502837, "longitude": 8.5078535, "population": 6160, "elevation": null, "source": "osm"}, {"name": "Hausen am Tann", "country": "", "latitude": 48.1982301, "longitude": 8.8361165, "population": 505, "elevation": 745.0, "source": "osm"}, {"name": "Oberbözberg", "country": "", "latitude": 47.4974655, "longitude": 8.1549171, "population": 505, "elevation": 539.0, "source": "osm"}, {"name": "Böttingen", "country": "", "latitude": 48.1014239, "longitude": 8.8065173, "population": 1507, "elevation": null, "source": "osm"}, {"name": "Wehingen", "country": "", "latitude": 48.1484878, "longitude": 8.7933022, "population": 3699, "elevation": null, "source": "osm"}, {"name": "Gutach im Breisgau", "country": "", "latitude": 48.1165872, "longitude": 7.991126, "population": 4476, "elevation": null, "source": "osm"}, {"name": "Ehrsberg", "country": "", "latitude": 47.7437032, "longitude": 7.9061053, "population": 865, "elevation": null, "source": "osm"}, {"name": "Epfendorf", "country": "", "latitude": 48.2478625, "longitude": 8.5969031, "population": 3550, "elevation": null, "source": "osm"}, {"name": "Buch am Irchel", "country": "", "latitude": 47.5489807, "longitude": 8.6199637, "population": 728, "elevation": null, "source": "osm"}, {"name": "Steinmaur", "country": "", "latitude": 47.4989995, "longitude": 8.4555136, "population": 2742, "elevation": null, "source": "osm"}, {"name": "Wehr", "country": "", "latitude": 47.6286078, "longitude": 7.9046417, "population": 0, "elevation": null, "source": "osm"}, {"name": "Altdorf SH", "country": "", "latitude": 47.7841983, "longitude": 8.6593175, "population": 188, "elevation": 518.0, "source": "osm"}, {"name": "Immendingen", "country": "", "latitude": 47.9391577, "longitude": 8.734422, "population": 5891, "elevation": null, "source": "osm"}, {"name": "Schlatt", "country": "", "latitude": 47.6619232, "longitude": 8.7039619, "population": 1485, "elevation": null, "source": "osm"}, {"name": "Durchhausen", "country": "", "latitude": 48.0388958, "longitude": 8.6748324, "population": 859, "elevation": null, "source": "osm"}, {"name": "Effingen", "country": "", "latitude": 47.4896963, "longitude": 8.1035209, "population": 593, "elevation": 432.0, "source": "osm"}, {"name": "Lupfig", "country": "", "latitude": 47.4397165, "longitude": 8.2013965, "population": 3073, "elevation": 395.0, "source": "osm"}, {"name": "Elsau", "country": "", "latitude": 47.5048298, "longitude": 8.8016078, "population": 3477, "elevation": 498.0, "source": "osm"}, {"name": "Villigen", "country": "", "latitude": 47.5262684, "longitude": 8.2147282, "population": 2091, "elevation": 365.0, "source": "osm"}, {"name": "Tengen", "country": "", "latitude": 47.8166011, "longitude": 8.6594228, "population": 4719, "elevation": 643.0, "source": "osm"}, {"name": "Stein", "country": "", "latitude": 47.5451212, "longitude": 7.9540042, "population": 3150, "elevation": 300.0, "source": "osm"}, {"name": "St. Märgen", "country": "", "latitude": 48.007758, "longitude": 8.0927702, "population": 1864, "elevation": null, "source": "osm"}, {"name": "Wil ZH", "country": "", "latitude": 47.6055207, "longitude": 8.5049057, "population": 1317, "elevation": null, "source": "osm"}, {"name": "Geisingen", "country": "", "latitude": 47.922968, "longitude": 8.6491814, "population": 6119, "elevation": null, "source": "osm"}, {"name": "Herznach", "country": "", "latitude": 47.4733714, "longitude": 8.0502339, "population": 1506, "elevation": 417.0, "source": "osm"}, {"name": "Ittenthal", "country": "", "latitude": 47.5185215, "longitude": 8.0592609, "population": 236, "elevation": 398.0, "source": "osm"}, {"name": "Birr", "country": "", "latitude": 47.4345344, "longitude": 8.2029778, "population": 4444, "elevation": 402.0, "source": "osm"}, {"name": "Schinznach Dorf", "country": "", "latitude": 47.4467994, "longitude": 8.1422836, "population": 2221, "elevation": 383.0, "source": "osm"}, {"name": "Waldkirch", "country": "", "latitude": 48.0939396, "longitude": 7.9610142, "population": 21141, "elevation": 274.0, "source": "osm"}, {"name": "Kaiserstuhl", "country": "", "latitude": 47.5684522, "longitude": 8.4183639, "population": 430, "elevation": 341.0, "source": "osm"}, {"name": "Nohl", "country": "", "latitude": 47.6717331, "longitude": 8.60805, "population": 0, "elevation": null, "source": "osm"}, {"name": "Stühlingen", "country": "", "latitude": 47.7470397, "longitude": 8.4474495, "population": 5306, "elevation": 453.0, "source": "osm"}, {"name": "Bonndorf im Schwarzwald", "country": "", "latitude": 47.8190186, "longitude": 8.3415473, "population": 6876, "elevation": null, "source": "osm"}, {"name": "Engen", "country": "", "latitude": 47.8532383, "longitude": 8.7704457, "population": 10168, "elevation": null, "source": "osm"}, {"name": "Gutach (Schwarzwaldbahn)", "country": "", "latitude": 48.2487016, "longitude": 8.2116631, "population": 2221, "elevation": null, "source": "osm"}, {"name": "Anwil", "country": "", "latitude": 47.4527412, "longitude": 7.9424961, "population": 495, "elevation": 610.0, "source": "osm"}, {"name": "Denzlingen", "country": "", "latitude": 48.0669167, "longitude": 7.8862704, "population": 13318, "elevation": null, "source": "osm"}, {"name": "Tuningen", "country": "", "latitude": 48.0256189, "longitude": 8.6016372, "population": 3050, "elevation": 745.8, "source": "osm"}, {"name": "Villingen-Schwenningen", "country": "", "latitude": 48.063152, "longitude": 8.4929618, "population": 81128, "elevation": 699.0, "source": "osm"}, {"name": "Villnachern", "country": "", "latitude": 47.4722417, "longitude": 8.160523, "population": 1655, "elevation": 365.0, "source": "osm"}, {"name": "Dautmergen", "country": "", "latitude": 48.2422478, "longitude": 8.741293, "population": 411, "elevation": null, "source": "osm"}, {"name": "Oltingen", "country": "", "latitude": 47.4323333, "longitude": 7.93486, "population": 405, "elevation": 580.0, "source": "osm"}, {"name": "Laufen-Uhwiesen", "country": "", "latitude": 47.6741137, "longitude": 8.6143402, "population": 1369, "elevation": null, "source": "osm"}, {"name": "Hüttikon", "country": "", "latitude": 47.4449831, "longitude": 8.3867932, "population": 879, "elevation": 433.0, "source": "osm"}, {"name": "Stegen", "country": "", "latitude": 47.9815491, "longitude": 7.9641532, "population": 4373, "elevation": null, "source": "osm"}, {"name": "Egesheim", "country": "", "latitude": 48.1165569, "longitude": 8.8559559, "population": 633, "elevation": null, "source": "osm"}, {"name": "Kienberg", "country": "", "latitude": 47.4396494, "longitude": 7.9671385, "population": 526, "elevation": 549.0, "source": "osm"}, {"name": "Friedenweiler", "country": "", "latitude": 47.917078, "longitude": 8.2571947, "population": 2058, "elevation": null, "source": "osm"}, {"name": "Opfertshofen SH", "country": "", "latitude": 47.7770473, "longitude": 8.661041, "population": 141, "elevation": 566.0, "source": "osm"}, {"name": "Opfikon", "country": "", "latitude": 47.4322671, "longitude": 8.5779983, "population": 18482, "elevation": 459.0, "source": "osm"}, {"name": "Neuenhof", "country": "", "latitude": 47.4469308, "longitude": 8.3225886, "population": 8680, "elevation": 412.0, "source": "osm"}, {"name": "Lengnau AG", "country": "", "latitude": 47.521079, "longitude": 8.3301378, "population": 2747, "elevation": 415.0, "source": "osm"}, {"name": "Boppelsen", "country": "", "latitude": 47.4708527, "longitude": 8.4026165, "population": 1018, "elevation": null, "source": "osm"}, {"name": "Münchwilen", "country": "", "latitude": 47.5379513, "longitude": 7.9629997, "population": 936, "elevation": 343.0, "source": "osm"}, {"name": "Bräunlingen", "country": "", "latitude": 47.9300645, "longitude": 8.448329, "population": 6200, "elevation": null, "source": "osm"}, {"name": "Dormettingen", "country": "", "latitude": 48.2385691, "longitude": 8.773398, "population": 1057, "elevation": null, "source": "osm"}, {"name": "Rüfenach", "country": "", "latitude": 47.5080886, "longitude": 8.205682, "population": 854, "elevation": 378.0, "source": "osm"}, {"name": "Ratshausen", "country": "", "latitude": 48.1935582, "longitude": 8.794711, "population": 771, "elevation": 675.0, "source": "osm"}, {"name": "Singen (Hohentwiel)", "country": "", "latitude": 47.7617515, "longitude": 8.8348709, "population": 45717, "elevation": 429.0, "source": "osm"}, {"name": "Tunau", "country": "", "latitude": 47.786517, "longitude": 7.9244416, "population": 180, "elevation": null, "source": "osm"}, {"name": "Hüfingen", "country": "", "latitude": 47.9269484, "longitude": 8.4892187, "population": 7792, "elevation": null, "source": "osm"}, {"name": "Hinterzarten", "country": "", "latitude": 47.9063718, "longitude": 8.103622, "population": 2612, "elevation": null, "source": "osm"}, {"name": "Reichenbach am Heuberg", "country": "", "latitude": 48.1323813, "longitude": 8.8410024, "population": 556, "elevation": null, "source": "osm"}, {"name": "Lauterbach", "country": "", "latitude": 48.2280951, "longitude": 8.3430194, "population": 3158, "elevation": null, "source": "osm"}, {"name": "Aach", "country": "", "latitude": 47.8441308, "longitude": 8.8519587, "population": 2195, "elevation": null, "source": "osm"}, {"name": "Vöhringen", "country": "", "latitude": 48.3348314, "longitude": 8.6630783, "population": 4309, "elevation": null, "source": "osm"}, {"name": "Biberach (Baden)", "country": "", "latitude": 48.3388818, "longitude": 8.0281354, "population": 3275, "elevation": null, "source": "osm"}, {"name": "Lohn SH", "country": "", "latitude": 47.7557294, "longitude": 8.670356, "population": 740, "elevation": 632.0, "source": "osm"}, {"name": "Murg", "country": "", "latitude": 47.5565252, "longitude": 8.0251078, "population": 6893, "elevation": null, "source": "osm"}, {"name": "Bözen", "country": "", "latitude": 47.4957654, "longitude": 8.0835501, "population": 736, "elevation": 405.0, "source": "osm"}, {"name": "Kirchzarten", "country": "", "latitude": 47.9651461, "longitude": 7.9573306, "population": 0, "elevation": 380.0, "source": "osm"}, {"name": "Mellikon", "country": "", "latitude": 47.567172, "longitude": 8.3517064, "population": 239, "elevation": 358.0, "source": "osm"}, {"name": "Freienwil", "country": "", "latitude": 47.5034967, "longitude": 8.3279656, "population": 1039, "elevation": 461.0, "source": "osm"}, {"name": "Stilli", "country": "", "latitude": 47.5150754, "longitude": 8.2315106, "population": 397, "elevation": 333.0, "source": "osm"}, {"name": "Deißlingen", "country": "", "latitude": 48.1121476, "longitude": 8.6048933, "population": 5917, "elevation": null, "source": "osm"}, {"name": "Hofstetten", "country": "", "latitude": 47.4728326, "longitude": 8.8539141, "population": 498, "elevation": 644.0, "source": "osm"}, {"name": "Utzenfeld", "country": "", "latitude": 47.8010461, "longitude": 7.9157917, "population": 669, "elevation": null, "source": "osm"}, {"name": "Mönthal", "country": "", "latitude": 47.5183755, "longitude": 8.1439869, "population": 396, "elevation": 478.0, "source": "osm"}, {"name": "Aichhalden", "country": "", "latitude": 48.2679292, "longitude": 8.399562, "population": 4158, "elevation": null, "source": "osm"}, {"name": "Eggingen", "country": "", "latitude": 47.6962642, "longitude": 8.3954399, "population": 1744, "elevation": null, "source": "osm"}, {"name": "Mönchweiler", "country": "", "latitude": 48.0993425, "longitude": 8.426761, "population": 3190, "elevation": null, "source": "osm"}, {"name": "Regensdorf", "country": "", "latitude": 47.4317645, "longitude": 8.4680435, "population": 18010, "elevation": 442.0, "source": "osm"}, {"name": "Ostdorf", "country": "", "latitude": 48.3018771, "longitude": 8.8408506, "population": 0, "elevation": null, "source": "osm"}, {"name": "Lackendorf", "country": "", "latitude": 48.1912225, "longitude": 8.5330392, "population": 0, "elevation": null, "source": "osm"}, {"name": "Stetten", "country": "", "latitude": 48.1787822, "longitude": 8.5367624, "population": 0, "elevation": null, "source": "osm"}, {"name": "Flözlingen", "country": "", "latitude": 48.1663591, "longitude": 8.5295705, "population": 0, "elevation": null, "source": "osm"}, {"name": "Horgen", "country": "", "latitude": 48.1474097, "longitude": 8.5499744, "population": 0, "elevation": null, "source": "osm"}, {"name": "Wasen", "country": "", "latitude": 47.5032326, "longitude": 8.3961161, "population": 0, "elevation": null, "source": "osm"}, {"name": "Dachsleren", "country": "", "latitude": 47.4976952, "longitude": 8.3906213, "population": 0, "elevation": null, "source": "osm"}, {"name": "Pfohren", "country": "", "latitude": 47.938897, "longitude": 8.552351, "population": 0, "elevation": null, "source": "osm"}, {"name": "Grüningen", "country": "", "latitude": 47.9841984, "longitude": 8.4715785, "population": 0, "elevation": null, "source": "osm"}, {"name": "Marbach", "country": "", "latitude": 48.0319145, "longitude": 8.4713168, "population": 2105, "elevation": 694.0, "source": "osm"}, {"name": "Ottoschwanden", "country": "", "latitude": 48.1867645, "longitude": 7.897709, "population": 0, "elevation": null, "source": "osm"}, {"name": "Schönenbach", "country": "", "latitude": 48.0461057, "longitude": 8.2317154, "population": 1000, "elevation": null, "source": "osm"}, {"name": "Oberschneisingen", "country": "", "latitude": 47.5227955, "longitude": 8.3577218, "population": 0, "elevation": null, "source": "osm"}, {"name": "Honstetten", "country": "", "latitude": 47.8939185, "longitude": 8.8841287, "population": 450, "elevation": null, "source": "osm"}, {"name": "Bittelbrunn", "country": "", "latitude": 47.8659319, "longitude": 8.8117396, "population": 0, "elevation": null, "source": "osm"}, {"name": "Wolterdingen", "country": "", "latitude": 47.9687119, "longitude": 8.427094, "population": 0, "elevation": null, "source": "osm"}, {"name": "Harras", "country": "", "latitude": 48.1430027, "longitude": 8.8209609, "population": 0, "elevation": null, "source": "osm"}, {"name": "Bergfelden", "country": "", "latitude": 48.3460603, "longitude": 8.6847776, "population": 0, "elevation": null, "source": "osm"}, {"name": "Langenschiltach", "country": "", "latitude": 48.1601845, "longitude": 8.3166036, "population": 0, "elevation": null, "source": "osm"}, {"name": "Kirnbach", "country": "", "latitude": 48.2711976, "longitude": 8.2301646, "population": 0, "elevation": null, "source": "osm"}, {"name": "Aasen", "country": "", "latitude": 47.9809919, "longitude": 8.5495512, "population": 1242, "elevation": null, "source": "osm"}, {"name": "Biesingen", "country": "", "latitude": 47.9877427, "longitude": 8.5851547, "population": 487, "elevation": 704.0, "source": "osm"}, {"name": "Oberbaldingen", "country": "", "latitude": 47.9759274, "longitude": 8.6043728, "population": 1001, "elevation": null, "source": "osm"}, {"name": "Aufen", "country": "", "latitude": 47.9632817, "longitude": 8.4728848, "population": 0, "elevation": null, "source": "osm"}, {"name": "Überauchen", "country": "", "latitude": 48.0125881, "longitude": 8.4534943, "population": 869, "elevation": 696.0, "source": "osm"}, {"name": "Kirchdorf", "country": "", "latitude": 48.0151287, "longitude": 8.4701239, "population": 1859, "elevation": 708.0, "source": "osm"}, {"name": "Klengen", "country": "", "latitude": 48.0068826, "longitude": 8.4685784, "population": 2362, "elevation": 702.0, "source": "osm"}, {"name": "Tannheim", "country": "", "latitude": 47.9991267, "longitude": 8.4100821, "population": 1343, "elevation": null, "source": "osm"}, {"name": "Pfaffenweiler", "country": "", "latitude": 48.0336388, "longitude": 8.4195787, "population": 2298, "elevation": null, "source": "osm"}, {"name": "Rietheim", "country": "", "latitude": 48.031534, "longitude": 8.4566666, "population": 1030, "elevation": 699.0, "source": "osm"}, {"name": "Tieringen", "country": "", "latitude": 48.1989984, "longitude": 8.8770634, "population": 0, "elevation": null, "source": "osm"}, {"name": "Unterbaldingen", "country": "", "latitude": 47.9688506, "longitude": 8.6138255, "population": 644, "elevation": 695.0, "source": "osm"}, {"name": "Neudingen", "country": "", "latitude": 47.9116877, "longitude": 8.5711224, "population": 0, "elevation": null, "source": "osm"}, {"name": "Gutmadingen", "country": "", "latitude": 47.9106423, "longitude": 8.615817, "population": 0, "elevation": null, "source": "osm"}, {"name": "Nendingen", "country": "", "latitude": 48.0054839, "longitude": 8.8617358, "population": 2850, "elevation": null, "source": "osm"}, {"name": "Erdmannsweiler", "country": "", "latitude": 48.1435721, "longitude": 8.4525773, "population": 0, "elevation": null, "source": "osm"}, {"name": "Gremmelsbach", "country": "", "latitude": 48.1590731, "longitude": 8.2555173, "population": 0, "elevation": null, "source": "osm"}, {"name": "Eschbach", "country": "", "latitude": 48.0022295, "longitude": 7.9790457, "population": 0, "elevation": null, "source": "osm"}, {"name": "Unteribental", "country": "", "latitude": 47.9811078, "longitude": 8.0069588, "population": 0, "elevation": null, "source": "osm"}, {"name": "Rötenbach", "country": "", "latitude": 47.8927203, "longitude": 8.2953742, "population": 0, "elevation": null, "source": "osm"}, {"name": "Brigach", "country": "", "latitude": 48.1144611, "longitude": 8.3084171, "population": 910, "elevation": null, "source": "osm"}, {"name": "Bollenbach", "country": "", "latitude": 48.2921058, "longitude": 8.0735008, "population": 0, "elevation": null, "source": "osm"}, {"name": "Hintschingen", "country": "", "latitude": 47.9243031, "longitude": 8.6980473, "population": 0, "elevation": null, "source": "osm"}, {"name": "Stetten", "country": "", "latitude": 48.0227754, "longitude": 8.8731884, "population": 0, "elevation": null, "source": "osm"}, {"name": "Neuhausen", "country": "", "latitude": 48.1322131, "longitude": 8.4581409, "population": 0, "elevation": null, "source": "osm"}, {"name": "Harthausen", "country": "", "latitude": 48.2619415, "longitude": 8.6305026, "population": 0, "elevation": null, "source": "osm"}, {"name": "Trichtingen", "country": "", "latitude": 48.2763386, "longitude": 8.6512567, "population": 0, "elevation": null, "source": "osm"}, {"name": "Talhausen", "country": "", "latitude": 48.2245026, "longitude": 8.5974215, "population": 0, "elevation": null, "source": "osm"}, {"name": "Irslingen", "country": "", "latitude": 48.2292644, "longitude": 8.6397833, "population": 0, "elevation": null, "source": "osm"}, {"name": "Halbmeil", "country": "", "latitude": 48.2901339, "longitude": 8.270898, "population": 0, "elevation": null, "source": "osm"}, {"name": "Schura", "country": "", "latitude": 48.0545255, "longitude": 8.6440499, "population": 0, "elevation": null, "source": "osm"}, {"name": "Leidringen", "country": "", "latitude": 48.2659962, "longitude": 8.7075201, "population": 0, "elevation": null, "source": "osm"}, {"name": "Wittershausen", "country": "", "latitude": 48.3164515, "longitude": 8.6387179, "population": 0, "elevation": null, "source": "osm"}, {"name": "Gößlingen", "country": "", "latitude": 48.2305556, "longitude": 8.6951473, "population": 0, "elevation": null, "source": "osm"}, {"name": "Neuhausen", "country": "", "latitude": 47.8387169, "longitude": 8.773687, "population": 0, "elevation": null, "source": "osm"}, {"name": "Anselfingen", "country": "", "latitude": 47.8458898, "longitude": 8.7628951, "population": 155, "elevation": null, "source": "osm"}, {"name": "Hütten", "country": "", "latitude": 47.627556, "longitude": 7.9500697, "population": 0, "elevation": null, "source": "osm"}, {"name": "Altoberndorf", "country": "", "latitude": 48.2749111, "longitude": 8.5963356, "population": 0, "elevation": null, "source": "osm"}, {"name": "Herrenzimmern", "country": "", "latitude": 48.2242174, "longitude": 8.5790302, "population": 0, "elevation": null, "source": "osm"}, {"name": "Kaltbrunn", "country": "", "latitude": 48.3464432, "longitude": 8.3518746, "population": 0, "elevation": null, "source": "osm"}, {"name": "Reinerzau", "country": "", "latitude": 48.3585651, "longitude": 8.3722519, "population": 0, "elevation": null, "source": "osm"}, {"name": "Römlinsdorf", "country": "", "latitude": 48.3248452, "longitude": 8.4829038, "population": 0, "elevation": null, "source": "osm"}, {"name": "Geißlingen", "country": "", "latitude": 47.6203594, "longitude": 8.3919242, "population": 0, "elevation": null, "source": "osm"}, {"name": "Aftersteg", "country": "", "latitude": 47.8430167, "longitude": 7.9284, "population": 0, "elevation": 799.0, "source": "osm"}, {"name": "Brittheim", "country": "", "latitude": 48.2936241, "longitude": 8.6818178, "population": 0, "elevation": null, "source": "osm"}, {"name": "Rohrbach", "country": "", "latitude": 48.0746472, "longitude": 8.2559566, "population": 0, "elevation": null, "source": "osm"}, {"name": "Bickelsberg", "country": "", "latitude": 48.2925828, "longitude": 8.6986744, "population": 0, "elevation": null, "source": "osm"}, {"name": "Bannholz", "country": "", "latitude": 47.6756447, "longitude": 8.163393, "population": 0, "elevation": null, "source": "osm"}, {"name": "Tiengen", "country": "", "latitude": 47.6349548, "longitude": 8.2745787, "population": 23674, "elevation": null, "source": "osm"}, {"name": "Binsdorf", "country": "", "latitude": 48.3045411, "longitude": 8.7598927, "population": 0, "elevation": null, "source": "osm"}, {"name": "Wilflingen", "country": "", "latitude": 48.1531481, "longitude": 8.7246117, "population": 0, "elevation": null, "source": "osm"}, {"name": "Göschweiler", "country": "", "latitude": 47.8582957, "longitude": 8.311165, "population": 0, "elevation": null, "source": "osm"}, {"name": "Oberwangen", "country": "", "latitude": 47.7764831, "longitude": 8.3773532, "population": 0, "elevation": null, "source": "osm"}, {"name": "Weizen", "country": "", "latitude": 47.779172, "longitude": 8.4631319, "population": 0, "elevation": null, "source": "osm"}, {"name": "Schwaningen", "country": "", "latitude": 47.7786649, "longitude": 8.4288701, "population": 0, "elevation": null, "source": "osm"}, {"name": "Nordhalden", "country": "", "latitude": 47.8072151, "longitude": 8.6068524, "population": 0, "elevation": null, "source": "osm"}, {"name": "Horheim", "country": "", "latitude": 47.6488676, "longitude": 8.3470934, "population": 0, "elevation": null, "source": "osm"}, {"name": "Degernau", "country": "", "latitude": 47.6679121, "longitude": 8.3825555, "population": 0, "elevation": null, "source": "osm"}, {"name": "Bachheim", "country": "", "latitude": 47.8595312, "longitude": 8.4015165, "population": 0, "elevation": null, "source": "osm"}, {"name": "Frommern", "country": "", "latitude": 48.2481711, "longitude": 8.8698424, "population": 0, "elevation": null, "source": "osm"}, {"name": "Buchenberg", "country": "", "latitude": 48.1612253, "longitude": 8.3781371, "population": 0, "elevation": null, "source": "osm"}, {"name": "Engstlatt", "country": "", "latitude": 48.2995026, "longitude": 8.875064, "population": 0, "elevation": null, "source": "osm"}, {"name": "Weilstetten", "country": "", "latitude": 48.2416112, "longitude": 8.8592721, "population": 0, "elevation": null, "source": "osm"}, {"name": "Egg", "country": "", "latitude": 47.586308, "longitude": 7.9606721, "population": 0, "elevation": null, "source": "osm"}, {"name": "Buchs", "country": "", "latitude": 47.458087, "longitude": 8.4378662, "population": 6269, "elevation": 442.0, "source": "osm"}, {"name": "Engelschwand", "country": "", "latitude": 47.6836975, "longitude": 8.0277581, "population": 0, "elevation": 912.0, "source": "osm"}, {"name": "Wolpadingen", "country": "", "latitude": 47.6996291, "longitude": 8.1052933, "population": 0, "elevation": null, "source": "osm"}, {"name": "Rütihof", "country": "", "latitude": 47.4383008, "longitude": 8.2693234, "population": 0, "elevation": null, "source": "osm"}, {"name": "Burgberg", "country": "", "latitude": 48.1514491, "longitude": 8.4438267, "population": 0, "elevation": null, "source": "osm"}, {"name": "Obereschach", "country": "", "latitude": 48.1058569, "longitude": 8.469754, "population": 1764, "elevation": null, "source": "osm"}, {"name": "Reiselfingen", "country": "", "latitude": 47.8557214, "longitude": 8.3520741, "population": 500, "elevation": null, "source": "osm"}, {"name": "Döggingen", "country": "", "latitude": 47.892594, "longitude": 8.436392, "population": 0, "elevation": null, "source": "osm"}, {"name": "Yach", "country": "", "latitude": 48.1592947, "longitude": 8.0910055, "population": 1000, "elevation": null, "source": "osm"}, {"name": "Raat", "country": "", "latitude": 47.545714, "longitude": 8.4585388, "population": 0, "elevation": null, "source": "osm"}, {"name": "Schüpfheim", "country": "", "latitude": 47.5373808, "longitude": 8.4666725, "population": 0, "elevation": null, "source": "osm"}, {"name": "Weilersbach", "country": "", "latitude": 48.0951161, "longitude": 8.505789, "population": 1270, "elevation": null, "source": "osm"}, {"name": "Kappel", "country": "", "latitude": 48.1116091, "longitude": 8.5021236, "population": 978, "elevation": null, "source": "osm"}, {"name": "Günzgen", "country": "", "latitude": 47.5847644, "longitude": 8.4598638, "population": 0, "elevation": null, "source": "osm"}, {"name": "Jungholz", "country": "", "latitude": 47.6006347, "longitude": 7.9534014, "population": 0, "elevation": null, "source": "osm"}, {"name": "Willaringen", "country": "", "latitude": 47.605586, "longitude": 7.9726551, "population": 0, "elevation": null, "source": "osm"}, {"name": "Schabenhausen", "country": "", "latitude": 48.1300965, "longitude": 8.4917778, "population": 0, "elevation": null, "source": "osm"}, {"name": "Nussbaumen", "country": "", "latitude": 47.4884616, "longitude": 8.2879373, "population": 0, "elevation": null, "source": "osm"}, {"name": "Emmingen ab Egg", "country": "", "latitude": 47.9309133, "longitude": 8.8494113, "population": 0, "elevation": null, "source": "osm"}, {"name": "Winterberg", "country": "", "latitude": 47.4569174, "longitude": 8.6916086, "population": 0, "elevation": 578.0, "source": "osm"}, {"name": "Dickbuch", "country": "", "latitude": 47.4962426, "longitude": 8.8303367, "population": 0, "elevation": null, "source": "osm"}, {"name": "Grafstal", "country": "", "latitude": 47.4450685, "longitude": 8.7018296, "population": 0, "elevation": null, "source": "osm"}, {"name": "Ottikon", "country": "", "latitude": 47.4355382, "longitude": 8.7167583, "population": 497, "elevation": 572.0, "source": "osm"}, {"name": "Mühlhausen", "country": "", "latitude": 48.0535443, "longitude": 8.5799837, "population": 772, "elevation": 691.0, "source": "osm"}, {"name": "Breitenfeld", "country": "", "latitude": 47.6539182, "longitude": 8.3075052, "population": 0, "elevation": null, "source": "osm"}, {"name": "Detzeln", "country": "", "latitude": 47.6677855, "longitude": 8.320667, "population": 0, "elevation": null, "source": "osm"}, {"name": "Rotzel", "country": "", "latitude": 47.5947354, "longitude": 8.0618895, "population": 0, "elevation": null, "source": "osm"}, {"name": "Glashütten", "country": "", "latitude": 47.6326518, "longitude": 7.9642269, "population": 0, "elevation": null, "source": "osm"}, {"name": "Atdorf", "country": "", "latitude": 47.6491192, "longitude": 7.9551758, "population": 0, "elevation": null, "source": "osm"}, {"name": "Grießen", "country": "", "latitude": 47.6264888, "longitude": 8.4109158, "population": 0, "elevation": null, "source": "osm"}, {"name": "Dangstetten", "country": "", "latitude": 47.5951176, "longitude": 8.320972, "population": 1131, "elevation": null, "source": "osm"}, {"name": "Iberg", "country": "", "latitude": 47.4642644, "longitude": 8.7783434, "population": 0, "elevation": null, "source": "osm"}, {"name": "Waltenstein", "country": "", "latitude": 47.4791041, "longitude": 8.8207099, "population": 0, "elevation": null, "source": "osm"}, {"name": "Birchwil", "country": "", "latitude": 47.4586072, "longitude": 8.6349201, "population": 0, "elevation": null, "source": "osm"}, {"name": "Kollbrunn", "country": "", "latitude": 47.4578738, "longitude": 8.7759968, "population": 0, "elevation": null, "source": "osm"}, {"name": "Eidberg", "country": "", "latitude": 47.47412, "longitude": 8.7945817, "population": 0, "elevation": null, "source": "osm"}, {"name": "Baltenswil", "country": "", "latitude": 47.4316337, "longitude": 8.6409971, "population": 0, "elevation": null, "source": "osm"}, {"name": "Dättwil", "country": "", "latitude": 47.4537333, "longitude": 8.2849682, "population": 0, "elevation": null, "source": "osm"}, {"name": "Bühl", "country": "", "latitude": 47.6154897, "longitude": 8.4646051, "population": 0, "elevation": null, "source": "osm"}, {"name": "Riedern am Sand", "country": "", "latitude": 47.6251309, "longitude": 8.4456732, "population": 0, "elevation": null, "source": "osm"}, {"name": "Oberhofen", "country": "", "latitude": 47.4338957, "longitude": 8.8788361, "population": 0, "elevation": null, "source": "osm"}, {"name": "Altenburg", "country": "", "latitude": 47.6561688, "longitude": 8.6029299, "population": 0, "elevation": null, "source": "osm"}, {"name": "Reichenbach", "country": "", "latitude": 48.3289958, "longitude": 7.9274384, "population": 3000, "elevation": null, "source": "osm"}, {"name": "Fürstenberg", "country": "", "latitude": 47.8922025, "longitude": 8.5527354, "population": 487, "elevation": null, "source": "osm"}, {"name": "Sumpfohren", "country": "", "latitude": 47.9081888, "longitude": 8.5378889, "population": 0, "elevation": null, "source": "osm"}, {"name": "Hubertshofen", "country": "", "latitude": 47.9602409, "longitude": 8.3894629, "population": 0, "elevation": null, "source": "osm"}, {"name": "Peterzell", "country": "", "latitude": 48.1331844, "longitude": 8.3741332, "population": 0, "elevation": null, "source": "osm"}, {"name": "Rötenberg", "country": "", "latitude": 48.3054123, "longitude": 8.4229004, "population": 0, "elevation": null, "source": "osm"}, {"name": "Rötenbach", "country": "", "latitude": 48.331132, "longitude": 8.3977398, "population": 0, "elevation": null, "source": "osm"}, {"name": "Eschbach", "country": "", "latitude": 47.6325548, "longitude": 8.1819863, "population": 0, "elevation": null, "source": "osm"}, {"name": "Birkingen", "country": "", "latitude": 47.6252989, "longitude": 8.1485286, "population": 0, "elevation": null, "source": "osm"}, {"name": "Buch", "country": "", "latitude": 47.6138508, "longitude": 8.1116675, "population": 0, "elevation": null, "source": "osm"}, {"name": "Schachen", "country": "", "latitude": 47.6037018, "longitude": 8.100178, "population": 0, "elevation": null, "source": "osm"}, {"name": "Rutschwil (Dägerlen)", "country": "", "latitude": 47.5565086, "longitude": 8.7306209, "population": 0, "elevation": null, "source": "osm"}, {"name": "Reutin", "country": "", "latitude": 48.3357609, "longitude": 8.4391205, "population": 0, "elevation": null, "source": "osm"}, {"name": "Rümikon", "country": "", "latitude": 47.5032332, "longitude": 8.7831448, "population": 0, "elevation": null, "source": "osm"}, {"name": "Bubenbach", "country": "", "latitude": 47.9652531, "longitude": 8.2960273, "population": 0, "elevation": null, "source": "osm"}, {"name": "Unterbränd", "country": "", "latitude": 47.9335954, "longitude": 8.3585739, "population": 0, "elevation": null, "source": "osm"}, {"name": "Unterweschnegg", "country": "", "latitude": 47.7037503, "longitude": 8.1715593, "population": 0, "elevation": null, "source": "osm"}, {"name": "Krenkingen", "country": "", "latitude": 47.6823462, "longitude": 8.3054526, "population": 0, "elevation": null, "source": "osm"}, {"name": "Welschingen", "country": "", "latitude": 47.8248509, "longitude": 8.7581569, "population": 0, "elevation": null, "source": "osm"}, {"name": "Büßlingen", "country": "", "latitude": 47.7917366, "longitude": 8.6849537, "population": 0, "elevation": null, "source": "osm"}, {"name": "Unterschlatt", "country": "", "latitude": 47.4698877, "longitude": 8.828184, "population": 0, "elevation": null, "source": "osm"}, {"name": "Nussberg", "country": "", "latitude": 47.467555, "longitude": 8.806785, "population": 0, "elevation": null, "source": "osm"}, {"name": "Binningen", "country": "", "latitude": 47.7941253, "longitude": 8.7256498, "population": 0, "elevation": null, "source": "osm"}, {"name": "Aulfingen", "country": "", "latitude": 47.8874716, "longitude": 8.6572782, "population": 0, "elevation": null, "source": "osm"}, {"name": "Kommingen", "country": "", "latitude": 47.816107, "longitude": 8.6144861, "population": 0, "elevation": null, "source": "osm"}, {"name": "Waldhausen", "country": "", "latitude": 47.929242, "longitude": 8.4027647, "population": 0, "elevation": null, "source": "osm"}, {"name": "Unadingen", "country": "", "latitude": 47.8807628, "longitude": 8.4070082, "population": 0, "elevation": null, "source": "osm"}, {"name": "Ehingen", "country": "", "latitude": 47.8259306, "longitude": 8.8035599, "population": 0, "elevation": null, "source": "osm"}, {"name": "Unteralpfen", "country": "", "latitude": 47.6469308, "longitude": 8.1320457, "population": 0, "elevation": null, "source": "osm"}, {"name": "Bechtersbohl", "country": "", "latitude": 47.6029503, "longitude": 8.3475762, "population": 312, "elevation": null, "source": "osm"}, {"name": "Gaiß", "country": "", "latitude": 47.6461636, "longitude": 8.1711497, "population": 0, "elevation": null, "source": "osm"}, {"name": "Oberalpfen", "country": "", "latitude": 47.6576151, "longitude": 8.1492356, "population": 0, "elevation": 641.0, "source": "osm"}, {"name": "Fützen", "country": "", "latitude": 47.8076268, "longitude": 8.5304152, "population": 0, "elevation": null, "source": "osm"}, {"name": "Zweidlen", "country": "", "latitude": 47.5620482, "longitude": 8.4693754, "population": 0, "elevation": null, "source": "osm"}, {"name": "Sigmarswangen", "country": "", "latitude": 48.3289341, "longitude": 8.6143377, "population": 0, "elevation": null, "source": "osm"}, {"name": "Blumenfeld", "country": "", "latitude": 47.8150174, "longitude": 8.6824939, "population": 0, "elevation": null, "source": "osm"}, {"name": "Fischbach", "country": "", "latitude": 48.1534066, "longitude": 8.4933246, "population": 1155, "elevation": null, "source": "osm"}, {"name": "Kuhbach", "country": "", "latitude": 48.3380968, "longitude": 7.9074197, "population": 1600, "elevation": null, "source": "osm"}, {"name": "Lienheim", "country": "", "latitude": 47.573502, "longitude": 8.3762648, "population": 0, "elevation": null, "source": "osm"}, {"name": "Stadel", "country": "", "latitude": 47.5347096, "longitude": 8.761103, "population": 0, "elevation": null, "source": "osm"}, {"name": "Sennhof", "country": "", "latitude": 47.4673278, "longitude": 8.7597601, "population": 0, "elevation": null, "source": "osm"}, {"name": "Berau", "country": "", "latitude": 47.695685, "longitude": 8.2587575, "population": 0, "elevation": null, "source": "osm"}, {"name": "Aichen", "country": "", "latitude": 47.6756422, "longitude": 8.2617198, "population": 0, "elevation": null, "source": "osm"}, {"name": "Oberwil (Dägerlen)", "country": "", "latitude": 47.5733263, "longitude": 8.7160031, "population": 0, "elevation": null, "source": "osm"}, {"name": "Alten", "country": "", "latitude": 47.5991435, "longitude": 8.6470682, "population": 0, "elevation": null, "source": "osm"}, {"name": "Wildensbuch", "country": "", "latitude": 47.6526387, "longitude": 8.6761453, "population": 0, "elevation": null, "source": "osm"}, {"name": "Gotzenwil", "country": "", "latitude": 47.4726814, "longitude": 8.7766966, "population": 0, "elevation": null, "source": "osm"}, {"name": "Schmitzingen", "country": "", "latitude": 47.6492637, "longitude": 8.2024062, "population": 0, "elevation": null, "source": "osm"}, {"name": "Sunthausen", "country": "", "latitude": 48.0007311, "longitude": 8.591888, "population": 910, "elevation": 703.0, "source": "osm"}, {"name": "Öfingen", "country": "", "latitude": 47.9909045, "longitude": 8.6353488, "population": 0, "elevation": null, "source": "osm"}, {"name": "Herdern", "country": "", "latitude": 47.5757679, "longitude": 8.4577946, "population": 0, "elevation": null, "source": "osm"}, {"name": "Erlaheim", "country": "", "latitude": 48.3066446, "longitude": 8.786196, "population": 0, "elevation": null, "source": "osm"}, {"name": "Kirchen", "country": "", "latitude": 47.9086958, "longitude": 8.6719418, "population": 0, "elevation": null, "source": "osm"}, {"name": "Häg", "country": "", "latitude": 47.7335036, "longitude": 7.916262, "population": 0, "elevation": null, "source": "osm"}, {"name": "Küßnach", "country": "", "latitude": 47.5942417, "longitude": 8.3640125, "population": 128, "elevation": null, "source": "osm"}, {"name": "Schlechtnau", "country": "", "latitude": 47.8176193, "longitude": 7.9395217, "population": 0, "elevation": null, "source": "osm"}, {"name": "Heselwangen", "country": "", "latitude": 48.2745114, "longitude": 8.8818216, "population": 0, "elevation": null, "source": "osm"}, {"name": "Fußbach", "country": "", "latitude": 48.3636567, "longitude": 8.0140393, "population": 0, "elevation": null, "source": "osm"}, {"name": "Untermettingen", "country": "", "latitude": 47.7022301, "longitude": 8.3452123, "population": 0, "elevation": null, "source": "osm"}, {"name": "Mundelfingen", "country": "", "latitude": 47.867706, "longitude": 8.4670961, "population": 0, "elevation": null, "source": "osm"}, {"name": "Oberohringen", "country": "", "latitude": 47.5285274, "longitude": 8.7094892, "population": 833, "elevation": null, "source": "osm"}, {"name": "Aixheim", "country": "", "latitude": 48.1082517, "longitude": 8.6756985, "population": 0, "elevation": null, "source": "osm"}, {"name": "Duchtlingen", "country": "", "latitude": 47.789857, "longitude": 8.7919719, "population": 0, "elevation": null, "source": "osm"}, {"name": "Ippingen", "country": "", "latitude": 47.9836803, "longitude": 8.6670658, "population": 0, "elevation": null, "source": "osm"}, {"name": "Kuchelbach", "country": "", "latitude": 47.6336483, "longitude": 8.1565565, "population": 0, "elevation": null, "source": "osm"}, {"name": "Holzhausen", "country": "", "latitude": 48.3638526, "longitude": 8.6539551, "population": 0, "elevation": null, "source": "osm"}, {"name": "Ricketwil", "country": "", "latitude": 47.4859697, "longitude": 8.7997182, "population": 0, "elevation": null, "source": "osm"}, {"name": "Steinach im Kinzigtal", "country": "", "latitude": 48.3030536, "longitude": 8.057394, "population": 3936, "elevation": null, "source": "osm"}, {"name": "Hammereisenbach", "country": "", "latitude": 47.9967518, "longitude": 8.3219088, "population": 0, "elevation": null, "source": "osm"}, {"name": "Nöggenschwiel", "country": "", "latitude": 47.6934909, "longitude": 8.2152642, "population": 630, "elevation": null, "source": "osm"}, {"name": "Marthalen", "country": "", "latitude": 47.6257747, "longitude": 8.6501583, "population": 1803, "elevation": null, "source": "osm"}, {"name": "Gurtweil", "country": "", "latitude": 47.6412423, "longitude": 8.2465136, "population": 0, "elevation": null, "source": "osm"}, {"name": "Weigheim", "country": "", "latitude": 48.0578488, "longitude": 8.6071958, "population": 1394, "elevation": 735.0, "source": "osm"}, {"name": "Grimmelshofen", "country": "", "latitude": 47.7861745, "longitude": 8.497838, "population": 0, "elevation": null, "source": "osm"}, {"name": "Biesendorf", "country": "", "latitude": 47.9132089, "longitude": 8.8123806, "population": 0, "elevation": null, "source": "osm"}, {"name": "Full", "country": "", "latitude": 47.6164032, "longitude": 8.2033236, "population": 0, "elevation": null, "source": "osm"}, {"name": "Reuenthal", "country": "", "latitude": 47.603553, "longitude": 8.2026114, "population": 0, "elevation": null, "source": "osm"}, {"name": "Bietingen", "country": "", "latitude": 47.7389442, "longitude": 8.7338163, "population": 0, "elevation": null, "source": "osm"}, {"name": "Ebringen", "country": "", "latitude": 47.7504651, "longitude": 8.7575765, "population": 284, "elevation": null, "source": "osm"}, {"name": "Rikon", "country": "", "latitude": 47.4447761, "longitude": 8.7992382, "population": 0, "elevation": null, "source": "osm"}, {"name": "Schweighausen", "country": "", "latitude": 48.2194402, "longitude": 7.9661577, "population": 0, "elevation": null, "source": "osm"}, {"name": "Urberg", "country": "", "latitude": 47.7349462, "longitude": 8.1241619, "population": 0, "elevation": null, "source": "osm"}, {"name": "Nußbach", "country": "", "latitude": 48.1306404, "longitude": 8.2578885, "population": 0, "elevation": null, "source": "osm"}, {"name": "Obermettingen", "country": "", "latitude": 47.7206288, "longitude": 8.3598909, "population": 0, "elevation": null, "source": "osm"}, {"name": "Gundetswil", "country": "", "latitude": 47.5402384, "longitude": 8.8234937, "population": 0, "elevation": null, "source": "osm"}, {"name": "Dorf", "country": "", "latitude": 47.5720029, "longitude": 8.647344, "population": 627, "elevation": 426.0, "source": "osm"}, {"name": "Dietlingen", "country": "", "latitude": 47.6736008, "longitude": 8.243337, "population": 0, "elevation": null, "source": "osm"}, {"name": "Ofteringen", "country": "", "latitude": 47.6773484, "longitude": 8.3758935, "population": 0, "elevation": null, "source": "osm"}, {"name": "Bergöschingen", "country": "", "latitude": 47.5952455, "longitude": 8.4202747, "population": 0, "elevation": null, "source": "osm"}, {"name": "Grunholz", "country": "", "latitude": 47.5768239, "longitude": 8.0870807, "population": 0, "elevation": null, "source": "osm"}, {"name": "Binzgen", "country": "", "latitude": 47.575811, "longitude": 8.0602539, "population": 0, "elevation": null, "source": "osm"}, {"name": "Luttingen", "country": "", "latitude": 47.5720895, "longitude": 8.0953369, "population": 0, "elevation": null, "source": "osm"}, {"name": "Ettikon", "country": "", "latitude": 47.6158593, "longitude": 8.267909, "population": 305, "elevation": null, "source": "osm"}, {"name": "Homburg", "country": "", "latitude": 47.6194279, "longitude": 8.2656204, "population": 0, "elevation": null, "source": "osm"}, {"name": "Prinzbach", "country": "", "latitude": 48.3233074, "longitude": 8.0051696, "population": 0, "elevation": null, "source": "osm"}, {"name": "Eberfingen", "country": "", "latitude": 47.720067, "longitude": 8.4267497, "population": 1744, "elevation": null, "source": "osm"}, {"name": "Harpolingen", "country": "", "latitude": 47.5723455, "longitude": 8.000997, "population": 0, "elevation": null, "source": "osm"}, {"name": "Rippolingen", "country": "", "latitude": 47.5764489, "longitude": 7.9883658, "population": 0, "elevation": null, "source": "osm"}, {"name": "Lausheim", "country": "", "latitude": 47.8119502, "longitude": 8.4527665, "population": 0, "elevation": null, "source": "osm"}, {"name": "Rotenzimmern", "country": "", "latitude": 48.2543628, "longitude": 8.684188, "population": 0, "elevation": null, "source": "osm"}, {"name": "Oberbränd", "country": "", "latitude": 47.9491518, "longitude": 8.2920797, "population": 0, "elevation": null, "source": "osm"}, {"name": "Weisweil", "country": "", "latitude": 47.6452828, "longitude": 8.4588907, "population": 0, "elevation": null, "source": "osm"}, {"name": "Eßlingen", "country": "", "latitude": 47.9925172, "longitude": 8.719341, "population": 375, "elevation": null, "source": "osm"}, {"name": "Glattbrugg", "country": "", "latitude": 47.4326312, "longitude": 8.5647892, "population": 0, "elevation": null, "source": "osm"}, {"name": "Reutlingen", "country": "", "latitude": 47.5282928, "longitude": 8.7514343, "population": 0, "elevation": 456.0, "source": "osm"}, {"name": "Riedern am Wald", "country": "", "latitude": 47.7169201, "longitude": 8.2891563, "population": 0, "elevation": null, "source": "osm"}, {"name": "Wiechs am Randen", "country": "", "latitude": 47.7831764, "longitude": 8.6350312, "population": 0, "elevation": null, "source": "osm"}, {"name": "Stetten", "country": "", "latitude": 47.8737563, "longitude": 8.7177327, "population": 0, "elevation": null, "source": "osm"}, {"name": "Bargen", "country": "", "latitude": 47.8832348, "longitude": 8.763493, "population": 0, "elevation": null, "source": "osm"}, {"name": "Zimmerholz", "country": "", "latitude": 47.8674295, "longitude": 8.742626, "population": 0, "elevation": null, "source": "osm"}, {"name": "Weil", "country": "", "latitude": 47.8194776, "longitude": 8.7044679, "population": 0, "elevation": null, "source": "osm"}, {"name": "Hausen", "country": "", "latitude": 47.9152265, "longitude": 8.6761467, "population": 0, "elevation": null, "source": "osm"}, {"name": "Zepfenhan", "country": "", "latitude": 48.1918917, "longitude": 8.7141318, "population": 590, "elevation": null, "source": "osm"}, {"name": "Hattingen", "country": "", "latitude": 47.9223791, "longitude": 8.7839359, "population": 795, "elevation": 747.0, "source": "osm"}, {"name": "Zimmern", "country": "", "latitude": 47.9341508, "longitude": 8.7098006, "population": 0, "elevation": null, "source": "osm"}, {"name": "Albbruck", "country": "", "latitude": 47.5943254, "longitude": 8.1336893, "population": 7461, "elevation": null, "source": "osm"}, {"name": "Dachsen", "country": "", "latitude": 47.6661896, "longitude": 8.6150532, "population": 1986, "elevation": 400.0, "source": "osm"}, {"name": "Opferdingen", "country": "", "latitude": 47.8720001, "longitude": 8.5047235, "population": 0, "elevation": null, "source": "osm"}, {"name": "Blasiwald", "country": "", "latitude": 47.7954083, "longitude": 8.1663379, "population": 0, "elevation": null, "source": "osm"}, {"name": "Schönenbach", "country": "", "latitude": 47.7679732, "longitude": 8.2106415, "population": 0, "elevation": null, "source": "osm"}, {"name": "Kefikon TG", "country": "", "latitude": 47.5495348, "longitude": 8.8346623, "population": 0, "elevation": null, "source": "osm"}, {"name": "Winterthur", "country": "", "latitude": 47.4991723, "longitude": 8.7291498, "population": 108044, "elevation": 439.0, "source": "osm"}, {"name": "Andelfingen", "country": "", "latitude": 47.5953327, "longitude": 8.6794336, "population": 1860, "elevation": null, "source": "osm"}, {"name": "Bülach", "country": "", "latitude": 47.5172321, "longitude": 8.5407118, "population": 19342, "elevation": 428.0, "source": "osm"}, {"name": "Dielsdorf", "country": "", "latitude": 47.4810371, "longitude": 8.4543245, "population": 5917, "elevation": 455.0, "source": "osm"}, {"name": "Marschalkenzimmern", "country": "", "latitude": 48.3304773, "longitude": 8.5364359, "population": 0, "elevation": null, "source": "osm"}, {"name": "Peterzell", "country": "", "latitude": 48.3265067, "longitude": 8.4636224, "population": 0, "elevation": null, "source": "osm"}, {"name": "Weiden", "country": "", "latitude": 48.3249223, "longitude": 8.5643835, "population": 0, "elevation": null, "source": "osm"}, {"name": "Ruhbühl", "country": "", "latitude": 47.8588786, "longitude": 8.2263727, "population": 0, "elevation": null, "source": "osm"}, {"name": "Obermumpf", "country": "", "latitude": 47.5293336, "longitude": 7.9381928, "population": 1040, "elevation": 366.0, "source": "osm"}, {"name": "Birkendorf", "country": "", "latitude": 47.7498721, "longitude": 8.3110503, "population": 0, "elevation": null, "source": "osm"}, {"name": "Kadelburg", "country": "", "latitude": 47.6107767, "longitude": 8.2965651, "population": 1881, "elevation": null, "source": "osm"}, {"name": "Riet (Neftenbach)", "country": "", "latitude": 47.5363924, "longitude": 8.6869486, "population": 0, "elevation": null, "source": "osm"}, {"name": "Seuzach", "country": "", "latitude": 47.534596, "longitude": 8.7338342, "population": 7201, "elevation": 455.0, "source": "osm"}, {"name": "Sulz", "country": "", "latitude": 47.5387863, "longitude": 8.7894902, "population": 0, "elevation": null, "source": "osm"}, {"name": "Kleinandelfingen", "country": "", "latitude": 47.5998043, "longitude": 8.6860581, "population": 1821, "elevation": null, "source": "osm"}, {"name": "Oerlingen", "country": "", "latitude": 47.6254198, "longitude": 8.6748309, "population": 0, "elevation": null, "source": "osm"}, {"name": "Oberneunforn", "country": "", "latitude": 47.6058883, "longitude": 8.7678049, "population": 0, "elevation": null, "source": "osm"}, {"name": "Oberstammheim", "country": "", "latitude": 47.6317749, "longitude": 8.7986032, "population": 1064, "elevation": null, "source": "osm"}, {"name": "Ossingen", "country": "", "latitude": 47.6128544, "longitude": 8.7283378, "population": 1272, "elevation": null, "source": "osm"}, {"name": "Stammheim", "country": "", "latitude": 47.6342305, "longitude": 8.7903122, "population": 0, "elevation": null, "source": "osm"}, {"name": "Truttikon", "country": "", "latitude": 47.6296056, "longitude": 8.7276879, "population": 475, "elevation": null, "source": "osm"}, {"name": "Neuparadies", "country": "", "latitude": 47.678886, "longitude": 8.6877347, "population": 0, "elevation": null, "source": "osm"}, {"name": "Nussbaumen TG", "country": "", "latitude": 47.6259119, "longitude": 8.8289852, "population": 0, "elevation": null, "source": "osm"}, {"name": "Ellikon", "country": "", "latitude": 47.5633514, "longitude": 8.8242689, "population": 885, "elevation": 390.0, "source": "osm"}, {"name": "Zimmern ob Rottweil", "country": "", "latitude": 48.1671858, "longitude": 8.5926774, "population": 5930, "elevation": null, "source": "osm"}, {"name": "Dorf (Biederbach)", "country": "", "latitude": 48.1942271, "longitude": 8.0339442, "population": 0, "elevation": null, "source": "osm"}, {"name": "Hausen", "country": "", "latitude": 48.1481078, "longitude": 8.5876497, "population": 1000, "elevation": null, "source": "osm"}, {"name": "Rottweil", "country": "", "latitude": 48.1678244, "longitude": 8.626979, "population": 25701, "elevation": null, "source": "osm"}, {"name": "Villingendorf", "country": "", "latitude": 48.2030622, "longitude": 8.5901173, "population": 3282, "elevation": null, "source": "osm"}, {"name": "Innerlehen", "country": "", "latitude": 47.8021857, "longitude": 8.0355506, "population": 0, "elevation": null, "source": "osm"}, {"name": "Oberlehen", "country": "", "latitude": 47.7891859, "longitude": 8.0483845, "population": 0, "elevation": null, "source": "osm"}, {"name": "Unterlehen", "country": "", "latitude": 47.7913447, "longitude": 8.0599478, "population": 0, "elevation": null, "source": "osm"}, {"name": "Brenden", "country": "", "latitude": 47.727171, "longitude": 8.2258192, "population": 0, "elevation": null, "source": "osm"}, {"name": "Lauffen ob Rottweil", "country": "", "latitude": 48.1257524, "longitude": 8.6256099, "population": 0, "elevation": null, "source": "osm"}, {"name": "Spaichingen", "country": "", "latitude": 48.0730713, "longitude": 8.7391941, "population": 12409, "elevation": null, "source": "osm"}, {"name": "Göllsdorf", "country": "", "latitude": 48.1617099, "longitude": 8.6576007, "population": 1800, "elevation": null, "source": "osm"}, {"name": "Neukirch", "country": "", "latitude": 48.1974406, "longitude": 8.6979739, "population": 676, "elevation": null, "source": "osm"}, {"name": "Isingen", "country": "", "latitude": 48.2820943, "longitude": 8.7453053, "population": 0, "elevation": null, "source": "osm"}, {"name": "Bühlingen", "country": "", "latitude": 48.1448015, "longitude": 8.6271315, "population": 0, "elevation": null, "source": "osm"}, {"name": "Feckenhausen", "country": "", "latitude": 48.1669893, "longitude": 8.6877857, "population": 0, "elevation": null, "source": "osm"}, {"name": "Neufra", "country": "", "latitude": 48.1299368, "longitude": 8.674504, "population": 0, "elevation": null, "source": "osm"}, {"name": "Rietheim", "country": "", "latitude": 48.0391822, "longitude": 8.7806127, "population": 0, "elevation": 681.0, "source": "osm"}, {"name": "Stetten", "country": "", "latitude": 47.5905312, "longitude": 8.440462, "population": 0, "elevation": null, "source": "osm"}, {"name": "Burg am Wald", "country": "", "latitude": 47.9716213, "longitude": 7.9819769, "population": 0, "elevation": null, "source": "osm"}, {"name": "Rosenfeld", "country": "", "latitude": 48.2863842, "longitude": 8.7232519, "population": 6578, "elevation": null, "source": "osm"}, {"name": "Todtnauberg", "country": "", "latitude": 47.8516814, "longitude": 7.9420935, "population": 0, "elevation": null, "source": "osm"}, {"name": "Hellikon", "country": "", "latitude": 47.5095692, "longitude": 7.9249732, "population": 788, "elevation": 414.0, "source": "osm"}, {"name": "Neukirch", "country": "", "latitude": 48.0254959, "longitude": 8.1733621, "population": 0, "elevation": null, "source": "osm"}, {"name": "Böhringen", "country": "", "latitude": 48.2473987, "longitude": 8.6601528, "population": 0, "elevation": null, "source": "osm"}, {"name": "Brandenberg", "country": "", "latitude": 47.8379799, "longitude": 7.973364, "population": 0, "elevation": null, "source": "osm"}, {"name": "Gerlikon", "country": "", "latitude": 47.5367433, "longitude": 8.8772586, "population": 0, "elevation": 545.0, "source": "osm"},