[{"name": "Monte Gottero", "latitude": 44.3632997, "longitude": 9.6784249, "elevation": 1639.0, "source": "osm", "_tags": {"ele": "1639", "importance": "regional", "name": "Monte Gottero", "natural": "peak", "wikidata": "Q1945847", "wikipedia": "it:Monte Gottero"}}, {"name": "Monte Fasce", "latitude": 44.4094541, "longitude": 9.0340893, "elevation": 832.0, "source": "osm", "_tags": {"ele": "832", "name": "Monte Fasce", "natural": "peak", "wikidata": "Q1464074", "wikipedia": "it:Monte Fasce"}}, {"name": "Monte di Portofino", "latitude": 44.3267618, "longitude": 9.1688903, "elevation": 610.0, "source": "osm", "_tags": {"ele": "610", "name": "Monte di Portofino", "natural": "peak", "wikidata": "Q3862173", "wikipedia": "it:Monte di Portofino"}}, {"name": "Monte di Ruta", "latitude": 44.3379331, "longitude": 9.1711204, "elevation": 416.0, "source": "osm", "_tags": {"ele": "416", "name": "Monte di Ruta", "natural": "peak", "wikidata": "Q31633741"}}, {"name": "", "latitude": 44.3920992, "longitude": 9.06218, "elevation": 496.0, "source": "osm", "_tags": {"ele": "496", "natural": "peak"}}, {"name": "Monte Giugo", "latitude": 44.3897997, "longitude": 9.0581171, "elevation": 487.0, "source": "osm", "_tags": {"created_by": "Potlatch 0.10b", "ele": "487", "name": "Monte Giugo", "natural": "peak"}}, {"name": "Monte Santa Croce", "latitude": 44.3829102, "longitude": 9.0907216, "elevation": 518.0, "source": "osm", "_tags": {"ele": "518", "name": "Monte Santa Croce", "natural": "peak", "wikidata": "Q3861981", "wikipedia": "it:Monte Santa Croce"}}, {"name": "Monte Rotondo", "latitude": 44.4066747, "longitude": 9.0902311, "elevation": 789.0, "source": "osm", "_tags": {"ele": "789", "name": "Monte Rotondo", "natural": "peak"}}, {"name": "", "latitude": 44.4071211, "longitude": 9.0841581, "elevation": 775.0, "source": "osm", "_tags": {"ele": "775", "natural": "peak"}}, {"name": "Monte Moro", "latitude": 44.3918373, "longitude": 9.0269112, "elevation": 408.0, "source": "osm", "_tags": {"ele": "408", "name": "Monte Moro", "natural": "peak", "source": "CTR Regione Liguria"}}, {"name": "Monte Croce", "latitude": 44.166048, "longitude": 9.8130332, "elevation": 610.0, "source": "osm", "_tags": {"ele": "610", "importance": "regional", "name": "Monte Croce", "natural": "peak"}}, {"name": "Monte Bello", "latitude": 44.3915536, "longitude": 9.1833275, "elevation": 712.0, "source": "osm", "_tags": {"ele": "712", "name": "Monte Bello", "natural": "peak"}}, {"name": "Montenegro", "latitude": 44.1567113, "longitude": 9.6324081, "elevation": 445.0, "source": "osm", "_tags": {"ele": "445", "name": "Montenegro", "natural": "peak"}}, {"name": "Monte Afra", "latitude": 44.3937227, "longitude": 9.7895772, "elevation": 1317.0, "source": "osm", "_tags": {"ele": "1317", "name": "Monte Afra", "natural": "peak"}}, {"name": "Monte Ribone", "latitude": 44.4188464, "longitude": 9.7438708, "elevation": 1289.0, "source": "osm", "_tags": {"ele": "1289", "name": "Monte Ribone", "natural": "peak", "source": "ctr 5000 emilia romagna"}}, {"name": "Monte Spiaggi", "latitude": 44.3871997, "longitude": 9.7699408, "elevation": 1554.0, "source": "osm", "_tags": {"ele": "1554", "name": "Monte Spiaggi", "natural": "peak", "wikidata": "Q31647483"}}, {"name": "Monte Colombo", "latitude": 44.3902382, "longitude": 9.7630531, "elevation": 1562.0, "source": "osm", "_tags": {"ele": "1562", "name": "Monte Colombo", "natural": "peak", "wikidata": "Q31647470"}}, {"name": "Monte Tecchione", "latitude": 44.3814517, "longitude": 9.7447656, "elevation": 1586.0, "source": "osm", "_tags": {"ele": "1586", "name": "Monte Tecchione", "natural": "peak", "source": "ctr 5000 emilia romagna"}}, {"name": "Monte Capenardo", "latitude": 44.3139809, "longitude": 9.4040216, "elevation": 693.0, "source": "osm", "_tags": {"ele": "693", "name": "Monte Capenardo", "natural": "peak"}}, {"name": "Monte Vallai", "latitude": 44.3187863, "longitude": 9.4171966, "elevation": 576.0, "source": "osm", "_tags": {"ele": "576", "name": "Monte Vallai", "natural": "peak"}}, {"name": "Monte Costello", "latitude": 44.3007755, "longitude": 9.4074763, "elevation": 498.0, "source": "osm", "_tags": {"ele": "498", "name": "Monte Costello", "natural": "peak"}}, {"name": "Monte Le Rocchette", "latitude": 44.3221801, "longitude": 9.3959202, "elevation": 701.0, "source": "osm", "_tags": {"ele": "701", "name": "Monte Le Rocchette", "natural": "peak", "wikidata": "Q31633906"}}, {"name": "Monte Grosso", "latitude": 44.1129559, "longitude": 9.757435, "elevation": 662.0, "source": "osm", "_tags": {"ele": "662", "name": "Monte Grosso", "natural": "peak", "source": "CTR Regione Liguria"}}, {"name": "Monte Verrugoli", "latitude": 44.106221, "longitude": 9.7641649, "elevation": 745.0, "source": "osm", "_tags": {"ele": "745", "name": "Monte Verrugoli", "natural": "peak", "source": "CTR Regione Liguria"}}, {"name": "Monte Malpertuso", "latitude": 44.1557655, "longitude": 9.7052044, "elevation": 812.0, "source": "osm", "_tags": {"ele": "812", "name": "Monte Malpertuso", "natural": "peak"}}, {"name": "Monte Gaginara", "latitude": 44.1389548, "longitude": 9.7150403, "elevation": 771.0, "source": "osm", "_tags": {"ele": "771", "name": "Monte Gaginara", "natural": "peak"}}, {"name": "Monte Marvede", "latitude": 44.1305586, "longitude": 9.7280425, "elevation": 698.0, "source": "osm", "_tags": {"ele": "698", "name": "Monte Marvede", "natural": "peak"}}, {"name": "Monte Cuna", "latitude": 44.1273093, "longitude": 9.7336399, "elevation": 773.0, "source": "osm", "_tags": {"ele": "773", "name": "Monte Cuna", "natural": "peak"}}, {"name": "Monte Capri", "latitude": 44.1267574, "longitude": 9.7427636, "elevation": 785.0, "source": "osm", "_tags": {"ele": "785", "name": "Monte Capri", "natural": "peak"}}, {"name": "Monte Pegge", "latitude": 44.3876322, "longitude": 9.2349975, "elevation": 774.0, "source": "osm", "_tags": {"ele": "774", "name": "Monte Pegge", "natural": "peak"}}, {"name": "Monte Vergastrelli", "latitude": 44.4008878, "longitude": 9.7370974, "elevation": 1457.0, "source": "osm", "_tags": {"ele": "1457", "name": "Monte Vergastrelli", "natural": "peak", "source": "ctr 5000 emilia romagna"}}, {"name": "Monte Focetto", "latitude": 44.3788619, "longitude": 9.7328562, "elevation": 1534.0, "source": "osm", "_tags": {"ele": "1534", "name": "Monte Focetto", "natural": "peak"}}, {"name": "Monte Pitone", "latitude": 44.3807272, "longitude": 9.7359662, "elevation": 1551.0, "source": "osm", "_tags": {"ele": "1551", "name": "Monte Pitone", "natural": "peak", "source": "ctr 5000 emilia romagna"}}, {"name": "Fabei", "latitude": 44.3854481, "longitude": 9.7434625, "elevation": 1590.0, "source": "osm", "_tags": {"ele": "1590", "name": "Fabei", "natural": "peak", "source": "ctr 5000 emilia romagna"}}, {"name": "Bric Gianesi", "latitude": 44.3987996, "longitude": 9.0743182, "elevation": 614.0, "source": "osm", "_tags": {"ele": "614", "name": "Bric Gianesi", "natural": "peak"}}, {"name": "Monte Carrupola", "latitude": 44.409565, "longitude": 9.004339, "elevation": 376.0, "source": "osm", "_tags": {"ele": "376", "name": "Monte Carrupola", "natural": "peak"}}, {"name": "Monte Bastia", "latitude": 44.419742, "longitude": 9.0479373, "elevation": 848.0, "source": "osm", "_tags": {"ele": "848", "name": "Monte Bastia", "natural": "peak"}}, {"name": "Monte Proi", "latitude": 44.4269072, "longitude": 9.0423027, "elevation": 846.0, "source": "osm", "_tags": {"ele": "846", "name": "Monte Proi", "natural": "peak"}}, {"name": "Monte Zatta di Levante", "latitude": 44.4014886, "longitude": 9.4626973, "elevation": 1404.0, "source": "osm", "_tags": {"ele": "1404", "name": "Monte Zatta di Levante", "natural": "peak", "source": "survey", "wikidata": "Q1115204", "wikipedia": "it:Monte Zatta"}}, {"name": "Monte di Traso", "latitude": 44.4217503, "longitude": 9.0936168, "elevation": 908.0, "source": "osm", "_tags": {"ele": "908", "name": "Monte di Traso", "natural": "peak", "source": "CTR Regione Liguria"}}, {"name": "Monte Becco", "latitude": 44.413771, "longitude": 9.1089, "elevation": 894.0, "source": "osm", "_tags": {"ele": "894", "name": "Monte Becco", "natural": "peak", "summit:cross": "yes"}}, {"name": "Monte Croce dei Fò", "latitude": 44.4242365, "longitude": 9.1014084, "elevation": 973.0, "source": "osm", "_tags": {"ele": "973", "name": "Monte Croce dei Fò", "natural": "peak", "summit:cross": "yes", "wikidata": "Q3861497", "wikipedia": "it:Monte Croce dei Fo'"}}, {"name": "Monte Bado", "latitude": 44.4211604, "longitude": 9.1104771, "elevation": 911.0, "source": "osm", "_tags": {"ele": "911", "name": "Monte Bado", "natural": "peak", "summit:cross": "yes"}}, {"name": "", "latitude": 44.4185599, "longitude": 9.1099972, "elevation": null, "source": "osm", "_tags": {"natural": "peak"}}, {"name": "Monte Gropparola", "latitude": 44.4204609, "longitude": 9.4661946, "elevation": 964.0, "source": "osm", "_tags": {"ele": "964", "name": "Monte Gropparola", "natural": "peak"}}, {"name": "Monte Castelletto", "latitude": 44.378911, "longitude": 9.1307654, "elevation": 566.0, "source": "osm", "_tags": {"ele": "566", "name": "Monte Castelletto", "natural": "peak", "wikidata": "Q31633690"}}, {"name": "Monte Coppa", "latitude": 44.3466436, "longitude": 9.6344938, "elevation": 994.0, "source": "osm", "_tags": {"ele": "994", "name": "Monte Coppa", "natural": "peak"}}, {"name": "", "latitude": 44.3438347, "longitude": 9.643138, "elevation": 1008.0, "source": "osm", "_tags": {"ele": "1008", "natural": "peak"}}, {"name": "Monte Orsena", "latitude": 44.3733006, "longitude": 9.1794249, "elevation": 614.0, "source": "osm", "_tags": {"ele": "614", "name": "Monte Orsena", "natural": "peak"}}, {"name": "Monte Verruga", "latitude": 44.3632059, "longitude": 9.5262303, "elevation": 1207.0, "source": "osm", "_tags": {"ele": "1207", "name": "Monte Verruga", "natural": "peak", "summit:cross": "yes"}}, {"name": "Monte Zatta di Ponente", "latitude": 44.3960458, "longitude": 9.4472916, "elevation": 1355.0, "source": "osm", "_tags": {"ele": "1355", "name": "Monte Zatta di Ponente", "natural": "peak", "source": "survey"}}, {"name": "Monte Prato Pinello", "latitude": 44.4014884, "longitude": 9.4658604, "elevation": 1390.0, "source": "osm", "_tags": {"ele": "1390", "name": "Monte Prato Pinello", "natural": "peak", "source": "survey"}}, {"name": "Monte Ventarola", "latitude": 44.4264885, "longitude": 9.5807483, "elevation": 1177.0, "source": "osm", "_tags": {"ele": "1177", "local_name": "Venta-o-a", "name": "Monte Ventarola", "natural": "peak"}}, {"name": "Monte Groppi", "latitude": 44.2644146, "longitude": 9.5750678, "elevation": 869.0, "source": "osm", "_tags": {"ele": "869", "name": "Monte Groppi", "natural": "peak", "wikidata": "Q93121614"}}, {"name": "Cima Stronzi", "latitude": 44.2604904, "longitude": 9.570806, "elevation": 851.0, "source": "osm", "_tags": {"ele": "851", "name": "Cima Stronzi", "natural": "peak"}}, {"name": "Monte Moneglia", "latitude": 44.2523709, "longitude": 9.463802, "elevation": 521.0, "source": "osm", "_tags": {"ele": "521", "name": "Monte Moneglia", "natural": "peak", "wikidata": "Q40769305"}}, {"name": "Monte Comunaglia", "latitude": 44.2457055, "longitude": 9.4656442, "elevation": 432.0, "source": "osm", "_tags": {"ele": "432", "name": "Monte Comunaglia", "natural": "peak"}}, {"name": "Monte Treggin", "latitude": 44.3097105, "longitude": 9.4785896, "elevation": 870.0, "source": "osm", "_tags": {"ele": "870", "name": "Monte Treggin", "natural": "peak"}}, {"name": "Monte Pù", "latitude": 44.2984739, "longitude": 9.5095575, "elevation": 1001.0, "source": "osm", "_tags": {"ele": "1001", "name": "Monte Pù", "natural": "peak"}}, {"name": "Monte Alpe", "latitude": 44.3101374, "longitude": 9.522533, "elevation": 1094.0, "source": "osm", "_tags": {"ele": "1094", "name": "Monte Alpe", "natural": "peak"}}, {"name": "Monte Roccagrande", "latitude": 44.3207084, "longitude": 9.4790045, "elevation": 970.0, "source": "osm", "_tags": {"alt_name": "Monte Roccagrande", "ele": "970", "name": "Monte Roccagrande", "natural": "peak"}}, {"name": "Monte Incisa", "latitude": 44.2401882, "longitude": 9.523528, "elevation": 514.0, "source": "osm", "_tags": {"ele": "514", "name": "Monte Incisa", "natural": "peak"}}, {"name": "Monte Santa Croce", "latitude": 44.0917925, "longitude": 9.7932489, "elevation": 543.0, "source": "osm", "_tags": {"ele": "543", "name": "Monte Santa Croce", "natural": "peak"}}, {"name": "Monte Parodi", "latitude": 44.1102033, "longitude": 9.7787023, "elevation": 673.0, "source": "osm", "_tags": {"ele": "673", "name": "Monte Parodi", "natural": "peak", "wikidata": "Q1945877", "wikipedia": "it:Monte Parodi"}}, {"name": "Rocca Storti", "latitude": 44.0839837, "longitude": 9.7853872, "elevation": 588.0, "source": "osm", "_tags": {"ele": "588", "name": "Rocca Storti", "natural": "peak"}}, {"name": "Monte Coregna", "latitude": 44.0830505, "longitude": 9.7998087, "elevation": 500.0, "source": "osm", "_tags": {"ele": "500", "name": "Monte Coregna", "natural": "peak"}}, {"name": "Monte Pram", "latitude": 44.4052141, "longitude": 9.097914, "elevation": 772.0, "source": "osm", "_tags": {"ele": "772", "name": "Monte Pram", "natural": "peak"}}, {"name": "Monte dell’Uccellato", "latitude": 44.4080045, "longitude": 9.1028703, "elevation": 828.0, "source": "osm", "_tags": {"ele": "828", "name": "Monte dell’Uccellato", "natural": "peak"}}, {"name": "Monte Possuolo", "latitude": 44.4028304, "longitude": 9.0933591, "elevation": null, "source": "osm", "_tags": {"name": "Monte Possuolo", "natural": "peak"}}, {"name": "Monte Carmo", "latitude": 44.1395384, "longitude": 9.7509887, "elevation": 558.0, "source": "osm", "_tags": {"ele": "558", "name": "Monte Carmo", "natural": "peak"}}, {"name": "Monte Perina", "latitude": 44.2050271, "longitude": 9.6895197, "elevation": 483.0, "source": "osm", "_tags": {"ele": "483", "name": "Monte Perina", "natural": "peak"}}, {"name": "Monte Castellaro", "latitude": 44.2117504, "longitude": 9.6740995, "elevation": 555.0, "source": "osm", "_tags": {"ele": "555", "name": "Monte Castellaro", "natural": "peak"}}, {"name": "Monte Bardellone", "latitude": 44.1891208, "longitude": 9.6546846, "elevation": 676.0, "source": "osm", "_tags": {"ele": "676", "name": "Monte Bardellone", "natural": "peak"}}, {"name": "Monte Pinese", "latitude": 44.2117109, "longitude": 9.7317684, "elevation": 393.0, "source": "osm", "_tags": {"ele": "393", "name": "Monte Pinese", "natural": "peak"}}, {"name": "Madonna Del Monte", "latitude": 44.3170297, "longitude": 9.8577763, "elevation": 950.0, "source": "osm", "_tags": {"ele": "950", "name": "Madonna Del Monte", "natural": "peak"}}, {"name": "Monte Mazzerino", "latitude": 44.3404988, "longitude": 9.8115979, "elevation": 1090.0, "source": "osm", "_tags": {"ele": "1090", "name": "Monte Mazzerino", "natural": "peak"}}, {"name": "Monte Fo'", "latitude": 44.3405348, "longitude": 9.8257938, "elevation": 976.0, "source": "osm", "_tags": {"ele": "976", "name": "Monte Fo'", "natural": "peak"}}, {"name": "Monte Bandiera", "latitude": 44.3401728, "longitude": 9.8409004, "elevation": 909.0, "source": "osm", "_tags": {"ele": "909", "name": "Monte Bandiera", "natural": "peak"}}, {"name": "Monte Carmuschio", "latitude": 44.3379987, "longitude": 9.8192565, "elevation": 1096.0, "source": "osm", "_tags": {"ele": "1096", "name": "Monte Carmuschio", "natural": "peak"}}, {"name": "sn", "latitude": 44.3420661, "longitude": 9.8081916, "elevation": 1051.0, "source": "osm", "_tags": {"ele": "1051", "name": "sn", "natural": "peak"}}, {"name": "Monte Mugnana", "latitude": 44.3115313, "longitude": 9.8488913, "elevation": 980.0, "source": "osm", "_tags": {"ele": "980", "name": "Monte Mugnana", "natural": "peak", "wikidata": "Q98930690"}}, {"name": "Monte Lago", "latitude": 44.340485, "longitude": 9.8597141, "elevation": 708.0, "source": "osm", "_tags": {"ele": "708", "name": "Monte Lago", "natural": "peak"}}, {"name": "Monte Carbone", "latitude": 44.3124029, "longitude": 9.8332959, "elevation": 1000.0, "source": "osm", "_tags": {"ele": "1000", "name": "Monte Carbone", "natural": "peak"}}, {"name": "Monte Arcisila", "latitude": 44.3269573, "longitude": 9.8196407, "elevation": 955.0, "source": "osm", "_tags": {"ele": "955", "name": "Monte Arcisila", "natural": "peak"}}, {"name": "Costa delle Leghe", "latitude": 44.3323327, "longitude": 9.8826646, "elevation": 453.0, "source": "osm", "_tags": {"ele": "453", "name": "Costa delle Leghe", "natural": "peak"}}, {"name": "Monte Chiappozzo", "latitude": 44.3760296, "longitude": 9.4886468, "elevation": 1126.0, "source": "osm", "_tags": {"ele": "1126", "name": "Monte Chiappozzo", "natural": "peak"}}, {"name": "Monte Beverone", "latitude": 44.2341003, "longitude": 9.7818352, "elevation": 708.0, "source": "osm", "_tags": {"ele": "708", "name": "Monte Beverone", "natural": "peak"}}, {"name": "Monte Anchetta", "latitude": 44.346034, "longitude": 9.2889226, "elevation": 544.0, "source": "osm", "_tags": {"ele": "544", "name": "Monte Anchetta", "natural": "peak", "wikidata": "Q31633880"}}, {"name": "Monte Fogona", "latitude": 44.2577257, "longitude": 9.6349297, "elevation": 451.0, "source": "osm", "_tags": {"ele": "451", "name": "Monte Fogona", "natural": "peak"}}, {"name": "Poggio Castellaro", "latitude": 44.2748186, "longitude": 9.7602647, "elevation": 513.0, "source": "osm", "_tags": {"ele": "513", "name": "Poggio Castellaro", "natural": "peak"}}, {"name": "La Gruzza", "latitude": 44.2795974, "longitude": 9.7923876, "elevation": 938.0, "source": "osm", "_tags": {"ele": "938", "name": "La Gruzza", "natural": "peak"}}, {"name": "La Pianaccia", "latitude": 44.2733683, "longitude": 9.76469, "elevation": 576.0, "source": "osm", "_tags": {"ele": "576", "name": "La Pianaccia", "natural": "peak"}}, {"name": "Monte Cucco", "latitude": 44.3767004, "longitude": 9.5528279, "elevation": 906.0, "source": "osm", "_tags": {"ele": "906", "name": "Monte Cucco", "natural": "peak"}}, {"name": "Monte Carmi", "latitude": 44.1301622, "longitude": 9.7571814, "elevation": 473.0, "source": "osm", "_tags": {"ele": "473", "name": "Monte Carmi", "natural": "peak", "source": "CTR Regione Liguria"}}, {"name": "Monte Casao", "latitude": 44.1222544, "longitude": 9.7574931, "elevation": 585.0, "source": "osm", "_tags": {"ele": "585", "name": "Monte Casao", "natural": "peak"}}, {"name": "Monte Costari", "latitude": 44.1284622, "longitude": 9.7521883, "elevation": 568.0, "source": "osm", "_tags": {"ele": "568", "name": "Monte Costari", "natural": "peak"}}, {"name": "Monte Nero", "latitude": 44.2405632, "longitude": 9.76806, "elevation": 715.0, "source": "osm", "_tags": {"ele": "715", "name": "Monte Nero", "natural": "peak"}}, {"name": "Bric la Ruota", "latitude": 44.2252491, "longitude": 9.7928977, "elevation": 577.0, "source": "osm", "_tags": {"ele": "577", "name": "Bric la Ruota", "natural": "peak"}}, {"name": "Monte Gruzzo", "latitude": 44.2203082, "longitude": 9.8036155, "elevation": 560.0, "source": "osm", "_tags": {"ele": "560", "name": "Monte Gruzzo", "natural": "peak"}}, {"name": "Monte Cornoviglio", "latitude": 44.2677454, "longitude": 9.8476791, "elevation": 1162.0, "source": "osm", "_tags": {"ele": "1162", "name": "Monte Cornoviglio", "natural": "peak"}}, {"name": "Monte Rosa", "latitude": 44.3711537, "longitude": 9.2591357, "elevation": 692.0, "source": "osm", "_tags": {"ele": "692", "name": "Monte Rosa", "natural": "peak", "wikidata": "Q31633828"}}, {"name": "Monte Muzzerone", "latitude": 44.05759, "longitude": 9.8271197, "elevation": 325.0, "source": "osm", "_tags": {"ele": "325", "name": "Monte Muzzerone", "natural": "peak"}}, {"name": "Monte Mignano", "latitude": 44.4116728, "longitude": 9.3037059, "elevation": 974.0, "source": "osm", "_tags": {"ele": "974", "name": "Monte Mignano", "natural": "peak", "wikidata": "Q31646225"}}, {"name": "Monte Visseggi", "latitude": 44.1354369, "longitude": 9.7881023, "elevation": 348.0, "source": "osm", "_tags": {"ele": "348", "name": "Monte Visseggi", "natural": "peak"}}, {"name": "Monte Porcile Est", "latitude": 44.3466698, "longitude": 9.5111241, "elevation": null, "source": "osm", "_tags": {"name": "Monte Porcile Est", "natural": "peak", "summit:cross": "yes"}}, {"name": "Monte Porcile Ovest", "latitude": 44.3470478, "longitude": 9.5102744, "elevation": 1249.0, "source": "osm", "_tags": {"ele": "1249", "name": "Monte Porcile Ovest", "natural": "peak", "summit:cross": "yes"}}, {"name": "Monte Coderone", "latitude": 44.0950745, "longitude": 9.7821848, "elevation": 312.0, "source": "osm", "_tags": {"ele": "312", "name": "Monte Coderone", "natural": "peak"}}, {"name": "Monte Arsà", "latitude": 44.1310509, "longitude": 9.8277435, "elevation": 207.0, "source": "osm", "_tags": {"ele": "207", "name": "Monte Arsà", "natural": "peak"}}, {"name": "Monte Cordona", "latitude": 44.4077299, "longitude": 9.0760843, "elevation": 803.0, "source": "osm", "_tags": {"ele": "803", "name": "Monte Cordona", "natural": "peak"}}, {"name": "Bric Pertuso", "latitude": 44.4054196, "longitude": 9.0568117, "elevation": 582.0, "source": "osm", "_tags": {"ele": "582", "name": "Bric Pertuso", "natural": "peak"}}, {"name": "Monte Mezzano", "latitude": 44.1480409, "longitude": 9.8528629, "elevation": 228.0, "source": "osm", "_tags": {"ele": "228", "name": "Monte Mezzano", "natural": "peak"}}, {"name": "Lama Ebreo", "latitude": 44.1760029, "longitude": 9.8243051, "elevation": 476.0, "source": "osm", "_tags": {"ele": "476", "name": "Lama Ebreo", "natural": "peak"}}, {"name": "Il Monte", "latitude": 44.1837172, "longitude": 9.8445994, "elevation": 337.0, "source": "osm", "_tags": {"ele": "337", "name": "Il Monte", "natural": "peak"}}, {"name": "Monte Penna", "latitude": 44.1994646, "longitude": 9.7530493, "elevation": 389.0, "source": "osm", "_tags": {"ele": "389", "name": "Monte Penna", "natural": "peak", "source": "CTR Regione Liguria"}}, {"name": "Monte Crocetta", "latitude": 44.155533, "longitude": 9.8397763, "elevation": 287.0, "source": "osm", "_tags": {"ele": "287", "name": "Monte Crocetta", "natural": "peak"}}, {"name": "Monte Piaggia", "latitude": 44.1588182, "longitude": 9.8335376, "elevation": 318.0, "source": "osm", "_tags": {"ele": "318", "name": "Monte Piaggia", "natural": "peak"}}, {"name": "Monte San Nicolao", "latitude": 44.2527672, "longitude": 9.5719571, "elevation": 847.0, "source": "osm", "_tags": {"ele": "847", "name": "Monte San Nicolao", "natural": "peak", "wikidata": "Q31614466"}}, {"name": "Monte Rocche", "latitude": 44.2953027, "longitude": 9.6386598, "elevation": 495.0, "source": "osm", "_tags": {"ele": "495", "name": "Monte Rocche", "natural": "peak"}}, {"name": "Monte Pelato", "latitude": 44.2798346, "longitude": 9.6411399, "elevation": 524.0, "source": "osm", "_tags": {"ele": "524", "name": "Monte Pelato", "natural": "peak"}}, {"name": "Monte Vagie", "latitude": 44.3038823, "longitude": 9.6258632, "elevation": 611.0, "source": "osm", "_tags": {"ele": "611", "name": "Monte Vagie", "natural": "peak"}}, {"name": "Monte Ravezza", "latitude": 44.2805225, "longitude": 9.6265521, "elevation": 569.0, "source": "osm", "_tags": {"ele": "569", "name": "Monte Ravezza", "natural": "peak"}}, {"name": "Monte Castello", "latitude": 44.273635, "longitude": 9.616024, "elevation": 514.0, "source": "osm", "_tags": {"ele": "514", "name": "Monte Castello", "natural": "peak"}}, {"name": "Punta Baghetta", "latitude": 44.2578777, "longitude": 9.6516902, "elevation": 449.0, "source": "osm", "_tags": {"ele": "449", "name": "Punta Baghetta", "natural": "peak"}}, {"name": "Monte Focone", "latitude": 44.1527318, "longitude": 9.6248522, "elevation": 486.0, "source": "osm", "_tags": {"ele": "486", "name": "Monte Focone", "natural": "peak", "source": "CTR Regione Liguria"}}, {"name": "Monte Ciappa", "latitude": 44.2836401, "longitude": 9.6430937, "elevation": 386.0, "source": "osm", "_tags": {"ele": "386", "name": "Monte Ciappa", "natural": "peak"}}, {"name": "Monte Castelfermo", "latitude": 44.3029315, "longitude": 9.59601, "elevation": 791.0, "source": "osm", "_tags": {"ele": "791", "name": "Monte Castelfermo", "natural": "peak"}}, {"name": "Monte Serro", "latitude": 44.166974, "longitude": 9.6665842, "elevation": 519.0, "source": "osm", "_tags": {"ele": "519", "name": "Monte Serro", "natural": "peak"}}, {"name": "Monte Pizzicante", "latitude": 44.2391131, "longitude": 9.8219568, "elevation": 688.0, "source": "osm", "_tags": {"ele": "688", "name": "Monte Pizzicante", "natural": "peak"}}, {"name": "Monte Alpicella", "latitude": 44.2353712, "longitude": 9.8554178, "elevation": 826.0, "source": "osm", "_tags": {"ele": "826", "importance": "regional", "name": "Monte Alpicella", "natural": "peak"}}, {"name": "Monte Grosso", "latitude": 44.1824353, "longitude": 9.8178687, "elevation": 528.0, "source": "osm", "_tags": {"ele": "528", "name": "Monte Grosso", "natural": "peak"}}, {"name": "Monte Cuccaro", "latitude": 44.2391899, "longitude": 9.785423, "elevation": 739.0, "source": "osm", "_tags": {"ele": "739", "name": "Monte Cuccaro", "natural": "peak"}}, {"name": "Monte Castellaro", "latitude": 44.2457169, "longitude": 9.803257, "elevation": 699.0, "source": "osm", "_tags": {"ele": "699", "name": "Monte Castellaro", "natural": "peak"}}, {"name": "Monte Tievan", "latitude": 44.2394834, "longitude": 9.7986668, "elevation": 707.0, "source": "osm", "_tags": {"ele": "707", "name": "Monte Tievan", "natural": "peak"}}, {"name": "Volpara", "latitude": 44.248522, "longitude": 9.7905474, "elevation": 511.0, "source": "osm", "_tags": {"ele": "511", "name": "Volpara", "natural": "peak"}}, {"name": "Colle del Cian", "latitude": 44.292783, "longitude": 9.6017895, "elevation": 736.0, "source": "osm", "_tags": {"ele": "736", "name": "Colle del Cian", "natural": "peak"}}, {"name": "Monte La Trincea", "latitude": 44.2945229, "longitude": 9.5941463, "elevation": 814.0, "source": "osm", "_tags": {"ele": "814", "name": "Monte La Trincea", "natural": "peak"}}, {"name": "Punta Il Comune", "latitude": 44.2969247, "longitude": 9.6089219, "elevation": 700.0, "source": "osm", "_tags": {"ele": "700", "name": "Punta Il Comune", "natural": "peak"}}, {"name": "Monte delle Rocche", "latitude": 44.3100213, "longitude": 9.5992238, "elevation": 787.0, "source": "osm", "_tags": {"ele": "787", "name": "Monte delle Rocche", "natural": "peak"}}, {"name": "Monte Tre Castagni", "latitude": 44.3256173, "longitude": 9.6052822, "elevation": 643.0, "source": "osm", "_tags": {"ele": "643", "name": "Monte Tre Castagni", "natural": "peak"}}, {"name": "Monte della Astrina", "latitude": 44.3218663, "longitude": 9.6038951, "elevation": 644.0, "source": "osm", "_tags": {"ele": "644", "name": "Monte della Astrina", "natural": "peak"}}, {"name": "Monte Riccò", "latitude": 44.2913981, "longitude": 9.6516767, "elevation": 456.0, "source": "osm", "_tags": {"ele": "456", "name": "Monte Riccò", "natural": "peak"}}, {"name": "Centaviaggio", "latitude": 44.3495536, "longitude": 9.7337247, "elevation": null, "source": "osm", "_tags": {"name": "Centaviaggio", "natural": "peak", "summit:cross": "yes"}}, {"name": "Monte Antessio", "latitude": 44.3326001, "longitude": 9.7201145, "elevation": 1160.0, "source": "osm", "_tags": {"ele": "1160", "name": "Monte Antessio", "natural": "peak"}}, {"name": "Monte Carmo di Scogna", "latitude": 44.2853857, "longitude": 9.6974819, "elevation": 665.0, "source": "osm", "_tags": {"ele": "665", "name": "Monte Carmo di Scogna", "natural": "peak"}}, {"name": "Monte Rossòla", "latitude": 44.1858706, "longitude": 9.6020233, "elevation": 563.0, "source": "osm", "_tags": {"ele": "563", "name": "Monte Rossòla", "natural": "peak", "wikidata": "Q56654239"}}, {"name": "Monte Falò", "latitude": 44.2203337, "longitude": 9.8470054, "elevation": 709.0, "source": "osm", "_tags": {"ele": "709", "name": "Monte Falò", "natural": "peak"}}, {"name": "Pietra di Vasca", "latitude": 44.2562931, "longitude": 9.5562149, "elevation": 801.0, "source": "osm", "_tags": {"ele": "801", "name": "Pietra di Vasca", "natural": "peak"}}, {"name": "Monte Cucco", "latitude": 44.4255399, "longitude": 9.3483355, "elevation": 1051.0, "source": "osm", "_tags": {"ele": "1051", "name": "Monte Cucco", "natural": "peak"}}, {"name": "Cresta di Monte Moro", "latitude": 44.3995107, "longitude": 9.0322651, "elevation": 575.0, "source": "osm", "_tags": {"ele": "575", "name": "Cresta di Monte Moro", "natural": "peak"}}, {"name": "Bric Ciurli", "latitude": 44.3947361, "longitude": 9.0364613, "elevation": 325.0, "source": "osm", "_tags": {"ele": "325", "name": "Bric Ciurli", "natural": "peak", "source": "CTR Regione Liguria"}}, {"name": "Monte Capra", "latitude": 44.3362869, "longitude": 9.5011077, "elevation": 1058.0, "source": "osm", "_tags": {"ele": "1058", "name": "Monte Capra", "natural": "peak"}}, {"name": "Monte Termi Diritti", "latitude": 44.1711746, "longitude": 9.8198779, "elevation": 549.0, "source": "osm", "_tags": {"alt_name": "Monte Termi dritti", "ele": "549", "name": "Monte Termi Diritti", "natural": "peak"}}, {"name": "Monte Coppigliolo", "latitude": 44.2767135, "longitude": 9.815909, "elevation": 1140.0, "source": "osm", "_tags": {"ele": "1140", "name": "Monte Coppigliolo", "natural": "peak"}}, {"name": "Monte Foppo", "latitude": 44.4247348, "longitude": 9.6181308, "elevation": 1138.0, "source": "osm", "_tags": {"ele": "1138", "name": "Monte Foppo", "natural": "peak", "source": "Regione Emilia Romagna CTR 5000"}}, {"name": "Monte la Crocetta", "latitude": 44.4256593, "longitude": 9.6516154, "elevation": 1066.0, "source": "osm", "_tags": {"ele": "1066", "name": "Monte la Crocetta", "natural": "peak", "source": "Regione Emilia Romagna CTR 5000"}}, {"name": "Monte Bagastese", "latitude": 44.423219, "longitude": 9.6661828, "elevation": 1070.0, "source": "osm", "_tags": {"ele": "1070", "name": "Monte Bagastese", "natural": "peak", "source": "Regione Emilia Romagna CTR 5000"}}, {"name": "Monte Becco Mozzo", "latitude": 44.4218132, "longitude": 9.7074797, "elevation": 914.0, "source": "osm", "_tags": {"ele": "914", "name": "Monte Becco Mozzo", "natural": "peak", "source": "ctr 5000 emilia romagna"}}, {"name": "Monte Pero", "latitude": 44.4286439, "longitude": 9.7583685, "elevation": 1187.0, "source": "osm", "_tags": {"ele": "1187", "name": "Monte Pero", "natural": "peak", "source": "ctr 5000 emilia romagna"}}, {"name": "Il Pianaccio", "latitude": 44.4116976, "longitude": 9.7589962, "elevation": 1328.0, "source": "osm", "_tags": {"ele": "1328", "name": "Il Pianaccio", "natural": "peak", "source": "ctr 5000 emilia romagna"}}, {"name": "Monte Cadiglia", "latitude": 44.4064445, "longitude": 9.7634916, "elevation": 1413.0, "source": "osm", "_tags": {"ele": "1413", "name": "Monte Cadiglia", "natural": "peak"}}, {"name": "Monte Canoso", "latitude": 44.4183866, "longitude": 9.7825624, "elevation": 1236.0, "source": "osm", "_tags": {"ele": "1236", "name": "Monte Canoso", "natural": "peak", "source": "ctr 5000 emilia romagna"}}, {"name": "Punta Monte", "latitude": 44.4043536, "longitude": 9.8640487, "elevation": 662.0, "source": "osm", "_tags": {"ele": "662", "name": "Punta Monte", "natural": "peak"}}, {"name": "Costa delle Segate", "latitude": 44.3937751, "longitude": 9.7814367, "elevation": 1447.0, "source": "osm", "_tags": {"ele": "1447", "name": "Costa delle Segate", "natural": "peak"}}, {"name": "Monte Grezzano", "latitude": 44.3986568, "longitude": 9.8112134, "elevation": 1243.0, "source": "osm", "_tags": {"ele": "1243", "name": "Monte Grezzano", "natural": "peak"}}, {"name": "Monte Tondo", "latitude": 44.4034353, "longitude": 9.8200583, "elevation": 1068.0, "source": "osm", "_tags": {"ele": "1068", "name": "Monte Tondo", "natural": "peak"}}, {"name": "Monte Pasquarosa", "latitude": 44.3864181, "longitude": 9.7899746, "elevation": 1287.0, "source": "osm", "_tags": {"ele": "1287", "name": "Monte Pasquarosa", "natural": "peak"}}, {"name": "Poggio Fontanini", "latitude": 44.3909861, "longitude": 9.8288603, "elevation": 934.0, "source": "osm", "_tags": {"ele": "934", "name": "Poggio Fontanini", "natural": "peak"}}, {"name": "Monte Chiese", "latitude": 44.3733363, "longitude": 9.8213672, "elevation": 898.0, "source": "osm", "_tags": {"ele": "898", "name": "Monte Chiese", "natural": "peak"}}, {"name": "Monte Pianella", "latitude": 44.3648845, "longitude": 9.7932319, "elevation": 1250.0, "source": "osm", "_tags": {"ele": "1250", "name": "Monte Pianella", "natural": "peak"}}, {"name": "Monte Rosso", "latitude": 44.3669323, "longitude": 9.7736196, "elevation": 1146.0, "source": "osm", "_tags": {"ele": "1146", "name": "Monte Rosso", "natural": "peak"}}, {"name": "Monte Colombo", "latitude": 44.3718316, "longitude": 9.7860919, "elevation": 1284.0, "source": "osm", "_tags": {"ele": "1284", "name": "Monte Colombo", "natural": "peak"}}, {"name": "Costa Lentondo", "latitude": 44.3885342, "longitude": 9.7234173, "elevation": 1428.0, "source": "osm", "_tags": {"ele": "1428", "name": "Costa Lentondo", "natural": "peak"}}, {"name": "Monte Orsano", "latitude": 44.385797, "longitude": 9.7139673, "elevation": 1528.0, "source": "osm", "_tags": {"ele": "1528", "name": "Monte Orsano", "natural": "peak"}}, {"name": "Monte Teccio al Sole", "latitude": 44.3701149, "longitude": 9.6933279, "elevation": 1533.0, "source": "osm", "_tags": {"ele": "1533", "name": "Monte Teccio al Sole", "natural": "peak", "source": "Regione Emilia Romagna CTR 5000", "wikidata": "Q31647425"}}, {"name": "Il Poggione", "latitude": 44.376287, "longitude": 9.6947695, "elevation": 1494.0, "source": "osm", "_tags": {"ele": "1494", "name": "Il Poggione", "natural": "peak", "source": "Regione Emilia Romagna CTR 5000"}}, {"name": "Monte Passo del Lupo", "latitude": 44.3739889, "longitude": 9.6723082, "elevation": 1505.0, "source": "osm", "_tags": {"ele": "1505", "name": "Monte Passo del Lupo", "natural": "peak", "wikidata": "Q31647397"}}, {"name": "Monte Chiappa", "latitude": 44.3700002, "longitude": 9.662383, "elevation": 1402.0, "source": "osm", "_tags": {"ele": "1402", "name": "Monte Chiappa", "natural": "peak", "wikidata": "Q31647411"}}, {"name": "Monte Tanano", "latitude": 44.3792274, "longitude": 9.6100385, "elevation": 713.0, "source": "osm", "_tags": {"ele": "713", "name": "Monte Tanano", "natural": "peak"}}, {"name": "Groppini", "latitude": 44.3993881, "longitude": 9.6214525, "elevation": 957.0, "source": "osm", "_tags": {"ele": "957", "name": "Groppini", "natural": "peak"}}, {"name": "Monte del Laghetto", "latitude": 44.4065948, "longitude": 9.6315376, "elevation": 1107.0, "source": "osm", "_tags": {"ele": "1107", "name": "Monte del Laghetto", "natural": "peak"}}, {"name": "Monte Scassella", "latitude": 44.4119699, "longitude": 9.6548174, "elevation": 1228.0, "source": "osm", "_tags": {"ele": "1228", "name": "Monte Scassella", "natural": "peak", "wikidata": "Q31647360"}}, {"name": "Monte Bertola", "latitude": 44.3945448, "longitude": 9.662893, "elevation": 1193.0, "source": "osm", "_tags": {"ele": "1193", "name": "Monte Bertola", "natural": "peak", "source": "Regione Emilia Romagna CTR 5000"}}, {"name": "Monte Corlo", "latitude": 44.3973499, "longitude": 9.7189118, "elevation": 1358.0, "source": "osm", "_tags": {"ele": "1358", "name": "Monte Corlo", "natural": "peak"}}, {"name": "Monte Pianazzi", "latitude": 44.4119897, "longitude": 9.7129809, "elevation": 1082.0, "source": "osm", "_tags": {"ele": "1082", "name": "Monte Pianazzi", "natural": "peak"}}, {"name": "Monte Cucherna", "latitude": 44.4048006, "longitude": 9.7563361, "elevation": 1515.0, "source": "osm", "_tags": {"ele": "1515", "name": "Monte Cucherna", "natural": "peak", "source": "ctr 5000 emilia romagna"}}, {"name": "Monte Spolverato", "latitude": 44.4028383, "longitude": 9.795947, "elevation": 1256.0, "source": "osm", "_tags": {"ele": "1256", "name": "Monte Spolverato", "natural": "peak"}}, {"name": "Monte la Pelata", "latitude": 44.3685185, "longitude": 9.7374249, "elevation": 1555.0, "source": "osm", "_tags": {"ele": "1555", "name": "Monte la Pelata", "natural": "peak"}}, {"name": "Colle la Guasta", "latitude": 44.3067772, "longitude": 9.8740095, "elevation": 703.0, "source": "osm", "_tags": {"ele": "703", "name": "Colle la Guasta", "natural": "peak"}}, {"name": "Monte la Nuda", "latitude": 44.2982341, "longitude": 9.8829341, "elevation": 958.0, "source": "osm", "_tags": {"ele": "958", "name": "Monte la Nuda", "natural": "peak"}}, {"name": "Monte Colmo", "latitude": 44.2969802, "longitude": 9.826324, "elevation": 1065.0, "source": "osm", "_tags": {"ele": "1065", "name": "Monte Colmo", "natural": "peak"}}, {"name": "Monte Zuccone", "latitude": 44.3045665, "longitude": 9.8079991, "elevation": 910.0, "source": "osm", "_tags": {"ele": "910", "name": "Monte Zuccone", "natural": "peak"}}, {"name": "Monte Gattara", "latitude": 44.294185, "longitude": 9.8711276, "elevation": 976.0, "source": "osm", "_tags": {"ele": "976", "name": "Monte Gattara", "natural": "peak"}}, {"name": "Monte Scopello", "latitude": 44.2889306, "longitude": 9.8712134, "elevation": 1007.0, "source": "osm", "_tags": {"ele": "1007", "name": "Monte Scopello", "natural": "peak"}}, {"name": "Monte Zuccoletto", "latitude": 44.2785478, "longitude": 9.8838735, "elevation": 952.0, "source": "osm", "_tags": {"ele": "952", "name": "Monte Zuccoletto", "natural": "peak"}}, {"name": "Colle Carme del Duca", "latitude": 44.2776245, "longitude": 9.8534036, "elevation": 807.0, "source": "osm", "_tags": {"ele": "807", "name": "Colle Carme del Duca", "natural": "peak"}}, {"name": "Monte Borra Grande", "latitude": 44.2624762, "longitude": 9.8570514, "elevation": 982.0, "source": "osm", "_tags": {"ele": "982", "name": "Monte Borra Grande", "natural": "peak"}}, {"name": "Monte Belvedere", "latitude": 44.228853, "longitude": 9.864598, "elevation": 718.0, "source": "osm", "_tags": {"ele": "718", "name": "Monte Belvedere", "natural": "peak"}}, {"name": "Monte Castellaro", "latitude": 44.2212769, "longitude": 9.883101, "elevation": 645.0, "source": "osm", "_tags": {"ele": "645", "name": "Monte Castellaro", "natural": "peak"}}, {"name": "Monte Ciliegia", "latitude": 44.2267942, "longitude": 9.8433979, "elevation": 757.0, "source": "osm", "_tags": {"ele": "757", "name": "Monte Ciliegia", "natural": "peak"}}, {"name": "Monte Mirone", "latitude": 44.2429247, "longitude": 9.8828435, "elevation": 618.0, "source": "osm", "_tags": {"ele": "618", "name": "Monte Mirone", "natural": "peak"}}, {"name": "Monte Malanotte", "latitude": 44.4173854, "longitude": 9.4827425, "elevation": 1096.0, "source": "osm", "_tags": {"ele": "1096", "name": "Monte Malanotte", "natural": "peak"}}, {"name": "Monte Pollano", "latitude": 44.4217072, "longitude": 9.4898665, "elevation": 1028.0, "source": "osm", "_tags": {"ele": "1028", "name": "Monte Pollano", "natural": "peak"}}, {"name": "Poggio della Marchesina", "latitude": 44.4090453, "longitude": 9.4902339, "elevation": 977.0, "source": "osm", "_tags": {"ele": "977", "name": "Poggio della Marchesina", "natural": "peak"}}, {"name": "Monte la Crocetta", "latitude": 44.4186884, "longitude": 9.5204486, "elevation": 931.0, "source": "osm", "_tags": {"ele": "931", "name": "Monte la Crocetta", "natural": "peak", "source": "Regione Emilia Romagna CTR 5000"}}, {"name": "Monte Pietrebianche", "latitude": 44.4201432, "longitude": 9.5492651, "elevation": 937.0, "source": "osm", "_tags": {"ele": "937", "name": "Monte Pietrebianche", "natural": "peak", "source": "Regione Emilia Romagna CTR 5000"}}, {"name": "Monte Zuccarello", "latitude": 44.4286114, "longitude": 9.2871058, "elevation": 771.0, "source": "osm", "_tags": {"ele": "771", "name": "Monte Zuccarello", "natural": "peak", "wikidata": "Q31646277"}}, {"name": "Monte Panigaro", "latitude": 44.4167096, "longitude": 9.2709616, "elevation": 682.0, "source": "osm", "_tags": {"ele": "682", "name": "Monte Panigaro", "natural": "peak"}}, {"name": "Monte Bello", "latitude": 44.4034247, "longitude": 9.2889498, "elevation": 718.0, "source": "osm", "_tags": {"ele": "718", "name": "Monte Bello", "natural": "peak"}}, {"name": "Monte Verzi", "latitude": 44.4286937, "longitude": 9.2417341, "elevation": 774.0, "source": "osm", "_tags": {"ele": "774", "name": "Monte Verzi", "natural": "peak"}}, {"name": "Monte Bocco", "latitude": 44.4182568, "longitude": 9.4382671, "elevation": 1085.0, "source": "osm", "_tags": {"ele": "1085", "name": "Monte Bocco", "natural": "peak", "source": "Regione Emilia Romagna CTR 5000"}}, {"name": "Monte Camilla", "latitude": 44.381601, "longitude": 9.441587, "elevation": 1001.0, "source": "osm", "_tags": {"ele": "1001", "name": "Monte Camilla", "natural": "peak"}}, {"name": "Monte Carmona", "latitude": 44.3766642, "longitude": 9.4278541, "elevation": 724.0, "source": "osm", "_tags": {"ele": "724", "name": "Monte Carmona", "natural": "peak"}}, {"name": "Monte Bossea", "latitude": 44.3563263, "longitude": 9.442865, "elevation": 730.0, "source": "osm", "_tags": {"ele": "730", "name": "Monte Bossea", "natural": "peak"}}, {"name": "Monte Ricasola", "latitude": 44.3586259, "longitude": 9.4701533, "elevation": 776.0, "source": "osm", "_tags": {"ele": "776", "name": "Monte Ricasola", "natural": "peak"}}, {"name": "Monte Coppello", "latitude": 44.3866125, "longitude": 9.4723648, "elevation": 1062.0, "source": "osm", "_tags": {"ele": "1062", "name": "Monte Coppello", "natural": "peak"}}, {"name": "Monte Riso", "latitude": 44.3917233, "longitude": 9.5042005, "elevation": 1011.0, "source": "osm", "_tags": {"ele": "1011", "name": "Monte Riso", "natural": "peak"}}, {"name": "Monte Pizzofreddo", "latitude": 44.3611419, "longitude": 9.6691187, "elevation": 1517.0, "source": "osm", "_tags": {"ele": "1517", "name": "Monte Pizzofreddo", "natural": "peak"}}, {"name": "Monte Volacra", "latitude": 44.3607116, "longitude": 9.7763722, "elevation": 1103.0, "source": "osm", "_tags": {"ele": "1103", "name": "Monte Volacra", "natural": "peak"}}, {"name": "Monte Codolo", "latitude": 44.3760792, "longitude": 9.843962, "elevation": 681.0, "source": "osm", "_tags": {"ele": "681", "name": "Monte Codolo", "natural": "peak"}}, {"name": "Monte Burello", "latitude": 44.3496319, "longitude": 9.8281756, "elevation": 1102.0, "source": "osm", "_tags": {"ele": "1102", "name": "Monte Burello", "natural": "peak"}}, {"name": "Monte Santa Croce", "latitude": 44.1485201, "longitude": 9.6793003, "elevation": 618.0, "source": "osm", "_tags": {"ele": "618", "name": "Monte Santa Croce", "natural": "peak"}}, {"name": "Monte Zenone", "latitude": 44.3190701, "longitude": 9.5141311, "elevation": 1053.0, "source": "osm", "_tags": {"ele": "1053", "name": "Monte Zenone", "natural": "peak"}}, {"name": "Monte delle Groppe", "latitude": 44.4182434, "longitude": 9.3520219, "elevation": 924.0, "source": "osm", "_tags": {"ele": "924", "name": "Monte delle Groppe", "natural": "peak"}}, {"name": "Monte Azzarino", "latitude": 44.4114689, "longitude": 9.3591887, "elevation": 763.0, "source": "osm", "_tags": {"ele": "763", "name": "Monte Azzarino", "natural": "peak"}}, {"name": "Monte delle Pezze", "latitude": 44.4085243, "longitude": 9.3647248, "elevation": 732.0, "source": "osm", "_tags": {"ele": "732", "name": "Monte delle Pezze", "natural": "peak"}}, {"name": "Monte Cian", "latitude": 44.3868456, "longitude": 9.4439895, "elevation": 1108.0, "source": "osm", "_tags": {"ele": "1108", "name": "Monte Cian", "natural": "peak"}}, {"name": "Monte Castello", "latitude": 44.3616006, "longitude": 9.2699143, "elevation": 666.0, "source": "osm", "_tags": {"ele": "666", "name": "Monte Castello", "natural": "peak", "wikidata": "Q31633854"}}, {"name": "Monte Groppo", "latitude": 44.3602464, "longitude": 9.2809809, "elevation": 648.0, "source": "osm", "_tags": {"ele": "648", "name": "Monte Groppo", "natural": "peak", "wikidata": "Q31633867"}}, {"name": "Monte Lasagna", "latitude": 44.3958888, "longitude": 9.2206215, "elevation": 728.0, "source": "osm", "_tags": {"ele": "728", "name": "Monte Lasagna", "natural": "peak"}}, {"name": "Monte Cornua", "latitude": 44.4073198, "longitude": 9.1338642, "elevation": 687.0, "source": "osm", "_tags": {"ele": "687", "name": "Monte Cornua", "natural": "peak"}}, {"name": "Monte Castelletti", "latitude": 44.3958582, "longitude": 9.0902447, "elevation": 604.0, "source": "osm", "_tags": {"ele": "604", "name": "Monte Castelletti", "natural": "peak"}}, {"name": "Monte Croce", "latitude": 44.4117093, "longitude": 9.0610623, "elevation": 785.0, "source": "osm", "_tags": {"ele": "785", "name": "Monte Croce", "natural": "peak"}}, {"name": "Monte Zatta Centrale", "latitude": 44.3994232, "longitude": 9.4558219, "elevation": 1340.0, "source": "osm", "_tags": {"ele": "1340", "name": "Monte Zatta Centrale", "natural": "peak"}}, {"name": "Monte Ampola", "latitude": 44.3668402, "longitude": 9.1716131, "elevation": 597.0, "source": "osm", "_tags": {"ele": "597", "name": "Monte Ampola", "natural": "peak", "wikidata": "Q31633703"}}, {"name": "Monte Castello", "latitude": 44.3397106, "longitude": 9.3071661, "elevation": 340.0, "source": "osm", "_tags": {"ele": "340", "name": "Monte Castello", "natural": "peak"}}, {"name": "Monte Carmelo", "latitude": 44.353863, "longitude": 9.2835786, "elevation": 567.0, "source": "osm", "_tags": {"ele": "567", "name": "Monte Carmelo", "natural": "peak"}}, {"name": "Monte Perini", "latitude": 44.3768494, "longitude": 9.2573744, "elevation": 689.0, "source": "osm", "_tags": {"ele": "689", "name": "Monte Perini", "natural": "peak"}}, {"name": "Monte Rusparola", "latitude": 44.3016812, "longitude": 9.5047432, "elevation": 875.0, "source": "osm", "_tags": {"ele": "875", "name": "Monte Rusparola", "natural": "peak"}}, {"name": "Monte Bianco", "latitude": 44.3304489, "longitude": 9.4591851, "elevation": 876.0, "source": "osm", "_tags": {"ele": "876", "name": "Monte Bianco", "natural": "peak"}}, {"name": "Monte di Sant'Agata", "latitude": 44.2331062, "longitude": 9.5844922, "elevation": 644.0, "source": "osm", "_tags": {"ele": "644", "name": "Monte di Sant'Agata", "natural": "peak", "source": "CTR Regione Liguria"}}, {"name": "Monte Malone", "latitude": 44.3505285, "longitude": 9.6739385, "elevation": 1304.0, "source": "osm", "_tags": {"ele": "1304", "name": "Monte Malone", "natural": "peak"}}, {"name": "Monte Carmo", "latitude": 44.3144173, "longitude": 9.5591744, "elevation": 611.0, "source": "osm", "_tags": {"ele": "611", "name": "Monte Carmo", "natural": "peak"}}, {"name": "Monte Baralucco", "latitude": 44.3675551, "longitude": 9.5201787, "elevation": 1006.0, "source": "osm", "_tags": {"ele": "1006", "name": "Monte Baralucco", "natural": "peak"}}, {"name": "Monte Coletta", "latitude": 44.350859, "longitude": 9.7077079, "elevation": 1084.0, "source": "osm", "_tags": {"ele": "1084", "name": "Monte Coletta", "natural": "peak"}}, {"name": "Monte Tassea", "latitude": 44.2821552, "longitude": 9.5159419, "elevation": 528.0, "source": "osm", "_tags": {"ele": "528", "name": "Monte Tassea", "natural": "peak"}}, {"name": "Monte Crosa", "latitude": 44.2839544, "longitude": 9.5302097, "elevation": 615.0, "source": "osm", "_tags": {"ele": "615", "name": "Monte Crosa", "natural": "peak"}}, {"name": "Monte Pelato", "latitude": 44.3310551, "longitude": 9.5528052, "elevation": 671.0, "source": "osm", "_tags": {"ele": "671", "name": "Monte Pelato", "natural": "peak"}}, {"name": "Monte dei Preti", "latitude": 44.3684565, "longitude": 9.3983086, "elevation": 712.0, "source": "osm", "_tags": {"ele": "712", "name": "Monte dei Preti", "natural": "peak"}}, {"name": "Monte Pinello", "latitude": 44.3930102, "longitude": 9.4381974, "elevation": 1058.0, "source": "osm", "_tags": {"ele": "1058", "name": "Monte Pinello", "natural": "peak"}}, {"name": "Monte Vailera", "latitude": 44.4124949, "longitude": 9.4421467, "elevation": 1042.0, "source": "osm", "_tags": {"ele": "1042", "name": "Monte Vailera", "natural": "peak", "source": "Regione Emilia Romagna CTR 5000"}}, {"name": "Monte Castellaro di Pignone", "latitude": 44.1727995, "longitude": 9.7264799, "elevation": 325.0, "source": "osm", "_tags": {"ele": "325", "name": "Monte Castellaro di Pignone", "natural": "peak"}}, {"name": "Monte Faccio", "latitude": 44.3249849, "longitude": 9.6788246, "elevation": 880.0, "source": "osm", "_tags": {"ele": "880", "name": "Monte Faccio", "natural": "peak"}}, {"name": "Colle della Madonna", "latitude": 44.2028502, "longitude": 9.6485997, "elevation": 716.0, "source": "osm", "_tags": {"ele": "716", "name": "Colle della Madonna", "natural": "peak", "source": "CTR Regione Liguria"}}, {"name": "Monte Belvedere", "latitude": 44.3311852, "longitude": 9.6457732, "elevation": null, "source": "osm", "_tags": {"fixme": "aggiungere altezza del monte tramite il tag ele esempio ele=1343", "name": "Monte Belvedere", "natural": "peak"}}, {"name": "Monte Cappellazzo", "latitude": 44.2266107, "longitude": 9.6116967, "elevation": 454.0, "source": "osm", "_tags": {"ele": "454", "name": "Monte Cappellazzo", "natural": "peak", "source": "CTR Regione Liguria"}}, {"name": "Monte Campromè", "latitude": 44.21031, "longitude": 9.7120013, "elevation": 241.0, "source": "osm", "_tags": {"ele": "241", "name": "Monte Campromè", "natural": "peak", "source": "CTR Regione Liguria"}}, {"name": "Monte Castagnolo", "latitude": 44.3048609, "longitude": 9.7573756, "elevation": null, "source": "osm", "_tags": {"fixme": "aggiungere altezza del monte tramite il tag ele esempio ele=1343", "name": "Monte Castagnolo", "natural": "peak"}}, {"name": "Monte Castellaro", "latitude": 44.2941871, "longitude": 9.7627417, "elevation": null, "source": "osm", "_tags": {"fixme": "aggiungere altezza del monte tramite il tag ele esempio ele=1343", "name": "Monte Castellaro", "natural": "peak"}}, {"name": "Monte Chiappetti", "latitude": 44.2347651, "longitude": 9.6060525, "elevation": 456.0, "source": "osm", "_tags": {"ele": "456", "name": "Monte Chiappetti", "natural": "peak"}}, {"name": "Monte Chioso", "latitude": 44.2415731, "longitude": 9.6149459, "elevation": 518.0, "source": "osm", "_tags": {"ele": "518", "name": "Monte Chioso", "natural": "peak"}}, {"name": "Monte Dragnone", "latitude": 44.2895007, "longitude": 9.7615535, "elevation": 1000.0, "source": "osm", "_tags": {"ele": "1000", "name": "Monte Dragnone", "natural": "peak"}}, {"name": "Monte Erbigi", "latitude": 44.2615082, "longitude": 9.6466369, "elevation": null, "source": "osm", "_tags": {"fixme": "aggiungere altezza del monte tramite il tag ele esempio ele=1343", "name": "Monte Erbigi", "natural": "peak"}}, {"name": "Monte Ferri", "latitude": 44.3038878, "longitude": 9.7659297, "elevation": 1074.0, "source": "osm", "_tags": {"ele": "1074", "name": "Monte Ferri", "natural": "peak", "source": "CTR Regione Liguria"}}, {"name": "Monte Fiorito", "latitude": 44.3008929, "longitude": 9.771106, "elevation": 1091.0, "source": "osm", "_tags": {"ele": "1091", "name": "Monte Fiorito", "natural": "peak", "source": "CTR Regione Liguria"}}, {"name": "Monte Gaggi", "latitude": 44.2068783, "longitude": 9.5717433, "elevation": 603.0, "source": "osm", "_tags": {"ele": "603", "name": "Monte Gaggi", "natural": "peak", "source": "CTR Regione Liguria"}}, {"name": "Monte Gronde", "latitude": 44.2187054, "longitude": 9.6822234, "elevation": 360.0, "source": "osm", "_tags": {"ele": "360", "name": "Monte Gronde", "natural": "peak", "source": "CTR Regione Liguria"}}, {"name": "Monte Grumo", "latitude": 44.2058576, "longitude": 9.5818987, "elevation": 689.0, "source": "osm", "_tags": {"ele": "689", "name": "Monte Grumo", "natural": "peak", "source": "CTR Regione Liguria"}}, {"name": "Monte Marveia", "latitude": 44.1923666, "longitude": 9.6773299, "elevation": 634.0, "source": "osm", "_tags": {"ele": "634", "name": "Monte Marveia", "natural": "peak", "source": "CTR Regione Liguria"}}, {"name": "Monte Mettino", "latitude": 44.2005201, "longitude": 9.6138104, "elevation": 557.0, "source": "osm", "_tags": {"ele": "557", "name": "Monte Mettino", "natural": "peak", "source": "CTR Regione Liguria"}}, {"name": "Monte Montecchio", "latitude": 44.2943214, "longitude": 9.7483426, "elevation": null, "source": "osm", "_tags": {"fixme": "aggiungere altezza del monte tramite il tag ele esempio ele=1343", "name": "Monte Montecchio", "natural": "peak"}}, {"name": "Monte Pastenelle", "latitude": 44.2280243, "longitude": 9.6523837, "elevation": 504.0, "source": "osm", "_tags": {"ele": "504", "name": "Monte Pastenelle", "natural": "peak", "source": "CTR Regione Liguria"}}, {"name": "Monte Pelizza", "latitude": 44.2237671, "longitude": 9.6223806, "elevation": null, "source": "osm", "_tags": {"fixme": "aggiungere altezza del monte tramite il tag ele esempio ele=1343", "name": "Monte Pelizza", "natural": "peak"}}, {"name": "Monte Persico", "latitude": 44.2057462, "longitude": 9.6269506, "elevation": 543.0, "source": "osm", "_tags": {"ele": "543", "name": "Monte Persico", "natural": "peak", "source": "CTR Regione Liguria"}}, {"name": "Monte Pietrebianche", "latitude": 44.2463484, "longitude": 9.8565454, "elevation": 824.0, "source": "osm", "_tags": {"ele": "824", "name": "Monte Pietrebianche", "natural": "peak"}}, {"name": "Monte Pistone", "latitude": 44.2070418, "longitude": 9.650626, "elevation": 719.0, "source": "osm", "_tags": {"ele": "719", "name": "Monte Pistone", "natural": "peak"}}, {"name": "Monte Porcia", "latitude": 44.3103481, "longitude": 9.7160938, "elevation": null, "source": "osm", "_tags": {"fixme": "aggiungere altezza del monte tramite il tag ele esempio ele=1343", "name": "Monte Porcia", "natural": "peak"}}, {"name": "Monte Redescavo", "latitude": 44.1995015, "longitude": 9.6824235, "elevation": 553.0, "source": "osm", "_tags": {"ele": "553", "name": "Monte Redescavo", "natural": "peak", "source": "CTR Regione Liguria"}}, {"name": "Monte Rotondo", "latitude": 44.3113324, "longitude": 9.6825673, "elevation": null, "source": "osm", "_tags": {"fixme": "aggiungere altezza del monte tramite il tag ele esempio ele=1343", "name": "Monte Rotondo", "natural": "peak"}}, {"name": "Monte Sant'Antonio", "latitude": 44.242186, "longitude": 9.6415672, "elevation": 280.0, "source": "osm", "_tags": {"ele": "280", "name": "Monte Sant'Antonio", "natural": "peak", "source": "CTR Regione Liguria"}}, {"name": "", "latitude": 44.2849859, "longitude": 9.8144028, "elevation": 1168.0, "source": "osm", "_tags": {"ele": "1168", "natural": "peak"}}, {"name": "Monte Seghe", "latitude": 44.3247716, "longitude": 9.7593039, "elevation": 1115.0, "source": "osm", "_tags": {"ele": "1115", "name": "Monte Seghe", "natural": "peak"}}, {"name": "Monte Stronzo", "latitude": 44.3159217, "longitude": 9.7584185, "elevation": 1004.0, "source": "osm", "_tags": {"ele": "1004", "name": "Monte Stronzo", "natural": "peak"}}, {"name": "Monte Teche", "latitude": 44.2469297, "longitude": 9.661114, "elevation": null, "source": "osm", "_tags": {"fixme": "aggiungere altezza del monte tramite il tag ele esempio ele=1343", "name": "Monte Teche", "natural": "peak"}}, {"name": "Monte Veisca", "latitude": 44.1963718, "longitude": 9.720246, "elevation": 339.0, "source": "osm", "_tags": {"ele": "339", "name": "Monte Veisca", "natural": "peak", "source": "CTR Regione Liguria"}}, {"name": "Monte Verruga", "latitude": 44.1913525, "longitude": 9.6690608, "elevation": 692.0, "source": "osm", "_tags": {"ele": "692", "name": "Monte Verruga", "natural": "peak"}}, {"name": "Monte del Boia", "latitude": 44.2173005, "longitude": 9.6708137, "elevation": 484.0, "source": "osm", "_tags": {"ele": "484", "name": "Monte del Boia", "natural": "peak", "source": "CTR Regione Liguria"}}, {"name": "Monte la Rocca", "latitude": 44.278919, "longitude": 9.8343875, "elevation": null, "source": "osm", "_tags": {"fixme": "aggiungere altezza del monte tramite il tag ele esempio ele=1343", "name": "Monte la Rocca", "natural": "peak"}}, {"name": "Monte Acuto", "latitude": 44.3454379, "longitude": 9.4249546, "elevation": 533.0, "source": "osm", "_tags": {"ele": "533", "name": "Monte Acuto", "natural": "peak", "source": "CTR Regione Liguria"}}, {"name": "Monte Barbena", "latitude": 44.1627224, "longitude": 9.7369822, "elevation": 343.0, "source": "osm", "_tags": {"ele": "343", "name": "Monte Barbena", "natural": "peak"}}, {"name": "Monte Bastia", "latitude": 44.2960376, "longitude": 9.538163, "elevation": 761.0, "source": "osm", "_tags": {"ele": "761", "name": "Monte Bastia", "natural": "peak"}}, {"name": "Monte Baudara", "latitude": 44.1477458, "longitude": 9.7273005, "elevation": 752.0, "source": "osm", "_tags": {"ele": "752", "name": "Monte Baudara", "natural": "peak", "source": "CTR Regione Liguria"}}, {"name": "Monte Beverone", "latitude": 44.1333829, "longitude": 9.8702096, "elevation": null, "source": "osm", "_tags": {"fixme": "aggiungere altezza del monte tramite il tag ele esempio ele=1343", "name": "Monte Beverone", "natural": "peak"}}, {"name": "Monte Brana", "latitude": 44.2834594, "longitude": 9.4811652, "elevation": 426.0, "source": "osm", "_tags": {"ele": "426", "name": "Monte Brana", "natural": "peak"}}, {"name": "Monte Caddio", "latitude": 44.2878602, "longitude": 9.4436706, "elevation": 389.0, "source": "osm", "_tags": {"ele": "389", "name": "Monte Caddio", "natural": "peak"}}, {"name": "Monte Carnella", "latitude": 44.3664684, "longitude": 9.3821737, "elevation": 712.0, "source": "osm", "_tags": {"ele": "712", "name": "Monte Carnella", "natural": "peak", "source": "CTR Regione Liguria"}}, {"name": "Monte Cassinea", "latitude": 44.3935757, "longitude": 9.1316717, "elevation": 612.0, "source": "osm", "_tags": {"ele": "612", "name": "Monte Cassinea", "natural": "peak", "source": "CTR Regione Liguria"}}, {"name": "Monte Castello", "latitude": 44.1525242, "longitude": 9.7117549, "elevation": 746.0, "source": "osm", "_tags": {"ele": "746", "name": "Monte Castello", "natural": "peak", "source": "CTR Regione Liguria"}}, {"name": "Monte Castello", "latitude": 44.3931053, "longitude": 9.3664786, "elevation": 574.0, "source": "osm", "_tags": {"ele": "574", "name": "Monte Castello", "natural": "peak", "source": "CTR Regione Liguria"}}, {"name": "Cima Postani", "latitude": 44.1949516, "longitude": 9.7325195, "elevation": 344.0, "source": "osm", "_tags": {"ele": "344", "name": "Cima Postani", "natural": "peak", "source": "CTR Regione Liguria"}}, {"name": "Monte Colello", "latitude": 44.3009052, "longitude": 9.5330145, "elevation": null, "source": "osm", "_tags": {"fixme": "aggiungere altezza del monte tramite il tag ele esempio ele=1343", "name": "Monte Colello", "natural": "peak"}}, {"name": "Monte Cugnietti", "latitude": 44.4280534, "longitude": 9.154549, "elevation": 459.0, "source": "osm", "_tags": {"ele": "459", "name": "Monte Cugnietti", "natural": "peak", "source": "CTR Regione Liguria"}}, {"name": "Monte Cravadora", "latitude": 44.1624989, "longitude": 9.7102954, "elevation": 632.0, "source": "osm", "_tags": {"ele": "632", "name": "Monte Cravadora", "natural": "peak"}}, {"name": "Monte Croce dei Tozzi", "latitude": 44.265379, "longitude": 9.4746152, "elevation": 352.0, "source": "osm", "_tags": {"ele": "352", "name": "Monte Croce dei Tozzi", "natural": "peak", "source": "CTR Regione Liguria"}}, {"name": "Monte Domenico", "latitude": 44.3198014, "longitude": 9.433332, "elevation": 529.0, "source": "osm", "_tags": {"ele": "529", "name": "Monte Domenico", "natural": "peak"}}, {"name": "Monte Frascati", "latitude": 44.2791797, "longitude": 9.503729, "elevation": 369.0, "source": "osm", "_tags": {"ele": "369", "name": "Monte Frascati", "natural": "peak", "source": "CTR Regione Liguria"}}, {"name": "Monte Groppe", "latitude": 44.2652682, "longitude": 9.497304, "elevation": 411.0, "source": "osm", "_tags": {"ele": "411", "name": "Monte Groppe", "natural": "peak", "source": "CTR Regione Liguria"}}, {"name": "Monte Martinasco", "latitude": 44.1730844, "longitude": 9.6876106, "elevation": 674.0, "source": "osm", "_tags": {"ele": "674", "name": "Monte Martinasco", "natural": "peak"}}, {"name": "Monte Memola", "latitude": 44.2013726, "longitude": 9.7447005, "elevation": 261.0, "source": "osm", "_tags": {"ele": "261", "name": "Monte Memola", "natural": "peak", "source": "CTR Regione Liguria"}}, {"name": "Monte Migiarese Sud", "latitude": 44.1771663, "longitude": 9.707245, "elevation": 552.0, "source": "osm", "_tags": {"ele": "552", "name": "Monte Migiarese Sud", "natural": "peak", "source": "CTR Regione Liguria"}}, {"name": "Monte Montorone", "latitude": 44.1467668, "longitude": 9.7743364, "elevation": 285.0, "source": "osm", "_tags": {"ele": "285", "name": "Monte Montorone", "natural": "peak", "source": "CTR Regione Liguria"}}, {"name": "Monte Pazzone", "latitude": 44.4108401, "longitude": 9.4038656, "elevation": 578.0, "source": "osm", "_tags": {"ele": "578", "name": "Monte Pazzone", "natural": "peak", "source": "CTR Regione Liguria"}}, {"name": "Monte Pinasco", "latitude": 44.177489, "longitude": 9.6970257, "elevation": 581.0, "source": "osm", "_tags": {"ele": "581", "name": "Monte Pinasco", "natural": "peak"}}, {"name": "Monte Pissacqua", "latitude": 44.3831716, "longitude": 9.3352442, "elevation": 738.0, "source": "osm", "_tags": {"ele": "738", "name": "Monte Pissacqua", "natural": "peak", "source": "CTR Regione Liguria"}}, {"name": "Monte Pizzolo", "latitude": 44.1728581, "longitude": 9.6748788, "elevation": 702.0, "source": "osm", "_tags": {"ele": "702", "name": "Monte Pizzolo", "natural": "peak", "source": "CTR Regione Liguria"}}, {"name": "Monte Ruighe", "latitude": 44.3948708, "longitude": 9.4266938, "elevation": null, "source": "osm", "_tags": {"fixme": "aggiungere altezza del monte tramite il tag ele esempio ele=1343", "name": "Monte Ruighe", "natural": "peak"}}, {"name": "Monte Serro", "latitude": 44.4203738, "longitude": 9.1548252, "elevation": 581.0, "source": "osm", "_tags": {"ele": "581", "name": "Monte Serro", "natural": "peak", "source": "CTR Regione Liguria"}}, {"name": "Monte Soviore", "latitude": 44.1625216, "longitude": 9.6660292, "elevation": 619.0, "source": "osm", "_tags": {"ele": "619", "name": "Monte Soviore", "natural": "peak"}}, {"name": "Monte Stuggiassi", "latitude": 44.3884156, "longitude": 9.4015413, "elevation": 596.0, "source": "osm", "_tags": {"ele": "596", "name": "Monte Stuggiassi", "natural": "peak", "source": "CTR Regione Liguria"}}, {"name": "Monte Su Campegli", "latitude": 44.2880402, "longitude": 9.4926023, "elevation": 511.0, "source": "osm", "_tags": {"ele": "511", "name": "Monte Su Campegli", "natural": "peak"}}, {"name": "Monte Tugio", "latitude": 44.409812, "longitude": 9.1821719, "elevation": 677.0, "source": "osm", "_tags": {"ele": "677", "name": "Monte Tugio", "natural": "peak", "source": "CTR Regione Liguria"}}, {"name": "Monte Zuccari", "latitude": 44.1438178, "longitude": 9.7727472, "elevation": 268.0, "source": "osm", "_tags": {"ele": "268", "name": "Monte Zuccari", "natural": "peak", "source": "CTR Regione Liguria"}}, {"name": "Monte della Chiesa", "latitude": 44.1562754, "longitude": 9.7781386, "elevation": 230.0, "source": "osm", "_tags": {"ele": "230", "name": "Monte della Chiesa", "natural": "peak", "source": "CTR Regione Liguria"}}, {"name": "Monte della Mora", "latitude": 44.2886566, "longitude": 9.4677411, "elevation": 360.0, "source": "osm", "_tags": {"ele": "360", "name": "Monte della Mora", "natural": "peak"}}, {"name": "Monte delle Artue", "latitude": 44.3574759, "longitude": 9.4039296, "elevation": 505.0, "source": "osm", "_tags": {"ele": "505", "name": "Monte delle Artue", "natural": "peak", "source": "CTR Regione Liguria"}}, {"name": "Monte Cionci", "latitude": 44.4270046, "longitude": 9.1238931, "elevation": 597.0, "source": "osm", "_tags": {"ele": "597", "name": "Monte Cionci", "natural": "peak", "source": "CTR Regione Liguria"}}, {"name": "Monte Costa Lione", "latitude": 44.4274025, "longitude": 9.0760962, "elevation": 819.0, "source": "osm", "_tags": {"ele": "819", "name": "Monte Costa Lione", "natural": "peak", "source": "CTR Regione Liguria"}}, {"name": "Monte dei Prè", "latitude": 44.399575, "longitude": 9.151003, "elevation": 556.0, "source": "osm", "_tags": {"ele": "556", "name": "Monte dei Prè", "natural": "peak", "source": "CTR Regione Liguria"}}, {"name": "Monte Castagnola", "latitude": 44.2172203, "longitude": 9.6019886, "elevation": 698.0, "source": "osm", "_tags": {"ele": "698", "name": "Monte Castagnola", "natural": "peak", "source": "CTR Regione Liguria"}}, {"name": "Monte Crocetta", "latitude": 44.229557, "longitude": 9.5087096, "elevation": 446.0, "source": "osm", "_tags": {"ele": "446", "name": "Monte Crocetta", "natural": "peak", "source": "CTR Regione Liguria"}}, {"name": "Monte Fresco", "latitude": 44.2422568, "longitude": 9.5912238, "elevation": 426.0, "source": "osm", "_tags": {"ele": "426", "name": "Monte Fresco", "natural": "peak", "source": "CTR Regione Liguria"}}, {"name": "Monte Pascile", "latitude": 44.2526744, "longitude": 9.5856823, "elevation": 763.0, "source": "osm", "_tags": {"ele": "763", "name": "Monte Pascile", "natural": "peak", "source": "CTR Regione Liguria"}}, {"name": "Monte Petto d'Asino", "latitude": 44.2502062, "longitude": 9.592782, "elevation": 722.0, "source": "osm", "_tags": {"ele": "722", "name": "Monte Petto d'Asino", "natural": "peak", "source": "CTR Regione Liguria"}}, {"name": "Monte Salto del Cavallo", "latitude": 44.2510791, "longitude": 9.5307592, "elevation": 643.0, "source": "osm", "_tags": {"ele": "643", "name": "Monte Salto del Cavallo", "natural": "peak", "source": "CTR Regione Liguria"}}, {"name": "Monte Taversa", "latitude": 44.2714847, "longitude": 9.5722034, "elevation": 834.0, "source": "osm", "_tags": {"ele": "834", "name": "Monte Taversa", "natural": "peak", "source": "CTR Regione Liguria", "wikidata": "Q31646480"}}, {"name": "Monte dei Rospi", "latitude": 44.2387262, "longitude": 9.5799471, "elevation": 616.0, "source": "osm", "_tags": {"ele": "616", "name": "Monte dei Rospi", "natural": "peak", "source": "CTR Regione Liguria"}}, {"name": "Monte Bomba", "latitude": 44.3042587, "longitude": 9.460766, "elevation": null, "source": "osm", "_tags": {"fixme": "aggiungere altezza del monte tramite il tag ele esempio ele=1343", "name": "Monte Bomba", "natural": "peak"}}, {"name": "Monte Granarolo", "latitude": 44.1336674, "longitude": 9.73569, "elevation": 669.0, "source": "osm", "_tags": {"ele": "669", "name": "Monte Granarolo", "natural": "peak", "source": "CTR Regione Liguria"}}, {"name": "Monte Grosso", "latitude": 44.1838578, "longitude": 9.5737065, "elevation": 145.0, "source": "osm", "_tags": {"ele": "145", "name": "Monte Grosso", "natural": "peak", "source": "CTR Regione Liguria"}}, {"name": "Monte Guaitarola", "latitude": 44.2142447, "longitude": 9.5918002, "elevation": 754.0, "source": "osm", "_tags": {"ele": "754", "name": "Monte Guaitarola", "natural": "peak", "source": "CTR Regione Liguria"}}, {"name": "Monte Incisa", "latitude": 44.3079928, "longitude": 9.4711376, "elevation": null, "source": "osm", "_tags": {"fixme": "aggiungere altezza del monte tramite il tag ele esempio ele=1343", "name": "Monte Incisa", "natural": "peak"}}, {"name": "Monte Le Croci", "latitude": 44.1256309, "longitude": 9.7324326, "elevation": 720.0, "source": "osm", "_tags": {"ele": "720", "image": "https://www.cinqueterretrekking.com/wp-content/uploads/sb-instagram-feed-images/238817665_203087795128837_8950088467281881042_nfull.jpg", "name": "Monte Le Croci", "natural": "peak"}}, {"name": "Monte Pastorelli", "latitude": 44.1858877, "longitude": 9.5730054, "elevation": 175.0, "source": "osm", "_tags": {"ele": "175", "name": "Monte Pastorelli", "natural": "peak", "source": "CTR Regione Liguria"}}, {"name": "Monte San Bernardo", "latitude": 44.1700603, "longitude": 9.7958768, "elevation": 496.0, "source": "osm", "_tags": {"ele": "496", "name": "Monte San Bernardo", "natural": "peak", "source": "CTR Regione Liguria"}}, {"name": "Monte la Guardia", "latitude": 44.1747428, "longitude": 9.5921727, "elevation": 141.0, "source": "osm", "_tags": {"ele": "141", "name": "Monte la Guardia", "natural": "peak", "source": "CTR Regione Liguria"}}, {"name": "Monte Biassa", "latitude": 44.1047465, "longitude": 9.7804627, "elevation": 621.0, "source": "osm", "_tags": {"ele": "621", "name": "Monte Biassa", "natural": "peak", "source": "CTR Regione Liguria"}}, {"name": "Monte Castellana", "latitude": 44.0675452, "longitude": 9.81687, "elevation": 483.0, "source": "osm", "_tags": {"ele": "483", "name": "Monte Castellana", "natural": "peak", "source": "CTR Regione Liguria"}}, {"name": "Monte Bastia", "latitude": 44.2540318, "longitude": 9.8088855, "elevation": 816.0, "source": "osm", "_tags": {"ele": "816", "name": "Monte Bastia", "natural": "peak"}}, {"name": "Monte Montada", "latitude": 44.1035338, "longitude": 9.8702042, "elevation": null, "source": "osm", "_tags": {"fixme": "aggiungere altezza del monte tramite il tag ele esempio ele=1343", "name": "Monte Montada", "natural": "peak"}}, {"name": "Monte Soglio", "latitude": 44.0942979, "longitude": 9.8787133, "elevation": null, "source": "osm", "_tags": {"fixme": "aggiungere altezza del monte tramite il tag ele esempio ele=1343", "name": "Monte Soglio", "natural": "peak"}}, {"name": "Monte dei Fraschi", "latitude": 44.0916253, "longitude": 9.7711703, "elevation": 526.0, "source": "osm", "_tags": {"ele": "526", "name": "Monte dei Fraschi", "natural": "peak", "source": "CTR Regione Liguria"}}, {"name": "Monte della Madonna", "latitude": 44.0892871, "longitude": 9.7752708, "elevation": 523.0, "source": "osm", "_tags": {"ele": "523", "name": "Monte della Madonna", "natural": "peak", "source": "CTR Regione Liguria"}}, {"name": "Monte Dorgiola", "latitude": 44.2777732, "longitude": 9.701397, "elevation": 583.0, "source": "osm", "_tags": {"ele": "583", "name": "Monte Dorgiola", "natural": "peak"}}, {"name": "Monte Riccione", "latitude": 44.2803933, "longitude": 9.6954439, "elevation": 549.0, "source": "osm", "_tags": {"ele": "549", "name": "Monte Riccione", "natural": "peak"}}, {"name": "Monte Spallera", "latitude": 44.4100506, "longitude": 9.455565, "elevation": 1055.0, "source": "osm", "_tags": {"ele": "1055", "name": "Monte Spallera", "natural": "peak", "source": "CTR Regione Liguria"}}, {"name": "Monte Calvario", "latitude": 44.2087105, "longitude": 9.7742878, "elevation": 410.0, "source": "osm", "_tags": {"ele": "410", "name": "Monte Calvario", "natural": "peak", "source": "CTR Regione Liguria"}}, {"name": "Monte delle Streghe", "latitude": 44.1808239, "longitude": 9.6097598, "elevation": 287.0, "source": "osm", "_tags": {"ele": "287", "name": "Monte delle Streghe", "natural": "peak", "source": "CTR Regione Liguria"}}, {"name": "Monte Brano", "latitude": 44.3193389, "longitude": 9.2039903, "elevation": 312.0, "source": "osm", "_tags": {"ele": "312", "name": "Monte Brano", "natural": "peak", "source": "CTR Regione Liguria"}}, {"name": "Monte Croci di Nozarego", "latitude": 44.3216132, "longitude": 9.1967962, "elevation": 391.0, "source": "osm", "_tags": {"ele": "391", "name": "Monte Croci di Nozarego", "natural": "peak", "source": "CTR Regione Liguria"}}, {"name": "Monte Esoli", "latitude": 44.3528367, "longitude": 9.1657508, "elevation": 441.0, "source": "osm", "_tags": {"ele": "441", "name": "Monte Esoli", "natural": "peak", "source": "CTR Regione Liguria", "wikidata": "Q31633728"}}, {"name": "Monte Tocco", "latitude": 44.3229102, "longitude": 9.1589071, "elevation": 471.0, "source": "osm", "_tags": {"ele": "471", "name": "Monte Tocco", "natural": "peak", "source": "CTR Regione Liguria", "wikidata": "Q31633767"}}, {"name": "Monte Zuccarello", "latitude": 44.3561372, "longitude": 9.2643674, "elevation": 619.0, "source": "osm", "_tags": {"ele": "619", "name": "Monte Zuccarello", "natural": "peak", "source": "CTR Regione Liguria"}}, {"name": "Monte delle Bocche", "latitude": 44.3223672, "longitude": 9.1822137, "elevation": 506.0, "source": "osm", "_tags": {"ele": "506", "name": "Monte delle Bocche", "natural": "peak", "source": "CTR Regione Liguria"}}, {"name": "Monte delle Pozze", "latitude": 44.3727461, "longitude": 9.2250078, "elevation": 528.0, "source": "osm", "_tags": {"ele": "528", "name": "Monte delle Pozze", "natural": "peak", "source": "CTR Regione Liguria", "wikidata": "Q31633816"}}, {"name": "Monte Costellone", "latitude": 44.3786501, "longitude": 9.5718603, "elevation": null, "source": "osm", "_tags": {"fixme": "aggiungere altezza del monte tramite il tag ele esempio ele=1343", "name": "Monte Costellone", "natural": "peak"}}, {"name": "Monte Fenocchia", "latitude": 44.3310581, "longitude": 9.7067911, "elevation": null, "source": "osm", "_tags": {"fixme": "aggiungere altezza del monte tramite il tag ele esempio ele=1343", "name": "Monte Fenocchia", "natural": "peak"}}, {"name": "Monte Mazeto", "latitude": 44.3370534, "longitude": 9.7198612, "elevation": 1133.0, "source": "osm", "_tags": {"ele": "1133", "name": "Monte Mazeto", "natural": "peak"}}, {"name": "Monte Due Gemelli o Bermego", "latitude": 44.1265374, "longitude": 9.7645832, "elevation": 662.0, "source": "osm", "_tags": {"ele": "662", "name": "Monte Due Gemelli o Bermego", "natural": "peak", "source": "CTR Regione Liguria"}}, {"name": "Monte Carmo", "latitude": 44.2819277, "longitude": 9.688576, "elevation": 477.0, "source": "osm", "_tags": {"ele": "477", "name": "Monte Carmo", "natural": "peak"}}, {"name": "Monte Scogliera", "latitude": 44.3543851, "longitude": 9.5291541, "elevation": null, "source": "osm", "_tags": {"fixme": "aggiungere altezza del monte tramite il tag ele esempio ele=1343", "name": "Monte Scogliera", "natural": "peak"}}, {"name": "Roccia di Lagorara", "latitude": 44.3474068, "longitude": 9.5278468, "elevation": null, "source": "osm", "_tags": {"fixme": "aggiungere altezza del monte tramite il tag ele esempio ele=1343", "name": "Roccia di Lagorara", "natural": "peak", "summit:cross": "yes"}}, {"name": "Monte Castello", "latitude": 44.2582162, "longitude": 9.4076152, "elevation": 266.0, "source": "osm", "_tags": {"ele": "266", "name": "Monte Castello", "natural": "peak", "source": "CTR Regione Liguria"}}, {"name": "Monte Corticchia", "latitude": 44.1878822, "longitude": 9.8156982, "elevation": 372.0, "source": "osm", "_tags": {"ele": "372", "name": "Monte Corticchia", "natural": "peak", "source": "CTR Regione Liguria"}}, {"name": "Bric Zolezzi", "latitude": 44.4312173, "longitude": 9.4258647, "elevation": 890.0, "source": "osm", "_tags": {"ele": "890", "name": "Bric Zolezzi", "natural": "peak", "source": "CTR Regione Liguria"}}, {"name": "Monte Maio", "latitude": 44.4020087, "longitude": 9.5183187, "elevation": null, "source": "osm", "_tags": {"fixme": "aggiungere altezza del monte tramite il tag ele esempio ele=1343", "name": "Monte Maio", "natural": "peak"}}, {"name": "Monte Comune", "latitude": 44.4280656, "longitude": 9.0038344, "elevation": 396.0, "source": "osm", "_tags": {"ele": "396", "name": "Monte Comune", "natural": "peak"}}, {"name": "Bric Preli", "latitude": 44.3972778, "longitude": 9.1029783, "elevation": 591.0, "source": "osm", "_tags": {"ele": "591", "name": "Bric Preli", "natural": "peak"}}, {"name": "Monte Comarella", "latitude": 44.367211, "longitude": 9.4477885, "elevation": 799.0, "source": "osm", "_tags": {"ele": "799", "name": "Monte Comarella", "natural": "peak"}}, {"name": "Monte Su Pontori", "latitude": 44.3685796, "longitude": 9.4452183, "elevation": 798.0, "source": "osm", "_tags": {"ele": "798", "name": "Monte Su Pontori", "natural": "peak"}}, {"name": "Monte Pian del Lupo", "latitude": 44.2494153, "longitude": 9.529692, "elevation": 641.0, "source": "osm", "_tags": {"ele": "641", "name": "Monte Pian del Lupo", "natural": "peak", "source": "CTR Regione Liguria"}}, {"name": "Monte Pollone", "latitude": 44.319847, "longitude": 9.1897368, "elevation": 469.0, "source": "osm", "_tags": {"ele": "469", "name": "Monte Pollone", "natural": "peak", "source": "CTR Regione Liguria"}}, {"name": "Pietra Bruciata", "latitude": 44.4058587, "longitude": 9.398121, "elevation": 501.0, "source": "osm", "_tags": {"ele": "501", "name": "Pietra Bruciata", "natural": "peak", "source": "CTR Regione Liguria"}}, {"name": "", "latitude": 44.1722435, "longitude": 9.6815148, "elevation": 666.0, "source": "osm", "_tags": {"ele": "666", "natural": "peak", "source": "CTR Regione Liguria"}}, {"name": "Monte Galera", "latitude": 44.1181839, "longitude": 9.7490492, "elevation": 726.0, "source": "osm", "_tags": {"ele": "726", "name": "Monte Galera", "natural": "peak", "source": "CTR Regione Liguria"}}, {"name": "Monte Ginepro", "latitude": 44.2091657, "longitude": 9.7083711, "elevation": 283.0, "source": "osm", "_tags": {"ele": "283", "name": "Monte Ginepro", "natural": "peak", "source": "CTR Regione Liguria"}}, {"name": "Poggio Fontanin", "latitude": 44.2924253, "longitude": 9.4676164, "elevation": 358.0, "source": "osm", "_tags": {"ele": "358", "name": "Poggio Fontanin", "name:it": "Poggio Funtanin", "natural": "peak"}}, {"name": "Monte Campana", "latitude": 44.3197187, "longitude": 9.1551488, "elevation": 340.0, "source": "osm", "_tags": {"ele": "340", "name": "Monte Campana", "natural": "peak"}}, {"name": "Poggio Termine", "latitude": 44.2975289, "longitude": 9.783352, "elevation": 1029.0, "source": "osm", "_tags": {"ele": "1029", "name": "Poggio Termine", "natural": "peak", "source": "CTR Regione Liguria"}}, {"name": "Monte Bocco", "latitude": 44.3256912, "longitude": 9.4968053, "elevation": 1018.0, "source": "osm", "_tags": {"ele": "1018", "name": "Monte Bocco", "natural": "peak"}}, {"name": "Colle di Arena", "latitude": 44.330379, "longitude": 9.5011831, "elevation": null, "source": "osm", "_tags": {"name": "Colle di Arena", "natural": "peak"}}, {"name": "", "latitude": 44.3365362, "longitude": 9.4991958, "elevation": null, "source": "osm", "_tags": {"natural": "peak"}}, {"name": "Monte Cissò", "latitude": 44.3460078, "longitude": 9.732957, "elevation": 998.0, "source": "osm", "_tags": {"ele": "998", "name": "Monte Cissò", "natural": "peak"}}, {"name": "Monte Ciocco", "latitude": 44.328439, "longitude": 9.7311865, "elevation": 1065.0, "source": "osm", "_tags": {"ele": "1065", "name": "Monte Ciocco", "natural": "peak"}}, {"name": "Monte Pelosone", "latitude": 44.3253334, "longitude": 9.7487686, "elevation": 1084.0, "source": "osm", "_tags": {"ele": "1084", "name": "Monte Pelosone", "natural": "peak"}}, {"name": "Punta Carmine", "latitude": 44.3285832, "longitude": 9.7448471, "elevation": 1062.0, "source": "osm", "_tags": {"ele": "1062", "name": "Punta Carmine", "natural": "peak"}}, {"name": "Punta Ciliegiola", "latitude": 44.3320153, "longitude": 9.7323383, "elevation": 1041.0, "source": "osm", "_tags": {"ele": "1041", "name": "Punta Ciliegiola", "natural": "peak"}}, {"name": "Monte Migiarese Nord", "latitude": 44.1808476, "longitude": 9.7021226, "elevation": 591.0, "source": "osm", "_tags": {"ele": "591", "name": "Monte Migiarese Nord", "natural": "peak"}}, {"name": "il Poggiolo", "latitude": 44.4013958, "longitude": 9.7026175, "elevation": 1246.0, "source": "osm", "_tags": {"ele": "1246", "name": "il Poggiolo", "natural": "peak", "source": "ctr 5000 emilia romagna"}}, {"name": "il Poggio", "latitude": 44.4030776, "longitude": 9.6972565, "elevation": 1141.0, "source": "osm", "_tags": {"ele": "1141", "name": "il Poggio", "natural": "peak"}}, {"name": "Monte Borgo", "latitude": 44.3964867, "longitude": 9.1900861, "elevation": 732.0, "source": "osm", "_tags": {"ele": "732", "name": "Monte Borgo", "natural": "peak"}}, {"name": "Monte Borriga", "latitude": 44.4072052, "longitude": 9.0179679, "elevation": 546.0, "source": "osm", "_tags": {"ele": "546", "name": "Monte Borriga", "natural": "peak"}}, {"name": "Colle Greta", "latitude": 44.352136, "longitude": 9.7559473, "elevation": 880.0, "source": "osm", "_tags": {"ele": "880", "name": "Colle Greta", "natural": "peak"}}, {"name": "Monte Piano", "latitude": 44.1993707, "longitude": 9.6381531, "elevation": 596.0, "source": "osm", "_tags": {"ele": "596", "name": "Monte Piano", "natural": "peak"}}, {"name": "Monte Crocettola", "latitude": 44.1694493, "longitude": 9.6604544, "elevation": 609.0, "source": "osm", "_tags": {"ele": "609", "name": "Monte Crocettola", "natural": "peak"}}, {"name": "Rocca Gaibana", "latitude": 44.1928268, "longitude": 9.6016841, "elevation": 492.0, "source": "osm", "_tags": {"ele": "492", "name": "Rocca Gaibana", "natural": "peak", "source": "CTR Regione Liguria"}}, {"name": "Colletto", "latitude": 44.1994171, "longitude": 9.5988584, "elevation": 482.0, "source": "osm", "_tags": {"ele": "482", "name": "Colletto", "natural": "peak", "source": "CTR Regione Liguria"}}, {"name": "Monte Manico del Lume", "latitude": 44.394154, "longitude": 9.2073986, "elevation": 801.0, "source": "osm", "_tags": {"ele": "801", "name": "Monte Manico del Lume", "natural": "peak", "wikidata": "Q30888597"}}, {"name": "Monte Arpecella", "latitude": 44.2776948, "longitude": 9.562106, "elevation": 641.0, "source": "osm", "_tags": {"ele": "641", "name": "Monte Arpecella", "natural": "peak", "source": "CTR Regione Liguria"}}, {"name": "Monte Breccalupo", "latitude": 44.4136451, "longitude": 9.4238716, "elevation": 937.0, "source": "osm", "_tags": {"ele": "937", "name": "Monte Breccalupo", "natural": "peak"}}, {"name": "La Rocca", "latitude": 44.2826752, "longitude": 9.8440888, "elevation": 798.0, "source": "osm", "_tags": {"ele": "798", "name": "La Rocca", "natural": "peak"}}, {"name": "Monte Castellino", "latitude": 44.29095, "longitude": 9.8202451, "elevation": 926.0, "source": "osm", "_tags": {"ele": "926", "name": "Monte Castellino", "natural": "peak"}}, {"name": "Monte Scalocchia", "latitude": 44.2843291, "longitude": 9.8100371, "elevation": 1164.0, "source": "osm", "_tags": {"ele": "1164", "name": "Monte Scalocchia", "natural": "peak"}}, {"name": "Monte Civolaro", "latitude": 44.2913134, "longitude": 9.7972153, "elevation": 1207.0, "source": "osm", "_tags": {"ele": "1207", "name": "Monte Civolaro", "natural": "peak"}}, {"name": "Monte Tondo", "latitude": 44.2932564, "longitude": 9.7993443, "elevation": 1142.0, "source": "osm", "_tags": {"ele": "1142", "name": "Monte Tondo", "natural": "peak"}}, {"name": "Roccia Cantarella", "latitude": 44.2937571, "longitude": 9.7930764, "elevation": 1176.0, "source": "osm", "_tags": {"ele": "1176", "name": "Roccia Cantarella", "natural": "peak"}}, {"name": "Poggio Termine", "latitude": 44.2979526, "longitude": 9.7882466, "elevation": 1062.0, "source": "osm", "_tags": {"ele": "1062", "name": "Poggio Termine", "natural": "peak"}}, {"name": "Monte Vruga", "latitude": 44.305905, "longitude": 9.7836962, "elevation": 1143.0, "source": "osm", "_tags": {"ele": "1143", "name": "Monte Vruga", "natural": "peak"}}, {"name": "Monte Cerreta", "latitude": 44.3132288, "longitude": 9.7714945, "elevation": 1008.0, "source": "osm", "_tags": {"ele": "1008", "name": "Monte Cerreta", "natural": "peak"}}, {"name": "Monte Stronzo", "latitude": 44.3178831, "longitude": 9.7606762, "elevation": 1041.0, "source": "osm", "_tags": {"ele": "1041", "name": "Monte Stronzo", "natural": "peak"}}, {"name": "Monte Picchiara", "latitude": 44.3215592, "longitude": 9.7642888, "elevation": 1159.0, "source": "osm", "_tags": {"ele": "1159", "name": "Monte Picchiara", "natural": "peak"}}, {"name": "Monte Carbonara", "latitude": 44.3233977, "longitude": 9.7621928, "elevation": 1153.0, "source": "osm", "_tags": {"ele": "1153", "name": "Monte Carbonara", "natural": "peak"}}, {"name": "Monte Penato", "latitude": 44.3813435, "longitude": 9.7151052, "elevation": 1571.0, "source": "osm", "_tags": {"ele": "1571", "name": "Monte Penato", "natural": "peak", "source": "ctr 5000 emilia romagna"}}, {"name": "Monte Radice", "latitude": 44.3778778, "longitude": 9.7333949, "elevation": 1532.0, "source": "osm", "_tags": {"ele": "1532", "name": "Monte Radice", "natural": "peak"}}, {"name": "Monte Cadiglia", "latitude": 44.4083006, "longitude": 9.765208, "elevation": 1421.0, "source": "osm", "_tags": {"ele": "1421", "name": "Monte Cadiglia", "natural": "peak", "source": "ctr 5000 emilia romagna"}}, {"name": "M. Bandia", "latitude": 44.1756834, "longitude": 9.6961216, "elevation": 589.0, "source": "osm", "_tags": {"ele": "589", "name": "M. Bandia", "natural": "peak"}}, {"name": "Monte Rosso", "latitude": 44.419247, "longitude": 9.1619754, "elevation": 606.0, "source": "osm", "_tags": {"ele": "606", "name": "Monte Rosso", "natural": "peak", "source": "CTR Regione Liguria"}}, {"name": "Punta Crovino", "latitude": 44.4238996, "longitude": 9.0285871, "elevation": 549.0, "source": "osm", "_tags": {"ele": "549", "name": "Punta Crovino", "natural": "peak"}}, {"name": "Bric Fundega", "latitude": 44.4147802, "longitude": 9.024225, "elevation": 524.0, "source": "osm", "_tags": {"ele": "524", "name": "Bric Fundega", "natural": "peak"}}, {"name": "Cle Dei Gaggi", "latitude": 44.3235217, "longitude": 9.4378406, "elevation": 497.0, "source": "osm", "_tags": {"ele": "497", "name": "Cle Dei Gaggi", "natural": "peak"}}, {"name": "Monte San Pietro", "latitude": 44.3884339, "longitude": 9.1549534, "elevation": 388.0, "source": "osm", "_tags": {"ele": "388", "name": "Monte San Pietro", "natural": "peak", "source": "CTR Regione Liguria"}}, {"name": "Monte Merelle", "latitude": 44.2549879, "longitude": 9.5475349, "elevation": 638.0, "source": "osm", "_tags": {"ele": "638", "name": "Monte Merelle", "natural": "peak"}}, {"name": "Apicchi", "latitude": 44.213733, "longitude": 9.5399845, "elevation": null, "source": "osm", "_tags": {"name": "Apicchi", "natural": "peak"}}, {"name": "Gruzza di Veppo", "latitude": 44.2708791, "longitude": 9.807744, "elevation": 986.0, "source": "osm", "_tags": {"ele": "986", "name": "Gruzza di Veppo", "natural": "peak"}}, {"name": "Campaccia", "latitude": 44.2676217, "longitude": 9.8131943, "elevation": 1015.0, "source": "osm", "_tags": {"ele": "1015", "name": "Campaccia", "natural": "peak"}}, {"name": "Monte Maggio", "latitude": 44.2865154, "longitude": 9.8149052, "elevation": 1152.0, "source": "osm", "_tags": {"ele": "1152", "name": "Monte Maggio", "natural": "peak"}}, {"name": "M. Segnale", "latitude": 44.163574, "longitude": 9.7490036, "elevation": 288.0, "source": "osm", "_tags": {"ele": "288", "name": "M. Segnale", "natural": "peak"}}, {"name": "P.zo Cuchelone", "latitude": 44.1681609, "longitude": 9.7559237, "elevation": 258.0, "source": "osm", "_tags": {"ele": "258", "name": "P.zo Cuchelone", "natural": "peak"}}, {"name": "", "latitude": 44.1493109, "longitude": 9.7427595, "elevation": 504.0, "source": "osm", "_tags": {"ele": "504", "natural": "peak"}}, {"name": "Punta Suia", "latitude": 44.4234922, "longitude": 9.0429778, "elevation": 843.0, "source": "osm", "_tags": {"ele": "843", "name": "Punta Suia", "natural": "peak"}}, {"name": "", "latitude": 44.1507187, "longitude": 9.8037703, "elevation": null, "source": "osm", "_tags": {"natural": "peak"}}, {"name": "Poggio Montone", "latitude": 44.3729985, "longitude": 9.1237722, "elevation": 436.0, "source": "osm", "_tags": {"ele": "436", "name": "Poggio Montone", "natural": "peak"}}, {"name": "Monte Orsale", "latitude": 44.3881307, "longitude": 9.7121589, "elevation": 1504.0, "source": "osm", "_tags": {"ele": "1504", "name": "Monte Orsale", "natural": "peak", "source": "ctr 5000 emilia romagna"}}, {"name": "Tornaressa", "latitude": 44.4192525, "longitude": 9.7756781, "elevation": 1202.0, "source": "osm", "_tags": {"ele": "1202", "name": "Tornaressa", "natural": "peak", "source": "ctr 5000 emilia romagna"}}, {"name": "Colle Rivarolo", "latitude": 44.4138254, "longitude": 9.4585719, "elevation": 995.0, "source": "osm", "_tags": {"ele": "995", "name": "Colle Rivarolo", "natural": "peak", "source": "Regione Emilia Romagna CTR 5000"}}, {"name": "Macchia del Muletta", "latitude": 44.4219204, "longitude": 9.4564827, "elevation": 894.0, "source": "osm", "_tags": {"ele": "894", "name": "Macchia del Muletta", "natural": "peak", "source": "Regione Emilia Romagna CTR 5000"}}, {"name": "Costa dei Ratti", "latitude": 44.4271611, "longitude": 9.4611195, "elevation": 926.0, "source": "osm", "_tags": {"ele": "926", "name": "Costa dei Ratti", "natural": "peak", "source": "Regione Emilia Romagna CTR 5000"}}, {"name": "Costa dei Morti", "latitude": 44.4279622, "longitude": 9.4705028, "elevation": 963.0, "source": "osm", "_tags": {"ele": "963", "name": "Costa dei Morti", "natural": "peak", "source": "Regione Emilia Romagna CTR 5000"}}, {"name": "Poggio Chiapparino", "latitude": 44.4312112, "longitude": 9.5645282, "elevation": null, "source": "osm", "_tags": {"name": "Poggio Chiapparino", "natural": "peak", "source": "Regione Emilia Romagna CTR 5000"}}, {"name": "Monte La Rocca", "latitude": 44.4134358, "longitude": 9.6367075, "elevation": 1150.0, "source": "osm", "_tags": {"ele": "1150", "name": "Monte La Rocca", "natural": "peak", "source": "Regione Emilia Romagna CTR 5000"}}, {"name": "Il Pennale", "latitude": 44.3797371, "longitude": 9.7097263, "elevation": 1508.0, "source": "osm", "_tags": {"ele": "1508", "name": "Il Pennale", "natural": "peak", "source": "Regione Emilia Romagna CTR 5000"}}, {"name": "Costa Ali", "latitude": 44.2742206, "longitude": 9.8275057, "elevation": 1163.0, "source": "osm", "_tags": {"ele": "1163", "name": "Costa Ali", "natural": "peak"}}, {"name": "Cima del Perdono", "latitude": 44.1644087, "longitude": 9.7693937, "elevation": 356.0, "source": "osm", "_tags": {"ele": "356", "name": "Cima del Perdono", "natural": "peak"}}, {"name": "Monte Sarara", "latitude": 44.1380361, "longitude": 9.7542372, "elevation": 534.0, "source": "osm", "_tags": {"ele": "534", "name": "Monte Sarara", "natural": "peak"}}, {"name": "Monte Fornello", "latitude": 44.1739104, "longitude": 9.6775668, "elevation": 671.0, "source": "osm", "_tags": {"ele": "671", "name": "Monte Fornello", "natural": "peak"}}, {"name": "Rocche Bianche", "latitude": 44.1928828, "longitude": 9.6663056, "elevation": 694.0, "source": "osm", "_tags": {"ele": "694", "name": "Rocche Bianche", "natural": "peak"}}, {"name": "Monte Ridari", "latitude": 44.1977999, "longitude": 9.6577338, "elevation": 543.0, "source": "osm", "_tags": {"ele": "543", "name": "Monte Ridari", "natural": "peak"}}, {"name": "Cima de Giumin", "latitude": 44.263661, "longitude": 9.809488, "elevation": 967.0, "source": "osm", "_tags": {"ele": "967", "name": "Cima de Giumin", "natural": "peak"}}, {"name": "Monte Gruzze", "latitude": 44.2506475, "longitude": 9.6111985, "elevation": 577.0, "source": "osm", "_tags": {"ele": "577", "name": "Monte Gruzze", "natural": "peak"}}, {"name": "M. Pelà", "latitude": 44.1528674, "longitude": 9.7951269, "elevation": 299.0, "source": "osm", "_tags": {"ele": "299", "name": "M. Pelà", "natural": "peak"}}, {"name": "Monte Rossini", "latitude": 44.158463, "longitude": 9.6353755, "elevation": 466.0, "source": "osm", "_tags": {"ele": "466", "name": "Monte Rossini", "natural": "peak"}}, {"name": "Monte Molinelli", "latitude": 44.1611325, "longitude": 9.643612, "elevation": 398.0, "source": "osm", "_tags": {"ele": "398", "name": "Monte Molinelli", "natural": "peak"}}, {"name": "Monte Zignago", "latitude": 44.2742314, "longitude": 9.7377459, "elevation": 723.0, "source": "osm", "_tags": {"ele": "723", "name": "Monte Zignago", "natural": "peak"}}, {"name": "Bric Gora", "latitude": 44.2173683, "longitude": 9.7728832, "elevation": 438.0, "source": "osm", "_tags": {"ele": "438", "name": "Bric Gora", "natural": "peak"}}, {"name": "Monte Barsi", "latitude": 44.1927178, "longitude": 9.6799898, "elevation": 624.0, "source": "osm", "_tags": {"ele": "624", "name": "Monte Barsi", "natural": "peak"}}, {"name": "Monte Tagliacarne", "latitude": 44.1903462, "longitude": 9.6612357, "elevation": 671.0, "source": "osm", "_tags": {"ele": "671", "name": "Monte Tagliacarne", "natural": "peak"}}, {"name": "Punta Cornaro", "latitude": 44.2020924, "longitude": 9.6854832, "elevation": 548.0, "source": "osm", "_tags": {"ele": "548", "name": "Punta Cornaro", "natural": "peak"}}, {"name": "Punta di Serrato", "latitude": 44.3770291, "longitude": 9.228965, "elevation": 600.0, "source": "osm", "_tags": {"ele": "600", "name": "Punta di Serrato", "natural": "peak"}}, {"name": "Poggio Leandro", "latitude": 44.1127041, "longitude": 9.7414345, "elevation": 405.0, "source": "osm", "_tags": {"ele": "405", "name": "Poggio Leandro", "natural": "peak"}}, {"name": "Monte Manego", "latitude": 44.4215919, "longitude": 8.9917311, "elevation": 415.0, "source": "osm", "_tags": {"ele": "415", "name": "Monte Manego", "natural": "peak"}}, {"name": "il Monte", "latitude": 44.2568024, "longitude": 9.7328726, "elevation": 607.0, "source": "osm", "_tags": {"ele": "607", "name": "il Monte", "natural": "peak"}}, {"name": "Punta della Reigada", "latitude": 44.2484999, "longitude": 9.7350313, "elevation": 405.0, "source": "osm", "_tags": {"ele": "405", "name": "Punta della Reigada", "natural": "peak"}}, {"name": "Punta Pendoreto", "latitude": 44.2677747, "longitude": 9.7183614, "elevation": 548.0, "source": "osm", "_tags": {"ele": "548", "name": "Punta Pendoreto", "natural": "peak"}}, {"name": "Monte Sovrani", "latitude": 44.2501841, "longitude": 9.7524321, "elevation": 339.0, "source": "osm", "_tags": {"ele": "339", "name": "Monte Sovrani", "natural": "peak"}}, {"name": "Punta Manzoni", "latitude": 44.2932484, "longitude": 9.6545916, "elevation": 457.0, "source": "osm", "_tags": {"ele": "457", "name": "Punta Manzoni", "natural": "peak"}}, {"name": "Monte Gioasine", "latitude": 44.2893294, "longitude": 9.6575481, "elevation": 397.0, "source": "osm", "_tags": {"ele": "397", "name": "Monte Gioasine", "natural": "peak"}}, {"name": "Monte Consegine", "latitude": 44.2864404, "longitude": 9.6538877, "elevation": 434.0, "source": "osm", "_tags": {"ele": "434", "name": "Monte Consegine", "natural": "peak"}}, {"name": "Monte Grettola", "latitude": 44.282521, "longitude": 9.6574855, "elevation": 411.0, "source": "osm", "_tags": {"ele": "411", "name": "Monte Grettola", "natural": "peak"}}, {"name": "Monte Valdimaro", "latitude": 44.2926026, "longitude": 9.626651, "elevation": 454.0, "source": "osm", "_tags": {"ele": "454", "name": "Monte Valdimaro", "natural": "peak"}}, {"name": "Monte Albareto", "latitude": 44.3128216, "longitude": 9.7988493, "elevation": 861.0, "source": "osm", "_tags": {"ele": "861", "name": "Monte Albareto", "natural": "peak"}}, {"name": "i Poggi", "latitude": 44.3038794, "longitude": 9.7812455, "elevation": 1108.0, "source": "osm", "_tags": {"ele": "1108", "name": "i Poggi", "natural": "peak"}}, {"name": "Cima dei Runchi", "latitude": 44.4221907, "longitude": 9.0857375, "elevation": 901.0, "source": "osm", "_tags": {"ele": "901", "name": "Cima dei Runchi", "natural": "peak"}}, {"name": "Monte Pernaceto", "latitude": 44.4229699, "longitude": 9.0910045, "elevation": 883.0, "source": "osm", "_tags": {"ele": "883", "name": "Monte Pernaceto", "natural": "peak"}}, {"name": "Monte Brino", "latitude": 44.1919612, "longitude": 9.5776795, "elevation": 328.0, "source": "osm", "_tags": {"ele": "328", "name": "Monte Brino", "natural": "peak"}}, {"name": "Monte Arzè", "latitude": 44.2019076, "longitude": 9.6014953, "elevation": null, "source": "osm", "_tags": {"name": "Monte Arzè", "natural": "peak"}}, {"name": "Anticima Monte Manico di Lume", "latitude": 44.3956831, "longitude": 9.2056488, "elevation": null, "source": "osm", "_tags": {"name": "Anticima Monte Manico di Lume", "natural": "peak", "source": "GPS"}}, {"name": "", "latitude": 44.3988814, "longitude": 9.1325513, "elevation": null, "source": "osm", "_tags": {"natural": "peak"}}, {"name": "", "latitude": 44.106106, "longitude": 9.7343227, "elevation": 250.0, "source": "osm", "_tags": {"ele": "250", "natural": "peak"}}, {"name": "Monte Bacezza", "latitude": 44.3261862, "longitude": 9.3120933, "elevation": 255.0, "source": "osm", "_tags": {"ele": "255", "name": "Monte Bacezza", "natural": "peak"}}, {"name": "Monte Cucco", "latitude": 44.3279092, "longitude": 9.3041955, "elevation": 330.0, "source": "osm", "_tags": {"alt_name": "Monte Telegrafo", "ele": "330", "name": "Monte Cucco", "natural": "peak"}}]