[{"name": "Televrina", "latitude": 44.6715626, "longitude": 14.361768, "elevation": 588.0, "source": "osm", "_tags": {"ele": "588", "name": "Televrina", "natural": "peak", "prominence": "588", "wikidata": "Q6593621"}}, {"name": "Gorice", "latitude": 45.0780751, "longitude": 14.3460368, "elevation": 648.0, "source": "osm", "_tags": {"ele": "648", "name": "Gorice", "natural": "peak", "prominence": "648", "wikidata": "Q48877097"}}, {"name": "Veli Vrh", "latitude": 45.0070395, "longitude": 14.6759329, "elevation": 542.0, "source": "osm", "_tags": {"ele": "542", "name": "Veli Vrh", "natural": "peak", "summit:cross": "no", "summit:register": "yes", "wikidata": "Q25288713"}}, {"name": "Veliki Hlam", "latitude": 44.9739379, "longitude": 14.7095291, "elevation": 482.0, "source": "osm", "_tags": {"ele": "482", "name": "Veliki Hlam", "natural": "peak"}}, {"name": "Vrska Glava", "latitude": 44.9649244, "longitude": 14.7257459, "elevation": 393.0, "source": "osm", "_tags": {"alt_name": "Vorganj", "ele": "393", "name": "Vrska Glava", "natural": "peak"}}, {"name": "Mali Hlam", "latitude": 44.9694935, "longitude": 14.6986966, "elevation": 448.0, "source": "osm", "_tags": {"ele": "448", "name": "Mali Hlam", "natural": "peak"}}, {"name": "Sis", "latitude": 45.0676227, "longitude": 14.3544226, "elevation": 639.0, "source": "osm", "_tags": {"ele": "639", "name": "Sis", "natural": "peak", "wikidata": "Q26224682"}}, {"name": "Helm", "latitude": 44.8662067, "longitude": 14.3445159, "elevation": 482.0, "source": "osm", "_tags": {"ele": "482", "name": "Helm", "natural": "peak"}}, {"name": "Vela Straža", "latitude": 44.5408991, "longitude": 14.4501738, "elevation": 62.0, "source": "osm", "_tags": {"ele": "62", "name": "Vela Straža", "name:it": "Monte Baston", "natural": "peak", "tourism": "viewpoint"}}, {"name": "Hlam", "latitude": 44.9875315, "longitude": 14.7504951, "elevation": 461.0, "source": "osm", "_tags": {"ele": "461", "name": "Hlam", "natural": "peak", "summit:cross": "yes"}}, {"name": "Mali Hlam", "latitude": 45.0477087, "longitude": 14.6786806, "elevation": 446.0, "source": "osm", "_tags": {"ele": "446", "name": "Mali Hlam", "natural": "peak"}}, {"name": "Kičelj", "latitude": 45.4271554, "longitude": 14.423261, "elevation": 606.0, "source": "osm", "_tags": {"ele": "606", "name": "Kičelj", "natural": "peak"}}, {"name": "Diviška", "latitude": 45.0028707, "longitude": 14.7682827, "elevation": 471.0, "source": "osm", "_tags": {"ele": "471", "name": "Diviška", "natural": "peak", "summit:cross": "no", "summit:register": "no", "wikimedia_commons": "File:Peak Diviška (Insel Krk).jpg"}}, {"name": "Veliki Kamenjak", "latitude": 45.3788791, "longitude": 14.5551984, "elevation": 837.0, "source": "osm", "_tags": {"ele": "837", "name": "Veliki Kamenjak", "natural": "peak"}}, {"name": "Kremenjak", "latitude": 45.2163214, "longitude": 14.211203, "elevation": 826.6, "source": "osm", "_tags": {"ele": "826.6", "name": "Kremenjak", "natural": "peak"}}, {"name": "Brgud", "latitude": 45.2339246, "longitude": 14.2017646, "elevation": 906.8, "source": "osm", "_tags": {"ele": "906.8", "name": "Brgud", "natural": "peak", "wikidata": "Q25300544"}}, {"name": "Šikovac", "latitude": 45.1834216, "longitude": 14.2046697, "elevation": 779.6, "source": "osm", "_tags": {"ele": "779.6", "name": "Šikovac", "natural": "peak"}}, {"name": "Zakam", "latitude": 44.9776557, "longitude": 14.7506266, "elevation": 194.0, "source": "osm", "_tags": {"ele": "194", "historic": "wayside_cross", "name": "Zakam", "natural": "peak", "summit:cross": "yes", "summit:register": "yes"}}, {"name": "Malondarski", "latitude": 44.6738475, "longitude": 14.2753358, "elevation": 94.0, "source": "osm", "_tags": {"ele": "94", "name": "Malondarski", "natural": "peak", "source": "DGU-TK25"}}, {"name": "Kalk", "latitude": 44.6189523, "longitude": 14.2669343, "elevation": 134.0, "source": "osm", "_tags": {"ele": "134", "name": "Kalk", "natural": "peak", "source": "DGU-TK25"}}, {"name": "Vojak", "latitude": 45.2849507, "longitude": 14.2019647, "elevation": 1401.0, "source": "osm", "_tags": {"ele": "1401", "name": "Vojak", "name:it": "Monte Maggiore", "natural": "peak", "prominence": "911", "wikidata": "Q1857887", "wikipedia": "de:Vojak (Berg)"}}, {"name": "Stražica", "latitude": 44.9812858, "longitude": 14.7651199, "elevation": 372.0, "source": "osm", "_tags": {"ele": "372", "name": "Stražica", "natural": "peak", "summit:cross": "no", "summit:register": "no", "wikimedia_commons": "File:Peak Stražica (Insel Krk).jpg"}}, {"name": "", "latitude": 44.8337094, "longitude": 14.7497521, "elevation": 42.0, "source": "osm", "_tags": {"ele": "42", "natural": "peak", "source": "geoportal.dgu.hr: TK25 (Topografska karta 1:25000)"}}, {"name": "Bag", "latitude": 44.9483612, "longitude": 14.7550742, "elevation": 185.0, "source": "osm", "_tags": {"ele": "185", "name": "Bag", "natural": "peak", "tourism": "viewpoint"}}, {"name": "Polje", "latitude": 44.6316193, "longitude": 14.540395, "elevation": 19.0, "source": "osm", "_tags": {"ele": "19", "name": "Polje", "natural": "peak"}}, {"name": "Hartina", "latitude": 44.6570638, "longitude": 14.2462027, "elevation": 93.0, "source": "osm", "_tags": {"ele": "93", "name": "Hartina", "natural": "peak", "source": "DGU-TK25"}}, {"name": "Golo brdo", "latitude": 44.9700081, "longitude": 14.0286257, "elevation": 168.6, "source": "osm", "_tags": {"ele": "168.6", "name": "Golo brdo", "natural": "peak"}}, {"name": "Lanište", "latitude": 44.991568, "longitude": 14.0623764, "elevation": 144.2, "source": "osm", "_tags": {"ele": "144.2", "name": "Lanište", "natural": "peak"}}, {"name": "Marčić", "latitude": 45.0144912, "longitude": 14.0051938, "elevation": 214.9, "source": "osm", "_tags": {"ele": "214.9", "name": "Marčić", "natural": "peak"}}, {"name": "Mutalat", "latitude": 45.0048377, "longitude": 14.0578059, "elevation": 152.8, "source": "osm", "_tags": {"ele": "152.8", "name": "Mutalat", "natural": "peak", "wikidata": "Q25291589"}}, {"name": "Peruški vrh", "latitude": 44.9572106, "longitude": 14.0161932, "elevation": 168.0, "source": "osm", "_tags": {"ele": "168", "name": "Peruški vrh", "natural": "peak"}}, {"name": "Plenica", "latitude": 44.9738115, "longitude": 14.0588772, "elevation": 149.5, "source": "osm", "_tags": {"ele": "149.5", "name": "Plenica", "natural": "peak"}}, {"name": "Sveti Ilija", "latitude": 44.9474384, "longitude": 14.0262174, "elevation": 130.5, "source": "osm", "_tags": {"ele": "130.5", "name": "Sveti Ilija", "natural": "peak"}}, {"name": "", "latitude": 44.9511028, "longitude": 14.050059, "elevation": 74.5, "source": "osm", "_tags": {"ele": "74.5", "natural": "peak"}}, {"name": "", "latitude": 44.9608242, "longitude": 14.0453989, "elevation": 123.0, "source": "osm", "_tags": {"ele": "123", "natural": "peak"}}, {"name": "", "latitude": 44.9650342, "longitude": 14.0032679, "elevation": 185.2, "source": "osm", "_tags": {"ele": "185.2", "natural": "peak"}}, {"name": "", "latitude": 44.9780807, "longitude": 14.0708273, "elevation": 94.6, "source": "osm", "_tags": {"ele": "94.6", "natural": "peak"}}, {"name": "", "latitude": 45.0008234, "longitude": 13.990445, "elevation": 231.9, "source": "osm", "_tags": {"ele": "231.9", "natural": "peak"}}, {"name": "Utrina", "latitude": 45.0018298, "longitude": 14.0885239, "elevation": 149.6, "source": "osm", "_tags": {"ele": "149.6", "name": "Utrina", "natural": "peak"}}, {"name": "", "latitude": 45.0099511, "longitude": 14.0288711, "elevation": 218.8, "source": "osm", "_tags": {"ele": "218.8", "natural": "peak"}}, {"name": "Štandar", "latitude": 45.0226019, "longitude": 14.0279697, "elevation": 250.6, "source": "osm", "_tags": {"ele": "250.6", "name": "Štandar", "natural": "peak"}}, {"name": "Sat", "latitude": 45.136294, "longitude": 13.9404374, "elevation": 373.0, "source": "osm", "_tags": {"ele": "373", "name": "Sat", "natural": "peak"}}, {"name": "Vrh", "latitude": 45.0371294, "longitude": 13.93576, "elevation": 296.8, "source": "osm", "_tags": {"ele": "296.8", "name": "Vrh", "natural": "peak"}}, {"name": "", "latitude": 45.1061139, "longitude": 13.944016, "elevation": 340.0, "source": "osm", "_tags": {"ele": "340", "natural": "peak"}}, {"name": "", "latitude": 45.1064005, "longitude": 13.9291228, "elevation": 337.0, "source": "osm", "_tags": {"ele": "337", "natural": "peak"}}, {"name": "", "latitude": 45.132965, "longitude": 13.9295606, "elevation": 383.0, "source": "osm", "_tags": {"ele": "383", "natural": "peak"}}, {"name": "Školjka", "latitude": 45.0040758, "longitude": 13.92427, "elevation": 265.1, "source": "osm", "_tags": {"ele": "265.1", "name": "Školjka", "natural": "peak", "source": "U.S"}}, {"name": "Sveti Ivan", "latitude": 45.0328016, "longitude": 14.0134019, "elevation": 258.3, "source": "osm", "_tags": {"ele": "258.3", "name": "Sveti Ivan", "natural": "peak"}}, {"name": "", "latitude": 45.0186696, "longitude": 13.9967031, "elevation": 233.7, "source": "osm", "_tags": {"ele": "233.7", "natural": "peak"}}, {"name": "Glavica", "latitude": 44.9859961, "longitude": 14.0036008, "elevation": 200.7, "source": "osm", "_tags": {"ele": "200.7", "name": "Glavica", "natural": "peak"}}, {"name": "", "latitude": 45.0034814, "longitude": 14.0056481, "elevation": 207.0, "source": "osm", "_tags": {"ele": "207", "natural": "peak"}}, {"name": "", "latitude": 45.0136235, "longitude": 14.074223, "elevation": 149.1, "source": "osm", "_tags": {"ele": "149.1", "natural": "peak"}}, {"name": "Veli vrh", "latitude": 45.362034, "longitude": 14.4389581, "elevation": 432.0, "source": "osm", "_tags": {"ele": "432", "name": "Veli vrh", "name:it": "Monte Lesco", "natural": "peak", "wikidata": "Q26224661"}}, {"name": "Bukovo", "latitude": 45.1590186, "longitude": 14.1916535, "elevation": 771.3, "source": "osm", "_tags": {"ele": "771.3", "name": "Bukovo", "natural": "peak"}}, {"name": "Dižnji vrh", "latitude": 45.3635897, "longitude": 14.1255286, "elevation": 784.0, "source": "osm", "_tags": {"ele": "784", "name": "Dižnji vrh", "natural": "peak"}}, {"name": "Gorica", "latitude": 45.3792346, "longitude": 14.1375405, "elevation": 727.1, "source": "osm", "_tags": {"ele": "727.1", "name": "Gorica", "natural": "peak"}}, {"name": "Kadički vrh", "latitude": 45.3821702, "longitude": 14.2242842, "elevation": 1104.0, "source": "osm", "_tags": {"ele": "1104", "name": "Kadički vrh", "natural": "peak"}}, {"name": "Medvejak", "latitude": 45.383565, "longitude": 14.1787113, "elevation": 1056.0, "source": "osm", "_tags": {"ele": "1056", "name": "Medvejak", "natural": "peak"}}, {"name": "Pećnik", "latitude": 45.3187088, "longitude": 14.2532745, "elevation": 641.0, "source": "osm", "_tags": {"alt_name": "Petnički vrh", "ele": "641", "name": "Pećnik", "natural": "peak"}}, {"name": "Risnjak", "latitude": 45.364876, "longitude": 14.2661606, "elevation": 897.4, "source": "osm", "_tags": {"ele": "897.4", "name": "Risnjak", "natural": "peak"}}, {"name": "Slepica", "latitude": 45.2326317, "longitude": 14.2356378, "elevation": 525.3, "source": "osm", "_tags": {"ele": "525.3", "name": "Slepica", "natural": "peak"}}, {"name": "Straževnik", "latitude": 45.2588751, "longitude": 14.237796, "elevation": 691.3, "source": "osm", "_tags": {"ele": "691.3", "name": "Straževnik", "natural": "peak"}}, {"name": "Tuliševica", "latitude": 45.2810764, "longitude": 14.2529262, "elevation": 560.0, "source": "osm", "_tags": {"ele": "560", "name": "Tuliševica", "natural": "peak"}}, {"name": "Orljak", "latitude": 45.4194554, "longitude": 14.1267438, "elevation": 1106.0, "source": "osm", "_tags": {"ele": "1106", "name": "Orljak", "natural": "peak"}}, {"name": "Veliki Planik", "latitude": 45.3617467, "longitude": 14.190625, "elevation": 1272.0, "source": "osm", "_tags": {"ele": "1272", "name": "Veliki Planik", "natural": "peak", "wikidata": "Q9368358"}}, {"name": "Brestovica", "latitude": 44.9985162, "longitude": 14.6826374, "elevation": 558.0, "source": "osm", "_tags": {"ele": "558", "name": "Brestovica", "natural": "peak"}}, {"name": "Obzova", "latitude": 44.9943732, "longitude": 14.6871816, "elevation": 569.0, "source": "osm", "_tags": {"ele": "569", "name": "Obzova", "natural": "peak", "prominence": "569", "summit:cross": "no", "wikidata": "Q3502491"}}, {"name": "Zminja", "latitude": 44.9914899, "longitude": 14.6970306, "elevation": 537.0, "source": "osm", "_tags": {"ele": "537", "name": "Zminja", "natural": "peak", "summit:cross": "no"}}, {"name": "Oštri", "latitude": 45.0183918, "longitude": 14.1299032, "elevation": 531.0, "source": "osm", "_tags": {"checkpoint": "hiking", "checkpoint:type": "stamp", "ele": "531", "name": "Oštri", "natural": "peak"}}, {"name": "Lužinski breg", "latitude": 45.2927229, "longitude": 14.2471713, "elevation": 626.0, "source": "osm", "_tags": {"ele": "626", "name": "Lužinski breg", "natural": "peak", "tourism": "viewpoint"}}, {"name": "Belveder", "latitude": 44.5220865, "longitude": 14.4628519, "elevation": 87.0, "source": "osm", "_tags": {"ele": "87", "name": "Belveder", "natural": "peak"}}, {"name": "Kalvarija", "latitude": 44.5164409, "longitude": 14.4902718, "elevation": 201.0, "source": "osm", "_tags": {"ele": "201", "name": "Kalvarija", "natural": "peak"}}, {"name": "Umpiljak", "latitude": 44.5212703, "longitude": 14.4831411, "elevation": 171.0, "source": "osm", "_tags": {"ele": "171", "name": "Umpiljak", "natural": "peak"}}, {"name": "Vela Straža", "latitude": 44.673108, "longitude": 14.4488113, "elevation": 151.0, "source": "osm", "_tags": {"ele": "151", "name": "Vela Straža", "natural": "peak"}}, {"name": "Križica", "latitude": 44.6881156, "longitude": 14.3516802, "elevation": 343.0, "source": "osm", "_tags": {"ele": "343", "name": "Križica", "natural": "peak"}}, {"name": "Bačvenik", "latitude": 45.3520321, "longitude": 14.1385611, "elevation": 735.0, "source": "osm", "_tags": {"ele": "735", "name": "Bačvenik", "natural": "peak"}}, {"name": "Frkovija", "latitude": 45.3384324, "longitude": 14.0967863, "elevation": 372.2, "source": "osm", "_tags": {"ele": "372.2", "name": "Frkovija", "natural": "peak"}}, {"name": "Grabrovica", "latitude": 45.3448144, "longitude": 14.1585641, "elevation": 803.0, "source": "osm", "_tags": {"ele": "803", "name": "Grabrovica", "natural": "peak"}}, {"name": "Gradišće", "latitude": 45.3724072, "longitude": 14.1194344, "elevation": 766.6, "source": "osm", "_tags": {"ele": "766.6", "name": "Gradišće", "natural": "peak"}}, {"name": "Kuk", "latitude": 45.3381952, "longitude": 14.1332049, "elevation": 551.8, "source": "osm", "_tags": {"ele": "551.8", "name": "Kuk", "natural": "peak"}}, {"name": "Kuk", "latitude": 45.3382808, "longitude": 14.1461303, "elevation": 702.0, "source": "osm", "_tags": {"ele": "702", "name": "Kuk", "natural": "peak"}}, {"name": "Kupice", "latitude": 45.3408313, "longitude": 14.1899979, "elevation": 1049.1, "source": "osm", "_tags": {"ele": "1049.1", "name": "Kupice", "natural": "peak"}}, {"name": "Kupići", "latitude": 45.3481557, "longitude": 14.1769702, "elevation": 989.0, "source": "osm", "_tags": {"ele": "989", "name": "Kupići", "natural": "peak"}}, {"name": "Mali Planik", "latitude": 45.3586266, "longitude": 14.195615, "elevation": 1259.0, "source": "osm", "_tags": {"ele": "1259", "name": "Mali Planik", "natural": "peak"}}, {"name": "Manjadin br.", "latitude": 45.294422, "longitude": 14.1058554, "elevation": 232.9, "source": "osm", "_tags": {"ele": "232.9", "name": "Manjadin br.", "natural": "peak"}}, {"name": "Obšenik", "latitude": 45.3861739, "longitude": 14.106997, "elevation": 719.6, "source": "osm", "_tags": {"ele": "719.6", "name": "Obšenik", "natural": "peak"}}, {"name": "Ošalj vrh", "latitude": 45.3453461, "longitude": 14.2022597, "elevation": 1176.5, "source": "osm", "_tags": {"ele": "1176.5", "name": "Ošalj vrh", "natural": "peak"}}, {"name": "Travji breg", "latitude": 45.32533, "longitude": 14.0639619, "elevation": 415.0, "source": "osm", "_tags": {"ele": "415", "name": "Travji breg", "natural": "peak"}}, {"name": "Vele Soline", "latitude": 45.2725878, "longitude": 14.1356936, "elevation": 227.7, "source": "osm", "_tags": {"ele": "227.7", "name": "Vele Soline", "natural": "peak"}}, {"name": "Veli Brežac", "latitude": 45.3216315, "longitude": 14.1102915, "elevation": 277.9, "source": "osm", "_tags": {"ele": "277.9", "name": "Veli Brežac", "natural": "peak"}}, {"name": "Veli brijeg", "latitude": 45.3105772, "longitude": 14.1178594, "elevation": 275.0, "source": "osm", "_tags": {"ele": "275", "name": "Veli brijeg", "natural": "peak"}}, {"name": "", "latitude": 45.3194555, "longitude": 14.1300518, "elevation": 365.5, "source": "osm", "_tags": {"ele": "365.5", "natural": "peak"}}, {"name": "", "latitude": 45.3202533, "longitude": 14.0769606, "elevation": 396.5, "source": "osm", "_tags": {"ele": "396.5", "natural": "peak"}}, {"name": "", "latitude": 45.3354177, "longitude": 14.1991975, "elevation": 1017.5, "source": "osm", "_tags": {"ele": "1017.5", "natural": "peak"}}, {"name": "", "latitude": 45.3354897, "longitude": 14.1049642, "elevation": 348.1, "source": "osm", "_tags": {"ele": "348.1", "natural": "peak"}}, {"name": "", "latitude": 45.3515862, "longitude": 14.1250923, "elevation": 756.0, "source": "osm", "_tags": {"ele": "756", "natural": "peak"}}, {"name": "", "latitude": 45.3531239, "longitude": 14.1672817, "elevation": 876.6, "source": "osm", "_tags": {"ele": "876.6", "natural": "peak"}}, {"name": "", "latitude": 45.3562806, "longitude": 14.0981695, "elevation": 419.0, "source": "osm", "_tags": {"ele": "419", "natural": "peak"}}, {"name": "", "latitude": 45.3714371, "longitude": 14.0940001, "elevation": 505.3, "source": "osm", "_tags": {"ele": "505.3", "natural": "peak"}}, {"name": "Šebrn", "latitude": 45.3317815, "longitude": 14.1641639, "elevation": 812.0, "source": "osm", "_tags": {"ele": "812", "name": "Šebrn", "natural": "peak"}}, {"name": "Štiković", "latitude": 45.3570488, "longitude": 14.1218979, "elevation": 770.0, "source": "osm", "_tags": {"ele": "770", "name": "Štiković", "natural": "peak"}}, {"name": "Štrpadina", "latitude": 45.3164116, "longitude": 14.0917042, "elevation": 321.4, "source": "osm", "_tags": {"ele": "321.4", "name": "Štrpadina", "natural": "peak"}}, {"name": "Kobilina", "latitude": 45.199761, "longitude": 14.219891, "elevation": 564.3, "source": "osm", "_tags": {"ele": "564.3", "name": "Kobilina", "natural": "peak"}}, {"name": "Maj", "latitude": 45.265317, "longitude": 14.1915431, "elevation": 969.5, "source": "osm", "_tags": {"ele": "969.5", "name": "Maj", "natural": "peak"}}, {"name": "Marinov brijeg", "latitude": 45.1938359, "longitude": 14.2342594, "elevation": 287.0, "source": "osm", "_tags": {"ele": "287", "name": "Marinov brijeg", "natural": "peak"}}, {"name": "Perun", "latitude": 45.2470322, "longitude": 14.214811, "elevation": 881.0, "source": "osm", "_tags": {"ele": "881", "name": "Perun", "natural": "peak"}}, {"name": "Puntera", "latitude": 45.157312, "longitude": 14.2099329, "elevation": 420.3, "source": "osm", "_tags": {"ele": "420.3", "man_made": "survey_point", "name": "Puntera", "natural": "peak"}}, {"name": "Sisol", "latitude": 45.1711582, "longitude": 14.2010527, "elevation": 834.5, "source": "osm", "_tags": {"checkpoint": "hiking", "checkpoint:type": "stamp", "ele": "834.5", "name": "Sisol", "natural": "peak", "wikidata": "Q25288542"}}, {"name": "", "latitude": 45.2617154, "longitude": 14.1980462, "elevation": 972.3, "source": "osm", "_tags": {"ele": "972.3", "natural": "peak"}}, {"name": "", "latitude": 45.2720754, "longitude": 14.2195491, "elevation": 1011.8, "source": "osm", "_tags": {"ele": "1011.8", "natural": "peak"}}, {"name": "Krnički vrh", "latitude": 45.0586722, "longitude": 13.9443793, "elevation": 303.5, "source": "osm", "_tags": {"ele": "303.5", "name": "Krnički vrh", "natural": "peak"}}, {"name": "Gorica", "latitude": 45.2383461, "longitude": 14.1593717, "elevation": 59.6, "source": "osm", "_tags": {"ele": "59.6", "name": "Gorica", "natural": "peak"}}, {"name": "", "latitude": 45.1876979, "longitude": 14.1584945, "elevation": 23.5, "source": "osm", "_tags": {"ele": "23.5", "natural": "peak"}}, {"name": "Veliki Bitoraj", "latitude": 45.2926845, "longitude": 14.7903784, "elevation": 1386.0, "source": "osm", "_tags": {"alt_name": "Bitoraj;Burni Bitoraj", "ele": "1386", "name": "Veliki Bitoraj", "natural": "peak", "ref": "KT HPO 8.11.", "summit:register": "yes", "wikidata": "Q4918920"}}, {"name": "Goli brijeg", "latitude": 45.1660073, "longitude": 14.0836736, "elevation": 307.8, "source": "osm", "_tags": {"ele": "307.8", "name": "Goli brijeg", "natural": "peak"}}, {"name": "Straža", "latitude": 45.159916, "longitude": 14.1025336, "elevation": 306.4, "source": "osm", "_tags": {"ele": "306.4", "name": "Straža", "natural": "peak"}}, {"name": "", "latitude": 45.0251176, "longitude": 13.922532, "elevation": 264.0, "source": "osm", "_tags": {"ele": "264", "natural": "peak", "source": "U:S:"}}, {"name": "", "latitude": 45.0347028, "longitude": 13.9004761, "elevation": 260.0, "source": "osm", "_tags": {"ele": "260", "natural": "peak", "source": "U.S."}}, {"name": "Goli Vrh", "latitude": 45.0126344, "longitude": 13.9566634, "elevation": 245.0, "source": "osm", "_tags": {"ele": "245", "name": "Goli Vrh", "natural": "peak", "source": "U.S"}}, {"name": "Gradina", "latitude": 45.0929703, "longitude": 13.9465353, "elevation": 378.0, "source": "osm", "_tags": {"ele": "378", "name": "Gradina", "natural": "peak", "source": "U.S", "wikidata": "Q25297277"}}, {"name": "Veli Vrčin", "latitude": 45.0038747, "longitude": 13.9003483, "elevation": 256.0, "source": "osm", "_tags": {"ele": "256", "name": "Veli Vrčin", "natural": "peak", "source": "U.S"}}, {"name": "Jurjevica", "latitude": 45.1021797, "longitude": 13.8937495, "elevation": 346.0, "source": "osm", "_tags": {"ele": "346", "name": "Jurjevica", "natural": "peak", "source": "U.S"}}, {"name": "Goričica", "latitude": 45.1191435, "longitude": 13.9541743, "elevation": 398.0, "source": "osm", "_tags": {"ele": "398", "name": "Goričica", "natural": "peak", "source": "U.S"}}, {"name": "", "latitude": 45.0752745, "longitude": 13.9185545, "elevation": 311.0, "source": "osm", "_tags": {"ele": "311", "natural": "peak", "source": "U.S"}}, {"name": "Brdo", "latitude": 44.9819797, "longitude": 14.1380887, "elevation": 475.0, "source": "osm", "_tags": {"ele": "475", "name": "Brdo", "natural": "peak"}}, {"name": "Arne", "latitude": 44.9219704, "longitude": 14.0364595, "elevation": 29.0, "source": "osm", "_tags": {"ele": "29", "name": "Arne", "natural": "peak"}}, {"name": "Svetica", "latitude": 44.8475744, "longitude": 13.9735688, "elevation": null, "source": "osm", "_tags": {"name": "Svetica", "name:it": "Monte Madonna", "natural": "peak", "wikidata": "Q25286808"}}, {"name": "Medviđak", "latitude": 45.2563774, "longitude": 14.6864762, "elevation": 1027.0, "source": "osm", "_tags": {"ele": "1027", "name": "Medviđak", "natural": "peak", "summit:register": "yes"}}, {"name": "Viševica", "latitude": 45.254914, "longitude": 14.8009273, "elevation": 1428.0, "source": "osm", "_tags": {"ele": "1428", "name": "Viševica", "natural": "peak", "summit:register": "yes", "wikidata": "Q7938071", "wikipedia": "hr:Viševica"}}, {"name": "Zagradski vrh", "latitude": 45.227594, "longitude": 14.7803166, "elevation": 1187.0, "source": "osm", "_tags": {"ele": "1187", "name": "Zagradski vrh", "natural": "peak", "summit:register": "yes", "wikidata": "Q26224680"}}, {"name": "Pleš", "latitude": 45.3761319, "longitude": 14.4292782, "elevation": 499.0, "source": "osm", "_tags": {"ele": "499", "name": "Pleš", "natural": "peak"}}, {"name": "Radeševo", "latitude": 45.4293428, "longitude": 14.5783606, "elevation": 1363.0, "source": "osm", "_tags": {"ele": "1363", "name": "Radeševo", "natural": "peak", "wikidata": "Q26224674"}}, {"name": "Črmuž", "latitude": 45.3542943, "longitude": 14.8399083, "elevation": 1104.0, "source": "osm", "_tags": {"ele": "1104", "name": "Črmuž", "natural": "peak", "summit:register": "yes"}}, {"name": "Štimčev vrh", "latitude": 45.3806977, "longitude": 14.820008, "elevation": 1024.0, "source": "osm", "_tags": {"ele": "1024", "name": "Štimčev vrh", "natural": "peak", "summit:cross": "no", "summit:register": "yes"}}, {"name": "Bejavec", "latitude": 45.2282995, "longitude": 14.5966603, "elevation": 57.0, "source": "osm", "_tags": {"ele": "57", "name": "Bejavec", "natural": "peak"}}, {"name": "Gorinji", "latitude": 45.1597885, "longitude": 14.5790507, "elevation": 115.0, "source": "osm", "_tags": {"ele": "115", "name": "Gorinji", "natural": "peak", "source": "US Defence"}}, {"name": "Harbujica", "latitude": 45.10529, "longitude": 14.6163012, "elevation": 293.0, "source": "osm", "_tags": {"ele": "293", "name": "Harbujica", "natural": "peak", "source": "US Defence"}}, {"name": "Kaslir", "latitude": 45.0866449, "longitude": 14.5467796, "elevation": 161.0, "source": "osm", "_tags": {"ele": "161", "name": "Kaslir", "natural": "peak", "source": "US Defence"}}, {"name": "Kolmanica", "latitude": 45.0816142, "longitude": 14.6349521, "elevation": 190.0, "source": "osm", "_tags": {"ele": "190", "name": "Kolmanica", "natural": "peak", "source": "US Defence"}}, {"name": "Melinjak", "latitude": 45.0638625, "longitude": 14.6446924, "elevation": 172.0, "source": "osm", "_tags": {"ele": "172", "name": "Melinjak", "natural": "peak", "source": "US Defence"}}, {"name": "Plasina", "latitude": 45.1898674, "longitude": 14.5918908, "elevation": 79.0, "source": "osm", "_tags": {"ele": "79", "name": "Plasina", "natural": "peak", "source": "US Defence"}}, {"name": "Sveti Juraj", "latitude": 45.1117345, "longitude": 14.6063054, "elevation": 327.0, "source": "osm", "_tags": {"ele": "327", "name": "Sveti Juraj", "name:it": "S. Giorgio", "natural": "peak", "source": "US Defence"}}, {"name": "Veli vrh", "latitude": 45.1828557, "longitude": 14.5431599, "elevation": 69.0, "source": "osm", "_tags": {"ele": "69", "name": "Veli vrh", "natural": "peak", "wikidata": "Q25287020"}}, {"name": "Veliki Kijac", "latitude": 45.1240972, "longitude": 14.6643599, "elevation": 50.0, "source": "osm", "_tags": {"ele": "50", "name": "Veliki Kijac", "natural": "peak", "source": "US Defence"}}, {"name": "Vranjak", "latitude": 45.047447, "longitude": 14.6919472, "elevation": 350.5, "source": "osm", "_tags": {"ele": "350.5", "name": "Vranjak", "natural": "peak", "source": "US Defence"}}, {"name": "Zavojak", "latitude": 45.0655738, "longitude": 14.6795076, "elevation": 197.0, "source": "osm", "_tags": {"ele": "197", "name": "Zavojak", "natural": "peak", "source": "US Defence"}}, {"name": "", "latitude": 45.079061, "longitude": 14.6561015, "elevation": 131.0, "source": "osm", "_tags": {"ele": "131", "natural": "peak"}}, {"name": "", "latitude": 45.1058288, "longitude": 14.667032, "elevation": 18.0, "source": "osm", "_tags": {"ele": "18", "natural": "peak"}}, {"name": "", "latitude": 45.1259054, "longitude": 14.6408659, "elevation": 190.0, "source": "osm", "_tags": {"ele": "190", "natural": "peak"}}, {"name": "Zaglav", "latitude": 45.1994593, "longitude": 14.5380577, "elevation": 47.0, "source": "osm", "_tags": {"ele": "47", "name": "Zaglav", "natural": "peak"}}, {"name": "Glavica", "latitude": 45.2392772, "longitude": 14.5813627, "elevation": 67.0, "source": "osm", "_tags": {"ele": "67", "name": "Glavica", "natural": "peak"}}, {"name": "Ćuf", "latitude": 45.1506051, "longitude": 14.5240495, "elevation": 29.0, "source": "osm", "_tags": {"ele": "29", "name": "Ćuf", "natural": "peak", "source": "US Defence"}}, {"name": "Klobučac", "latitude": 45.1045338, "longitude": 14.4817793, "elevation": 106.0, "source": "osm", "_tags": {"ele": "106", "name": "Klobučac", "natural": "peak"}}, {"name": "Strigar", "latitude": 45.0329356, "longitude": 14.5325419, "elevation": 203.0, "source": "osm", "_tags": {"ele": "203", "name": "Strigar", "natural": "peak"}}, {"name": "Veli Vršak", "latitude": 45.0505753, "longitude": 14.4837559, "elevation": 103.0, "source": "osm", "_tags": {"ele": "103", "name": "Veli Vršak", "natural": "peak"}}, {"name": "", "latitude": 45.044687, "longitude": 14.5317987, "elevation": 237.0, "source": "osm", "_tags": {"ele": "237", "natural": "peak"}}, {"name": "Bošeniga", "latitude": 45.1629522, "longitude": 14.0379229, "elevation": 323.0, "source": "osm", "_tags": {"ele": "323", "name": "Bošeniga", "natural": "peak"}}, {"name": "Kruh", "latitude": 45.1855922, "longitude": 14.046558, "elevation": 360.0, "source": "osm", "_tags": {"ele": "360", "name": "Kruh", "natural": "peak", "source": "US Defence"}}, {"name": "Stari Grad", "latitude": 45.1595512, "longitude": 14.0224929, "elevation": 403.0, "source": "osm", "_tags": {"ele": "403", "name": "Stari Grad", "natural": "peak", "source": "US Defence"}}, {"name": "Sveti Juraj", "latitude": 45.1577731, "longitude": 13.903454, "elevation": 432.0, "source": "osm", "_tags": {"ele": "432", "name": "Sveti Juraj", "natural": "peak", "source": "Us Defence"}}, {"name": "Veli Breg", "latitude": 45.2065308, "longitude": 13.9285482, "elevation": 450.0, "source": "osm", "_tags": {"ele": "450", "name": "Veli Breg", "natural": "peak", "source": "Us Defence", "wikidata": "Q25302393"}}, {"name": "", "latitude": 45.172279, "longitude": 13.9415961, "elevation": 411.0, "source": "osm", "_tags": {"ele": "411", "natural": "peak"}}, {"name": "", "latitude": 45.1780436, "longitude": 13.9832203, "elevation": 420.0, "source": "osm", "_tags": {"ele": "420", "natural": "peak"}}, {"name": "Čuletov breg", "latitude": 45.1897799, "longitude": 13.9546526, "elevation": 447.0, "source": "osm", "_tags": {"ele": "447", "name": "Čuletov breg", "natural": "peak"}}, {"name": "", "latitude": 45.1934202, "longitude": 14.0264154, "elevation": 444.0, "source": "osm", "_tags": {"ele": "444", "natural": "peak"}}, {"name": "", "latitude": 45.2277023, "longitude": 13.9178522, "elevation": 425.0, "source": "osm", "_tags": {"ele": "425", "natural": "peak", "source": "Us Defence"}}, {"name": "Barevica", "latitude": 45.2470281, "longitude": 14.0585662, "elevation": 333.0, "source": "osm", "_tags": {"ele": "333", "name": "Barevica", "natural": "peak", "source": "US Defence"}}, {"name": "Biličev Vrh", "latitude": 45.0835511, "longitude": 13.9802056, "elevation": 338.0, "source": "osm", "_tags": {"ele": "338", "name": "Biličev Vrh", "natural": "peak", "source": "US Defence"}}, {"name": "Gorica", "latitude": 45.1122966, "longitude": 14.0803623, "elevation": 341.0, "source": "osm", "_tags": {"ele": "341", "name": "Gorica", "natural": "peak", "source": "US Defence", "wikidata": "Q25297253"}}, {"name": "Gradina", "latitude": 45.144136, "longitude": 14.0393814, "elevation": 298.0, "source": "osm", "_tags": {"ele": "298", "name": "Gradina", "natural": "peak", "source": "US Defence"}}, {"name": "Gromača", "latitude": 45.1217346, "longitude": 13.9873348, "elevation": 399.0, "source": "osm", "_tags": {"ele": "399", "name": "Gromača", "natural": "peak"}}, {"name": "Karlički Vrh", "latitude": 45.2210262, "longitude": 14.0914776, "elevation": 224.0, "source": "osm", "_tags": {"ele": "224", "name": "Karlički Vrh", "natural": "peak", "source": "US Defence"}}, {"name": "Kožljak", "latitude": 45.1218696, "longitude": 14.0654173, "elevation": 351.0, "source": "osm", "_tags": {"ele": "351", "name": "Kožljak", "natural": "peak", "source": "US Defence"}}, {"name": "Savinjovica", "latitude": 45.1557334, "longitude": 13.9672025, "elevation": 421.0, "source": "osm", "_tags": {"ele": "421", "name": "Savinjovica", "natural": "peak"}}, {"name": "Sveti Krištof", "latitude": 45.2085638, "longitude": 14.0160239, "elevation": null, "source": "osm", "_tags": {"name": "Sveti Krištof", "natural": "peak", "source": "US Defence"}}, {"name": "Turkovac", "latitude": 45.1411291, "longitude": 13.9554309, "elevation": 408.0, "source": "osm", "_tags": {"ele": "408", "name": "Turkovac", "natural": "peak"}}, {"name": "Velo Gnijezdo", "latitude": 45.2425262, "longitude": 13.9989129, "elevation": 496.0, "source": "osm", "_tags": {"ele": "496", "name": "Velo Gnijezdo", "natural": "peak", "source": "US Defence"}}, {"name": "", "latitude": 45.0597209, "longitude": 13.9754264, "elevation": 294.0, "source": "osm", "_tags": {"ele": "294", "natural": "peak", "source": "US Defence"}}, {"name": "", "latitude": 45.1019289, "longitude": 13.988356, "elevation": 352.0, "source": "osm", "_tags": {"ele": "352", "natural": "peak", "source": "US Defence"}}, {"name": "", "latitude": 45.1111514, "longitude": 14.0406368, "elevation": 306.0, "source": "osm", "_tags": {"ele": "306", "natural": "peak"}}, {"name": "", "latitude": 45.1317605, "longitude": 14.0501967, "elevation": 361.1, "source": "osm", "_tags": {"ele": "361.1", "natural": "peak"}}, {"name": "", "latitude": 45.1444598, "longitude": 14.0012555, "elevation": 413.0, "source": "osm", "_tags": {"ele": "413", "natural": "peak"}}, {"name": "", "latitude": 45.2009409, "longitude": 13.9114647, "elevation": 400.0, "source": "osm", "_tags": {"ele": "400", "natural": "peak", "source": "US Defence"}}, {"name": "", "latitude": 45.2148363, "longitude": 13.9873289, "elevation": 446.0, "source": "osm", "_tags": {"ele": "446", "natural": "peak"}}, {"name": "", "latitude": 45.2310604, "longitude": 13.9851256, "elevation": 469.0, "source": "osm", "_tags": {"ele": "469", "natural": "peak"}}, {"name": "", "latitude": 45.2332568, "longitude": 14.0460872, "elevation": 221.0, "source": "osm", "_tags": {"ele": "221", "natural": "peak", "source": "US Defence"}}, {"name": "", "latitude": 45.2215214, "longitude": 13.9939686, "elevation": 456.0, "source": "osm", "_tags": {"ele": "456", "natural": "peak"}}, {"name": "474", "latitude": 45.2246676, "longitude": 13.9448058, "elevation": null, "source": "osm", "_tags": {"name": "474", "natural": "peak", "source": "US Defence"}}, {"name": "Krnjelka", "latitude": 44.9805516, "longitude": 13.90614, "elevation": 220.0, "source": "osm", "_tags": {"ele": "220", "name": "Krnjelka", "natural": "peak", "source": "US Defence"}}, {"name": "Bile Stine", "latitude": 44.8719699, "longitude": 13.9390945, "elevation": 78.0, "source": "osm", "_tags": {"ele": "78", "name": "Bile Stine", "natural": "peak", "source": "U.S. Defense"}}, {"name": "Bili Vrh", "latitude": 44.8677985, "longitude": 13.9601043, "elevation": 57.0, "source": "osm", "_tags": {"ele": "57", "name": "Bili Vrh", "natural": "peak", "source": "U.S. Defense"}}, {"name": "Sarancan", "latitude": 44.8641483, "longitude": 13.97686, "elevation": 63.0, "source": "osm", "_tags": {"ele": "63", "name": "Sarancan", "natural": "peak", "source": "U.S. Defense"}}, {"name": "Sveti Anton", "latitude": 44.815657, "longitude": 13.9596703, "elevation": 57.0, "source": "osm", "_tags": {"ele": "57", "name": "Sveti Anton", "natural": "peak", "source": "U.S. Defense"}}, {"name": "Velika Glava", "latitude": 44.8748879, "longitude": 13.9157052, "elevation": 81.0, "source": "osm", "_tags": {"ele": "81", "name": "Velika Glava", "natural": "peak", "source": "U.S. Defense"}}, {"name": "", "latitude": 45.1773363, "longitude": 14.0752941, "elevation": 165.4, "source": "osm", "_tags": {"ele": "165.4", "natural": "peak"}}, {"name": "Šija", "latitude": 45.3973956, "longitude": 14.2114249, "elevation": 1241.0, "source": "osm", "_tags": {"alt_name": "Gomila", "ele": "1241", "name": "Šija", "natural": "peak", "wikidata": "Q25288525"}}, {"name": "", "latitude": 44.8411499, "longitude": 14.8332044, "elevation": 127.0, "source": "osm", "_tags": {"ele": "127", "natural": "peak", "source": "geoportal.dgu.hr: TK25 (Topografska karta 1:25000)"}}, {"name": "Kamenjak", "latitude": 44.7730745, "longitude": 14.7896288, "elevation": 408.0, "source": "osm", "_tags": {"alt_name": "Straža", "alt_name:hr": "Straža", "ele": "408", "name": "Kamenjak", "name:hr": "Kamenjak", "natural": "peak", "prominence": "408", "wikidata": "Q48830819"}}, {"name": "Čelimbaša", "latitude": 45.3032494, "longitude": 14.8601564, "elevation": 1084.0, "source": "osm", "_tags": {"ele": "1084", "name": "Čelimbaša", "natural": "peak"}}, {"name": "Kobiljak", "latitude": 45.2532166, "longitude": 14.7255264, "elevation": 1119.0, "source": "osm", "_tags": {"ele": "1119", "name": "Kobiljak", "natural": "peak", "summit:register": "yes"}}, {"name": "Mali Kamenjak", "latitude": 45.3735469, "longitude": 14.5579792, "elevation": 760.0, "source": "osm", "_tags": {"ele": "760", "name": "Mali Kamenjak", "natural": "peak"}}, {"name": "Tuhobić", "latitude": 45.334284, "longitude": 14.6417413, "elevation": 1109.0, "source": "osm", "_tags": {"ele": "1109", "name": "Tuhobić", "natural": "peak", "wikidata": "Q7851699", "wikipedia": "hr:Tuhobić"}}, {"name": "Knezgrad", "latitude": 45.2836757, "longitude": 14.2493359, "elevation": 612.0, "source": "osm", "_tags": {"ele": "612", "name": "Knezgrad", "natural": "peak"}}, {"name": "Grnjac", "latitude": 45.2885753, "longitude": 14.2263194, "elevation": 850.0, "source": "osm", "_tags": {"ele": "850", "name": "Grnjac", "natural": "peak"}}, {"name": "Stari Draguć", "latitude": 45.324885, "longitude": 14.0133357, "elevation": 503.0, "source": "osm", "_tags": {"ele": "503", "name": "Stari Draguć", "natural": "peak", "wikidata": "Q25299109"}}, {"name": "Beljač", "latitude": 45.3624965, "longitude": 14.278112, "elevation": 784.0, "source": "osm", "_tags": {"ele": "784", "name": "Beljač", "natural": "peak"}}, {"name": "Sveti Juraj", "latitude": 45.4232598, "longitude": 13.9076381, "elevation": 423.0, "source": "osm", "_tags": {"ele": "423", "name": "Sveti Juraj", "natural": "peak"}}, {"name": "", "latitude": 45.0699322, "longitude": 14.6680948, "elevation": 106.0, "source": "osm", "_tags": {"ele": "106", "natural": "peak"}}, {"name": "", "latitude": 45.066583, "longitude": 14.7170183, "elevation": 134.0, "source": "osm", "_tags": {"ele": "134", "natural": "peak"}}, {"name": "Veli Grad", "latitude": 45.0677045, "longitude": 14.7356114, "elevation": 103.0, "source": "osm", "_tags": {"ele": "103", "name": "Veli Grad", "natural": "peak"}}, {"name": "Glavina", "latitude": 45.0616573, "longitude": 14.7324838, "elevation": 68.0, "source": "osm", "_tags": {"ele": "68", "name": "Glavina", "natural": "peak"}}, {"name": "Županj vrh", "latitude": 45.3878186, "longitude": 14.1672333, "elevation": 1130.0, "source": "osm", "_tags": {"ele": "1130", "name": "Županj vrh", "natural": "peak"}}, {"name": "Brajkov vrh", "latitude": 45.3793424, "longitude": 14.1592749, "elevation": 1091.0, "source": "osm", "_tags": {"ele": "1091", "name": "Brajkov vrh", "natural": "peak"}}, {"name": "Pilošćak", "latitude": 45.2869143, "longitude": 13.9054884, "elevation": 478.0, "source": "osm", "_tags": {"ele": "478", "name": "Pilošćak", "natural": "peak"}}, {"name": "Veliki Rujnik", "latitude": 45.1911961, "longitude": 14.8528244, "elevation": 1042.0, "source": "osm", "_tags": {"ele": "1042", "name": "Veliki Rujnik", "natural": "peak", "wikidata": "Q25288464"}}, {"name": "Drenin", "latitude": 45.1736692, "longitude": 14.7277121, "elevation": 381.0, "source": "osm", "_tags": {"ele": "381", "name": "Drenin", "natural": "peak", "source": "Jadranko, PD Obruč, gps-planine"}}, {"name": "Velika Slavica", "latitude": 45.3253818, "longitude": 14.7710748, "elevation": 1120.0, "source": "osm", "_tags": {"ele": "1120", "name": "Velika Slavica", "natural": "peak", "source": "Jadranko, PD Obruč, gps-planine"}}, {"name": "Preradovićev vrh", "latitude": 45.3180226, "longitude": 14.7177257, "elevation": 892.0, "source": "osm", "_tags": {"ele": "892", "name": "Preradovićev vrh", "natural": "peak"}}, {"name": "Jelenčić", "latitude": 45.3136226, "longitude": 14.6621197, "elevation": 1106.0, "source": "osm", "_tags": {"ele": "1106", "name": "Jelenčić", "natural": "peak", "summit:register": "yes", "wikidata": "Q25297153"}}, {"name": "Mačkov vrh", "latitude": 45.4114424, "longitude": 14.3401113, "elevation": 507.0, "source": "osm", "_tags": {"ele": "507", "name": "Mačkov vrh", "natural": "peak"}}, {"name": "Santarija", "latitude": 45.2525441, "longitude": 13.9267245, "elevation": 379.0, "source": "osm", "_tags": {"ele": "379", "name": "Santarija", "natural": "peak"}}, {"name": "", "latitude": 45.1094934, "longitude": 14.170004, "elevation": 473.9, "source": "osm", "_tags": {"checkpoint": "hiking", "checkpoint:type": "stamp", "ele": "473.9", "natural": "peak"}}, {"name": "Torneg", "latitude": 45.0077944, "longitude": 14.1479976, "elevation": 345.0, "source": "osm", "_tags": {"ele": "345", "height": "3", "man_made": "cross", "material": "wood", "name": "Torneg", "natural": "peak"}}, {"name": "Goli", "latitude": 45.019964, "longitude": 14.1229802, "elevation": 539.0, "source": "osm", "_tags": {"ele": "539", "name": "Goli", "natural": "peak", "wikidata": "Q25297236"}}, {"name": "Tihovinje", "latitude": 45.0406584, "longitude": 14.1100144, "elevation": 513.0, "source": "osm", "_tags": {"ele": "513", "name": "Tihovinje", "natural": "peak"}}, {"name": "Vela Gromača", "latitude": 45.1098159, "longitude": 14.6082953, "elevation": 321.0, "source": "osm", "_tags": {"ele": "321", "name": "Vela Gromača", "natural": "peak"}}, {"name": "Kur", "latitude": 44.9220944, "longitude": 14.7926507, "elevation": 349.0, "source": "osm", "_tags": {"ele": "349", "name": "Kur", "natural": "peak", "wikidata": "Q25302365"}}, {"name": "Zakantun", "latitude": 44.912923, "longitude": 14.8087861, "elevation": 354.0, "source": "osm", "_tags": {"ele": "354", "name": "Zakantun", "natural": "peak"}}, {"name": "Beli grad", "latitude": 44.8461766, "longitude": 14.8267416, "elevation": 141.0, "source": "osm", "_tags": {"ele": "141", "name": "Beli grad", "natural": "peak"}}, {"name": "Glavina", "latitude": 44.8451154, "longitude": 14.8359966, "elevation": 227.1, "source": "osm", "_tags": {"ele": "227.1", "name": "Glavina", "natural": "peak", "prominence": "227", "source": "geoportal.dgu.hr: TK25 (Topografska karta 1:25000)"}}, {"name": "Stanić", "latitude": 45.4013169, "longitude": 14.3282576, "elevation": 464.8, "source": "osm", "_tags": {"ele": "464.8", "name": "Stanić", "natural": "peak"}}, {"name": "Gorica", "latitude": 45.2956416, "longitude": 14.2362211, "elevation": 711.0, "source": "osm", "_tags": {"ele": "711", "name": "Gorica", "natural": "peak"}}, {"name": "Kostrij", "latitude": 45.0809008, "longitude": 14.6710588, "elevation": 75.0, "source": "osm", "_tags": {"ele": "75", "name": "Kostrij", "natural": "peak"}}, {"name": "Brdar", "latitude": 44.65122, "longitude": 14.3888785, "elevation": 119.0, "source": "osm", "_tags": {"ele": "119", "name": "Brdar", "name:de": "Bardo", "natural": "peak"}}, {"name": "Polanža", "latitude": 44.597781, "longitude": 14.4029633, "elevation": 212.0, "source": "osm", "_tags": {"ele": "212", "name": "Polanža", "natural": "peak"}}, {"name": "", "latitude": 44.5917591, "longitude": 14.4110481, "elevation": 140.0, "source": "osm", "_tags": {"ele": "140", "natural": "peak"}}, {"name": "Veli Križ", "latitude": 44.6149722, "longitude": 14.3922639, "elevation": 215.0, "source": "osm", "_tags": {"ele": "215", "name": "Veli Križ", "natural": "peak"}}, {"name": "Suhi kuk", "latitude": 45.3769669, "longitude": 14.1863206, "elevation": 1076.0, "source": "osm", "_tags": {"ele": "1076", "name": "Suhi kuk", "natural": "peak"}}, {"name": "Južni Mali Risnjak", "latitude": 45.425251, "longitude": 14.6242688, "elevation": 1448.0, "source": "osm", "_tags": {"ele": "1448", "name": "Južni Mali Risnjak", "natural": "peak"}}, {"name": "", "latitude": 45.4269407, "longitude": 14.6221424, "elevation": null, "source": "osm", "_tags": {"natural": "peak"}}, {"name": "Munac", "latitude": 45.1244532, "longitude": 14.1773445, "elevation": 375.0, "source": "osm", "_tags": {"ele": "375", "name": "Munac", "natural": "peak"}}, {"name": "", "latitude": 44.5909344, "longitude": 14.4197632, "elevation": 53.0, "source": "osm", "_tags": {"ele": "53", "natural": "peak"}}, {"name": "", "latitude": 44.8372534, "longitude": 14.6945052, "elevation": 71.0, "source": "osm", "_tags": {"ele": "71", "natural": "peak"}}, {"name": "Prohodski breg", "latitude": 45.4198412, "longitude": 14.3244772, "elevation": 497.0, "source": "osm", "_tags": {"ele": "497", "name": "Prohodski breg", "natural": "peak"}}, {"name": "Standarac", "latitude": 44.8675545, "longitude": 14.7612623, "elevation": 225.3, "source": "osm", "_tags": {"ele": "225.3", "name": "Standarac", "natural": "peak", "prominence": "225", "source": "geoportal.dgu.hr: TK25 (Topografska karta 1:25000)", "wikidata": "Q25288611"}}, {"name": "Glavica", "latitude": 45.3123703, "longitude": 14.7050598, "elevation": 826.0, "source": "osm", "_tags": {"ele": "826", "name": "Glavica", "natural": "peak"}}, {"name": "Sleme", "latitude": 45.4129492, "longitude": 14.5701447, "elevation": 1327.0, "source": "osm", "_tags": {"ele": "1327", "name": "Sleme", "natural": "peak"}}, {"name": "Malo Radeševo", "latitude": 45.425142, "longitude": 14.5826149, "elevation": 1364.0, "source": "osm", "_tags": {"ele": "1364", "name": "Malo Radeševo", "natural": "peak"}}, {"name": "Lisina", "latitude": 45.3949621, "longitude": 14.2246943, "elevation": 1183.0, "source": "osm", "_tags": {"ele": "1183", "name": "Lisina", "natural": "peak"}}, {"name": "", "latitude": 45.1701048, "longitude": 14.1931554, "elevation": 501.0, "source": "osm", "_tags": {"ele": "501", "natural": "peak"}}, {"name": "Budišinac", "latitude": 45.348, "longitude": 14.2572534, "elevation": 948.0, "source": "osm", "_tags": {"ele": "948", "name": "Budišinac", "natural": "peak"}}, {"name": "Dibovljak", "latitude": 45.2689801, "longitude": 13.9402031, "elevation": 427.0, "source": "osm", "_tags": {"ele": "427", "name": "Dibovljak", "natural": "peak"}}, {"name": "Huhuber", "latitude": 45.278449, "longitude": 13.9517354, "elevation": null, "source": "osm", "_tags": {"name": "Huhuber", "natural": "peak"}}, {"name": "", "latitude": 44.7605927, "longitude": 14.8115649, "elevation": 342.0, "source": "osm", "_tags": {"ele": "342", "natural": "peak"}}, {"name": "", "latitude": 44.7631217, "longitude": 14.792881, "elevation": 346.0, "source": "osm", "_tags": {"ele": "346", "natural": "peak"}}, {"name": "Orlić", "latitude": 44.9863532, "longitude": 14.1480423, "elevation": 470.0, "source": "osm", "_tags": {"ele": "470", "name": "Orlić", "natural": "peak"}}, {"name": "Pustov Brih", "latitude": 45.2750799, "longitude": 13.9232877, "elevation": 438.0, "source": "osm", "_tags": {"ele": "438", "name": "Pustov Brih", "natural": "peak"}}, {"name": "Crkveni vrh", "latitude": 45.3147641, "longitude": 14.2167636, "elevation": 1101.0, "source": "osm", "_tags": {"ele": "1101", "name": "Crkveni vrh", "natural": "peak", "wikidata": "Q25298999"}}, {"name": "Brložnik", "latitude": 45.3375713, "longitude": 14.2341976, "elevation": 1093.0, "source": "osm", "_tags": {"ele": "1093", "name": "Brložnik", "natural": "peak"}}, {"name": "Zvoncev vrh", "latitude": 45.3549391, "longitude": 14.2550007, "elevation": 972.0, "source": "osm", "_tags": {"ele": "972", "name": "Zvoncev vrh", "natural": "peak"}}, {"name": "Mačev vrh", "latitude": 44.8389494, "longitude": 14.7379131, "elevation": 84.0, "source": "osm", "_tags": {"ele": "84", "name": "Mačev vrh", "natural": "peak"}}, {"name": "Čužinićev vrh", "latitude": 44.8422202, "longitude": 14.7303591, "elevation": 57.0, "source": "osm", "_tags": {"ele": "57", "name": "Čužinićev vrh", "natural": "peak"}}, {"name": "Veliki Baras", "latitude": 44.8453781, "longitude": 14.7257508, "elevation": 46.0, "source": "osm", "_tags": {"ele": "46", "name": "Veliki Baras", "natural": "peak"}}, {"name": "Stanina", "latitude": 44.8357941, "longitude": 14.7422807, "elevation": 86.0, "source": "osm", "_tags": {"ele": "86", "name": "Stanina", "natural": "peak"}}, {"name": "", "latitude": 44.8305729, "longitude": 14.7161754, "elevation": 93.0, "source": "osm", "_tags": {"ele": "93", "natural": "peak"}}, {"name": "Stanišće", "latitude": 44.8187015, "longitude": 14.7213129, "elevation": 146.0, "source": "osm", "_tags": {"ele": "146", "name": "Stanišće", "natural": "peak", "source": "geoportal.dgu.hr: TK25 (Topografska karta 1:25000)"}}, {"name": "Sklan", "latitude": 44.7949133, "longitude": 14.7192985, "elevation": 107.0, "source": "osm", "_tags": {"ele": "107", "name": "Sklan", "natural": "peak"}}, {"name": "Vršanov vrh", "latitude": 44.7920342, "longitude": 14.7259464, "elevation": 107.0, "source": "osm", "_tags": {"ele": "107", "name": "Vršanov vrh", "natural": "peak"}}, {"name": "Vela Straža", "latitude": 44.4563151, "longitude": 14.555962, "elevation": 91.0, "source": "osm", "_tags": {"ele": "91", "name": "Vela Straža", "natural": "peak"}}, {"name": "Veli Kijac", "latitude": 45.2358426, "longitude": 14.5374284, "elevation": 25.0, "source": "osm", "_tags": {"ele": "25", "name": "Veli Kijac", "natural": "peak"}}, {"name": "", "latitude": 44.8278792, "longitude": 14.7376196, "elevation": 38.0, "source": "osm", "_tags": {"ele": "38", "natural": "peak"}}, {"name": "Kruna", "latitude": 44.8136001, "longitude": 14.7378827, "elevation": 135.0, "source": "osm", "_tags": {"ele": "135", "name": "Kruna", "natural": "peak"}}, {"name": "Koziji vrh", "latitude": 44.7155982, "longitude": 14.8381503, "elevation": 119.0, "source": "osm", "_tags": {"ele": "119", "name": "Koziji vrh", "natural": "peak"}}, {"name": "", "latitude": 44.7087957, "longitude": 14.8448849, "elevation": 105.0, "source": "osm", "_tags": {"ele": "105", "natural": "peak"}}, {"name": "", "latitude": 44.7165123, "longitude": 14.8643887, "elevation": 69.0, "source": "osm", "_tags": {"ele": "69", "natural": "peak"}}, {"name": "Bobrine", "latitude": 44.9951273, "longitude": 14.1220328, "elevation": 449.1, "source": "osm", "_tags": {"ele": "449.1", "name": "Bobrine", "natural": "peak"}}, {"name": "Vrh peći", "latitude": 45.2815681, "longitude": 14.6432998, "elevation": 808.0, "source": "osm", "_tags": {"ele": "808", "name": "Vrh peći", "natural": "peak"}}, {"name": "Draževski vrh", "latitude": 45.2903505, "longitude": 14.6347769, "elevation": 798.0, "source": "osm", "_tags": {"ele": "798", "name": "Draževski vrh", "natural": "peak"}}, {"name": "Crni vrh", "latitude": 45.3766766, "longitude": 14.2445044, "elevation": 1031.0, "source": "osm", "_tags": {"ele": "1031", "name": "Crni vrh", "natural": "peak"}}, {"name": "Vodička griža", "latitude": 45.390432, "longitude": 14.2058425, "elevation": 1144.0, "source": "osm", "_tags": {"ele": "1144", "name": "Vodička griža", "natural": "peak"}}, {"name": "Crkvina", "latitude": 44.8044175, "longitude": 14.740026, "elevation": 147.0, "source": "osm", "_tags": {"ele": "147", "name": "Crkvina", "natural": "peak"}}, {"name": "Findrlov brih", "latitude": 45.2689519, "longitude": 13.9189803, "elevation": 470.0, "source": "osm", "_tags": {"ele": "470", "name": "Findrlov brih", "natural": "peak"}}, {"name": "Meja", "latitude": 45.40413, "longitude": 13.9220166, "elevation": 317.0, "source": "osm", "_tags": {"ele": "317", "name": "Meja", "natural": "peak"}}, {"name": "Brdo", "latitude": 45.2929106, "longitude": 14.2171414, "elevation": 907.0, "source": "osm", "_tags": {"ele": "907", "name": "Brdo", "natural": "peak"}}, {"name": "Voljačić", "latitude": 45.3116073, "longitude": 14.2295595, "elevation": 865.8, "source": "osm", "_tags": {"ele": "865.8", "name": "Voljačić", "natural": "peak"}}, {"name": "Stepanovac", "latitude": 45.295366, "longitude": 14.2263081, "elevation": 778.0, "source": "osm", "_tags": {"ele": "778", "name": "Stepanovac", "natural": "peak"}}, {"name": "Jazvina", "latitude": 45.3028355, "longitude": 14.2107493, "elevation": 1110.0, "source": "osm", "_tags": {"ele": "1110", "name": "Jazvina", "natural": "peak"}}, {"name": "", "latitude": 44.8735033, "longitude": 14.7413885, "elevation": 15.0, "source": "osm", "_tags": {"ele": "15", "natural": "peak", "source": "geoportal.dgu.hr: TK25 (Topografska karta 1:25000)"}}, {"name": "", "latitude": 44.865603, "longitude": 14.7664404, "elevation": 208.0, "source": "osm", "_tags": {"ele": "208", "natural": "peak", "source": "geoportal.dgu.hr: TK25 (Topografska karta 1:25000)"}}, {"name": "", "latitude": 44.8649643, "longitude": 14.7524499, "elevation": 172.0, "source": "osm", "_tags": {"ele": "172", "natural": "peak", "source": "geoportal.dgu.hr: TK25 (Topografska karta 1:25000)"}}, {"name": "", "latitude": 44.8478369, "longitude": 14.8299551, "elevation": 153.0, "source": "osm", "_tags": {"ele": "153", "natural": "peak", "source": "geoportal.dgu.hr: TK25 (Topografska karta 1:25000)"}}, {"name": "", "latitude": 44.847776, "longitude": 14.8184752, "elevation": 107.0, "source": "osm", "_tags": {"ele": "107", "natural": "peak", "source": "geoportal.dgu.hr: TK25 (Topografska karta 1:25000)"}}, {"name": "Podine", "latitude": 44.7812563, "longitude": 14.6934843, "elevation": 84.8, "source": "osm", "_tags": {"ele": "84.8", "name": "Podine", "natural": "peak", "source": "geoportal.dgu.hr: TK25 (Topografska karta 1:25000)"}}, {"name": "", "latitude": 44.7855207, "longitude": 14.6788716, "elevation": 67.7, "source": "osm", "_tags": {"ele": "67.7", "natural": "peak", "source": "geoportal.dgu.hr: TK25 (Topografska karta 1:25000)"}}, {"name": "", "latitude": 44.7660236, "longitude": 14.7329449, "elevation": 52.2, "source": "osm", "_tags": {"ele": "52.2", "natural": "peak", "source": "geoportal.dgu.hr: TK25 (Topografska karta 1:25000)"}}, {"name": "Galijola", "latitude": 44.7347231, "longitude": 14.785366, "elevation": 54.8, "source": "osm", "_tags": {"ele": "54.8", "name": "Galijola", "natural": "peak", "source": "geoportal.dgu.hr: TK25 (Topografska karta 1:25000)"}}, {"name": "Stani", "latitude": 44.7159559, "longitude": 14.8120594, "elevation": 82.0, "source": "osm", "_tags": {"ele": "82", "name": "Stani", "natural": "peak", "source": "geoportal.dgu.hr: TK25 (Topografska karta 1:25000)"}}, {"name": "Samotorac", "latitude": 44.6933541, "longitude": 14.8353624, "elevation": 117.2, "source": "osm", "_tags": {"ele": "117.2", "name": "Samotorac", "natural": "peak", "source": "geoportal.dgu.hr: TK25 (Topografska karta 1:25000)"}}, {"name": "Veli vrh", "latitude": 44.7077215, "longitude": 14.8228955, "elevation": 113.9, "source": "osm", "_tags": {"ele": "113.9", "name": "Veli vrh", "natural": "peak", "source": "geoportal.dgu.hr: TK25 (Topografska karta 1:25000)", "wikidata": "Q25287019"}}, {"name": "Stražica", "latitude": 44.7285582, "longitude": 14.832349, "elevation": 155.5, "source": "osm", "_tags": {"ele": "155.5", "name": "Stražica", "natural": "peak", "source": "geoportal.dgu.hr: TK25 (Topografska karta 1:25000)"}}, {"name": "", "latitude": 44.7320339, "longitude": 14.8422625, "elevation": 125.0, "source": "osm", "_tags": {"ele": "125", "natural": "peak", "source": "geoportal.dgu.hr: TK25 (Topografska karta 1:25000)"}}, {"name": "", "latitude": 44.7410727, "longitude": 14.8247101, "elevation": 197.0, "source": "osm", "_tags": {"ele": "197", "natural": "peak", "source": "geoportal.dgu.hr: TK25 (Topografska karta 1:25000)"}}, {"name": "Zvonici", "latitude": 44.7424596, "longitude": 14.8326065, "elevation": 242.1, "source": "osm", "_tags": {"ele": "242.1", "name": "Zvonici", "natural": "peak", "source": "geoportal.dgu.hr: TK25 (Topografska karta 1:25000)"}}, {"name": "Portoplan", "latitude": 44.7470012, "longitude": 14.8251392, "elevation": 264.0, "source": "osm", "_tags": {"ele": "264", "name": "Portoplan", "natural": "peak", "source": "geoportal.dgu.hr: TK25 (Topografska karta 1:25000)"}}, {"name": "", "latitude": 44.7540174, "longitude": 14.8272943, "elevation": 130.0, "source": "osm", "_tags": {"ele": "130", "natural": "peak", "source": "geoportal.dgu.hr: TK25 (Topografska karta 1:25000)"}}, {"name": "Srednjak", "latitude": 44.7555196, "longitude": 14.8185088, "elevation": 330.7, "source": "osm", "_tags": {"ele": "330.7", "name": "Srednjak", "natural": "peak", "source": "geoportal.dgu.hr: TK25 (Topografska karta 1:25000)"}}, {"name": "Dravne", "latitude": 44.7779359, "longitude": 14.7825765, "elevation": 388.0, "source": "osm", "_tags": {"ele": "388", "name": "Dravne", "natural": "peak", "source": "geoportal.dgu.hr: TK25 (Topografska karta 1:25000)"}}, {"name": "Lipovac", "latitude": 44.7799312, "longitude": 14.7724485, "elevation": 326.0, "source": "osm", "_tags": {"ele": "326", "name": "Lipovac", "natural": "peak", "source": "geoportal.dgu.hr: TK25 (Topografska karta 1:25000)"}}, {"name": "Paščar", "latitude": 44.7959368, "longitude": 14.7520423, "elevation": 147.0, "source": "osm", "_tags": {"ele": "147", "name": "Paščar", "natural": "peak", "source": "geoportal.dgu.hr: TK25 (Topografska karta 1:25000)"}}, {"name": "Stanina", "latitude": 44.7990734, "longitude": 14.7468495, "elevation": 139.0, "source": "osm", "_tags": {"ele": "139", "name": "Stanina", "natural": "peak", "source": "geoportal.dgu.hr: TK25 (Topografska karta 1:25000)"}}, {"name": "", "latitude": 44.8115878, "longitude": 14.7276664, "elevation": 138.0, "source": "osm", "_tags": {"ele": "138", "natural": "peak", "source": "geoportal.dgu.hr: TK25 (Topografska karta 1:25000)"}}, {"name": "Sorinj", "latitude": 44.8289391, "longitude": 14.6970248, "elevation": 126.0, "source": "osm", "_tags": {"ele": "126", "name": "Sorinj", "natural": "peak", "source": "geoportal.dgu.hr: TK25 (Topografska karta 1:25000)"}}, {"name": "Gušćaz", "latitude": 44.8260476, "longitude": 14.7099209, "elevation": 107.0, "source": "osm", "_tags": {"ele": "107", "name": "Gušćaz", "natural": "peak", "source": "geoportal.dgu.hr: TK25 (Topografska karta 1:25000)"}}, {"name": "Ćun", "latitude": 44.8196705, "longitude": 14.7145772, "elevation": 42.0, "source": "osm", "_tags": {"ele": "42", "name": "Ćun", "natural": "peak", "source": "geoportal.dgu.hr: TK25 (Topografska karta 1:25000)"}}, {"name": "", "latitude": 44.8419491, "longitude": 14.680438, "elevation": 32.8, "source": "osm", "_tags": {"ele": "32.8", "natural": "peak", "source": "geoportal.dgu.hr: TK25 (Topografska karta 1:25000)"}}, {"name": "", "latitude": 44.8270672, "longitude": 14.7568917, "elevation": 21.0, "source": "osm", "_tags": {"ele": "21", "natural": "peak", "source": "geoportal.dgu.hr: TK25 (Topografska karta 1:25000)"}}, {"name": "", "latitude": 44.840032, "longitude": 14.7580129, "elevation": 42.0, "source": "osm", "_tags": {"ele": "42", "natural": "peak", "source": "geoportal.dgu.hr: TK25 (Topografska karta 1:25000)"}}, {"name": "Plantur", "latitude": 44.627269, "longitude": 14.4575121, "elevation": 85.2, "source": "osm", "_tags": {"ele": "85.2", "name": "Plantur", "natural": "peak", "source": "geoportal.dgu.hr: TK25 (Topografska karta 1:25000)"}}, {"name": "Straže", "latitude": 44.6985117, "longitude": 14.3780624, "elevation": 85.2, "source": "osm", "_tags": {"ele": "85.2", "name": "Straže", "natural": "peak", "source": "geoportal.dgu.hr: TK25 (Topografska karta 1:25000)"}}, {"name": "", "latitude": 44.7265523, "longitude": 14.4914174, "elevation": 13.4, "source": "osm", "_tags": {"ele": "13.4", "natural": "peak"}}, {"name": "Pristavnica", "latitude": 44.5008214, "longitude": 14.5583439, "elevation": 30.3, "source": "osm", "_tags": {"ele": "30.3", "name": "Pristavnica", "natural": "peak", "source": "geoportal.dgu.hr: TK25 (Topografska karta 1:25000)"}}, {"name": "Anuncijata", "latitude": 44.5254717, "longitude": 14.4509911, "elevation": 35.0, "source": "osm", "_tags": {"ele": "35", "name": "Anuncijata", "natural": "peak", "source": "geoportal.dgu.hr: TK25 (Topografska karta 1:25000)"}}, {"name": "Čikat", "latitude": 44.5316211, "longitude": 14.4465709, "elevation": 29.2, "source": "osm", "_tags": {"ele": "29.2", "name": "Čikat", "natural": "peak", "source": "geoportal.dgu.hr: TK25 (Topografska karta 1:25000)"}}, {"name": "Kuši", "latitude": 44.7336713, "longitude": 14.3958449, "elevation": 94.0, "source": "osm", "_tags": {"ele": "94", "name": "Kuši", "natural": "peak", "source": "geoportal.dgu.hr: TK25 (Topografska karta 1:25000)"}}, {"name": "", "latitude": 44.7514574, "longitude": 14.3791938, "elevation": 100.7, "source": "osm", "_tags": {"ele": "100.7", "natural": "peak", "source": "geoportal.dgu.hr: TK25 (Topografska karta 1:25000)"}}, {"name": "Kuki", "latitude": 45.0045737, "longitude": 14.073251, "elevation": 112.0, "source": "osm", "_tags": {"ele": "112", "name": "Kuki", "natural": "peak"}}, {"name": "Golaš", "latitude": 45.4143444, "longitude": 14.1750841, "elevation": 1128.0, "source": "osm", "_tags": {"ele": "1128", "name": "Golaš", "natural": "peak"}}, {"name": "Oštri vrh", "latitude": 45.410897, "longitude": 14.1813782, "elevation": 1162.0, "source": "osm", "_tags": {"ele": "1162", "name": "Oštri vrh", "natural": "peak"}}, {"name": "Javornik", "latitude": 45.4203164, "longitude": 14.1516706, "elevation": 1052.0, "source": "osm", "_tags": {"ele": "1052", "name": "Javornik", "natural": "peak"}}, {"name": "Banica", "latitude": 45.4244704, "longitude": 14.1613181, "elevation": 1005.0, "source": "osm", "_tags": {"ele": "1005", "name": "Banica", "natural": "peak"}}, {"name": "Osapna", "latitude": 45.4152449, "longitude": 14.1592542, "elevation": 1075.0, "source": "osm", "_tags": {"ele": "1075", "name": "Osapna", "natural": "peak", "wikidata": "Q25291747"}}, {"name": "Vrh studenca", "latitude": 45.4196918, "longitude": 14.1885997, "elevation": 981.0, "source": "osm", "_tags": {"ele": "981", "name": "Vrh studenca", "natural": "peak"}}, {"name": "Škrljavnik", "latitude": 45.3759637, "longitude": 14.1701688, "elevation": 1067.0, "source": "osm", "_tags": {"ele": "1067", "name": "Škrljavnik", "natural": "peak"}}, {"name": "Pilj", "latitude": 45.4235027, "longitude": 14.000085, "elevation": 555.9, "source": "osm", "_tags": {"ele": "555.9", "name": "Pilj", "natural": "peak"}}, {"name": "Gradina", "latitude": 45.129852, "longitude": 14.8357995, "elevation": 381.0, "source": "osm", "_tags": {"ele": "381", "name": "Gradina", "natural": "peak"}}, {"name": "Lotovo", "latitude": 45.0345745, "longitude": 14.1178232, "elevation": 526.0, "source": "osm", "_tags": {"ele": "526", "name": "Lotovo", "natural": "peak", "source": "dgu.hr:HOK"}}, {"name": "", "latitude": 45.2832024, "longitude": 14.2095887, "elevation": 1240.0, "source": "osm", "_tags": {"ele": "1240", "natural": "peak"}}, {"name": "", "latitude": 45.3218726, "longitude": 14.2189524, "elevation": 1110.0, "source": "osm", "_tags": {"ele": "1110", "natural": "peak"}}, {"name": "Marećica", "latitude": 45.4299378, "longitude": 14.0785289, "elevation": 790.0, "source": "osm", "_tags": {"ele": "790", "name": "Marećica", "natural": "peak"}}, {"name": "Mali Gradec", "latitude": 45.0550534, "longitude": 14.7236743, "elevation": 194.0, "source": "osm", "_tags": {"ele": "194", "name": "Mali Gradec", "natural": "peak"}}, {"name": "Negrit", "latitude": 44.9791411, "longitude": 14.6415734, "elevation": 197.0, "source": "osm", "_tags": {"ele": "197", "name": "Negrit", "natural": "peak"}}, {"name": "Dretilj", "latitude": 45.0186998, "longitude": 14.7133333, "elevation": 394.0, "source": "osm", "_tags": {"ele": "394", "name": "Dretilj", "natural": "peak"}}, {"name": "Sveti Bartolomej", "latitude": 44.9792424, "longitude": 14.4226789, "elevation": 314.0, "source": "osm", "_tags": {"ele": "314", "name": "Sveti Bartolomej", "name:it": "S. Bartolomeo", "natural": "peak"}}, {"name": "Konfin", "latitude": 44.7634592, "longitude": 14.4445017, "elevation": 202.0, "source": "osm", "_tags": {"ele": "202", "name": "Konfin", "natural": "peak"}}, {"name": "Šiljac", "latitude": 44.7950692, "longitude": 14.4213898, "elevation": 196.0, "source": "osm", "_tags": {"ele": "196", "name": "Šiljac", "name:it": "Sillaz", "natural": "peak"}}, {"name": "Ciprijan", "latitude": 44.6638978, "longitude": 14.4984824, "elevation": 74.0, "source": "osm", "_tags": {"ele": "74", "name": "Ciprijan", "natural": "peak"}}, {"name": "Kaštel", "latitude": 44.5722352, "longitude": 14.4172154, "elevation": 82.0, "source": "osm", "_tags": {"ele": "82", "name": "Kaštel", "name:it": "Castello", "natural": "peak"}}, {"name": "Tovar", "latitude": 44.5650023, "longitude": 14.4372386, "elevation": 116.0, "source": "osm", "_tags": {"ele": "116", "name": "Tovar", "name:it": "Asino", "natural": "peak"}}, {"name": "Stan", "latitude": 44.5796244, "longitude": 14.391114, "elevation": 110.0, "source": "osm", "_tags": {"ele": "110", "name": "Stan", "natural": "peak"}}, {"name": "Podgled", "latitude": 44.4948829, "longitude": 14.5167153, "elevation": 242.0, "source": "osm", "_tags": {"ele": "242", "name": "Podgled", "natural": "peak"}}, {"name": "Kalić", "latitude": 45.1545879, "longitude": 14.1861815, "elevation": 712.2, "source": "osm", "_tags": {"ele": "712.2", "name": "Kalić", "natural": "peak"}}, {"name": "Lome", "latitude": 45.4156614, "longitude": 14.2576401, "elevation": 621.0, "source": "osm", "_tags": {"ele": "621", "name": "Lome", "natural": "peak", "wikidata": "Q25291648"}}, {"name": "Jelenjak", "latitude": 45.4195699, "longitude": 14.2429993, "elevation": 665.0, "source": "osm", "_tags": {"ele": "665", "name": "Jelenjak", "natural": "peak"}}, {"name": "Vela Straža", "latitude": 44.8032473, "longitude": 14.7553343, "elevation": 173.0, "source": "osm", "_tags": {"ele": "173", "name": "Vela Straža", "natural": "peak"}}, {"name": "Majevi vrh", "latitude": 45.3856109, "longitude": 14.3400971, "elevation": 411.0, "source": "osm", "_tags": {"ele": "411", "name": "Majevi vrh", "natural": "peak"}}, {"name": "M. Petehovac", "latitude": 45.3703396, "longitude": 14.8262013, "elevation": 1106.0, "source": "osm", "_tags": {"ele": "1106", "name": "M. Petehovac", "natural": "peak", "summit:register": "yes"}}, {"name": "Dedinski vrh", "latitude": 45.3712359, "longitude": 14.8672826, "elevation": 1061.0, "source": "osm", "_tags": {"ele": "1061", "name": "Dedinski vrh", "natural": "peak"}}, {"name": "Vela Straža", "latitude": 44.5887083, "longitude": 14.299495, "elevation": 59.0, "source": "osm", "_tags": {"ele": "59", "name": "Vela Straža", "natural": "peak", "wikidata": "Q25288702"}}, {"name": "Vrh", "latitude": 44.9714869, "longitude": 14.4286791, "elevation": 346.0, "source": "osm", "_tags": {"ele": "346", "name": "Vrh", "natural": "peak"}}, {"name": "Turan", "latitude": 44.6146764, "longitude": 14.2713292, "elevation": 127.0, "source": "osm", "_tags": {"ele": "127", "name": "Turan", "natural": "peak", "source": "DGU-TK25"}}, {"name": "Pomoć", "latitude": 44.6236258, "longitude": 14.262938, "elevation": 119.0, "source": "osm", "_tags": {"ele": "119", "name": "Pomoć", "natural": "peak", "source": "DGU-TK25"}}, {"name": "Kambunara", "latitude": 44.649086, "longitude": 14.2432826, "elevation": 91.0, "source": "osm", "_tags": {"ele": "91", "name": "Kambunara", "natural": "peak", "source": "DGU-TK25"}}, {"name": "Krivenje", "latitude": 44.6787361, "longitude": 14.2652294, "elevation": 76.0, "source": "osm", "_tags": {"ele": "76", "name": "Krivenje", "natural": "peak", "source": "DGU-TK25"}}, {"name": "Ljubimer", "latitude": 44.9504129, "longitude": 14.7507548, "elevation": 220.0, "source": "osm", "_tags": {"ele": "220", "name": "Ljubimer", "natural": "peak"}}, {"name": "Glavičica", "latitude": 45.3271659, "longitude": 14.8176422, "elevation": 848.0, "source": "osm", "_tags": {"ele": "848", "name": "Glavičica", "natural": "peak"}}, {"name": "Gračišće", "latitude": 44.7672953, "longitude": 14.4145694, "elevation": 192.0, "source": "osm", "_tags": {"ele": "192", "name": "Gračišće", "natural": "peak"}}, {"name": "Kuk", "latitude": 45.4275105, "longitude": 13.9867276, "elevation": 531.0, "source": "osm", "_tags": {"ele": "531", "name": "Kuk", "natural": "peak"}}, {"name": "Veli kanat", "latitude": 44.6336843, "longitude": 14.8078375, "elevation": 96.0, "source": "osm", "_tags": {"ele": "96", "name": "Veli kanat", "natural": "peak"}}, {"name": "Gradac", "latitude": 44.6443791, "longitude": 14.7985713, "elevation": 138.0, "source": "osm", "_tags": {"ele": "138", "name": "Gradac", "natural": "peak", "wikidata": "Q25297270"}}, {"name": "Brdo", "latitude": 44.6226753, "longitude": 14.8063092, "elevation": 52.7, "source": "osm", "_tags": {"ele": "52.7", "name": "Brdo", "natural": "peak"}}, {"name": "Kamenjak", "latitude": 44.602546, "longitude": 14.8292687, "elevation": 51.0, "source": "osm", "_tags": {"ele": "51", "name": "Kamenjak", "natural": "peak"}}, {"name": "Veli Vrh", "latitude": 44.5940758, "longitude": 14.8562275, "elevation": 131.0, "source": "osm", "_tags": {"ele": "131", "name": "Veli Vrh", "natural": "peak"}}, {"name": "Vrtić", "latitude": 44.5503041, "longitude": 14.8760266, "elevation": 16.0, "source": "osm", "_tags": {"ele": "16", "name": "Vrtić", "natural": "peak"}}, {"name": "", "latitude": 45.1406785, "longitude": 14.3399615, "elevation": 322.0, "source": "osm", "_tags": {"ele": "322", "natural": "peak"}}, {"name": "Halm", "latitude": 45.1133672, "longitude": 14.3020659, "elevation": 432.0, "source": "osm", "_tags": {"ele": "432", "name": "Halm", "natural": "peak"}}, {"name": "Novograjca", "latitude": 45.1317797, "longitude": 14.314345, "elevation": 392.0, "source": "osm", "_tags": {"ele": "392", "name": "Novograjca", "natural": "peak"}}, {"name": "Mali vrh", "latitude": 45.1238937, "longitude": 14.3166513, "elevation": 455.0, "source": "osm", "_tags": {"ele": "455", "name": "Mali vrh", "natural": "peak"}}, {"name": "Veli vrh", "latitude": 45.108996, "longitude": 14.3261849, "elevation": 567.0, "source": "osm", "_tags": {"ele": "567", "name": "Veli vrh", "natural": "peak"}}, {"name": "", "latitude": 45.0992869, "longitude": 14.3324399, "elevation": 600.0, "source": "osm", "_tags": {"ele": "600", "natural": "peak"}}, {"name": "Orline", "latitude": 45.0946184, "longitude": 14.3347039, "elevation": 604.0, "source": "osm", "_tags": {"ele": "604", "name": "Orline", "natural": "peak"}}, {"name": "Mukova", "latitude": 45.0724815, "longitude": 14.3503218, "elevation": 625.0, "source": "osm", "_tags": {"ele": "625", "name": "Mukova", "natural": "peak"}}, {"name": "", "latitude": 44.9754274, "longitude": 14.5067564, "elevation": 194.0, "source": "osm", "_tags": {"ele": "194", "natural": "peak"}}, {"name": "Golo brdo", "latitude": 45.2207699, "longitude": 14.6508091, "elevation": 302.0, "source": "osm", "_tags": {"ele": "302", "name": "Golo brdo", "natural": "peak"}}, {"name": "Grohotnica", "latitude": 45.1653302, "longitude": 14.7367728, "elevation": 330.3, "source": "osm", "_tags": {"ele": "330.3", "name": "Grohotnica", "natural": "peak"}}, {"name": "Klašnica", "latitude": 45.257645, "longitude": 14.6956332, "elevation": 954.0, "source": "osm", "_tags": {"ele": "954", "name": "Klašnica", "natural": "peak"}}, {"name": "Kacalj", "latitude": 45.1742242, "longitude": 14.760439, "elevation": 510.7, "source": "osm", "_tags": {"ele": "510.7", "name": "Kacalj", "natural": "peak"}}, {"name": "Kanculova glava", "latitude": 45.2459082, "longitude": 14.7397971, "elevation": 1120.1, "source": "osm", "_tags": {"ele": "1120.1", "name": "Kanculova glava", "natural": "peak"}}, {"name": "Zebar", "latitude": 45.24774, "longitude": 14.674792, "elevation": 878.7, "source": "osm", "_tags": {"ele": "878.7", "name": "Zebar", "natural": "peak"}}, {"name": "Mali Kobiljak", "latitude": 45.2548825, "longitude": 14.7146831, "elevation": 1081.6, "source": "osm", "_tags": {"ele": "1081.6", "name": "Mali Kobiljak", "natural": "peak"}}, {"name": "Stipač", "latitude": 45.2250121, "longitude": 14.722198, "elevation": 873.3, "source": "osm", "_tags": {"ele": "873.3", "name": "Stipač", "natural": "peak"}}, {"name": "Crni vrh", "latitude": 45.2735531, "longitude": 14.6914832, "elevation": 948.3, "source": "osm", "_tags": {"ele": "948.3", "name": "Crni vrh", "natural": "peak"}}, {"name": "Kozak", "latitude": 45.2341867, "longitude": 14.6931795, "elevation": 701.0, "source": "osm", "_tags": {"ele": "701", "name": "Kozak", "natural": "peak"}}, {"name": "Krušvica", "latitude": 45.223729, "longitude": 14.7581836, "elevation": 1027.0, "source": "osm", "_tags": {"ele": "1027", "name": "Krušvica", "natural": "peak"}}, {"name": "Franjeni", "latitude": 45.2384568, "longitude": 14.7191877, "elevation": 883.7, "source": "osm", "_tags": {"ele": "883.7", "name": "Franjeni", "natural": "peak"}}, {"name": "Martin", "latitude": 45.2293806, "longitude": 14.7202883, "elevation": 837.0, "source": "osm", "_tags": {"ele": "837", "name": "Martin", "natural": "peak"}}, {"name": "Čerešljevo", "latitude": 45.2080677, "longitude": 14.7440943, "elevation": 856.6, "source": "osm", "_tags": {"ele": "856.6", "name": "Čerešljevo", "natural": "peak"}}, {"name": "Drenovac", "latitude": 45.2657619, "longitude": 14.6605506, "elevation": 842.4, "source": "osm", "_tags": {"ele": "842.4", "name": "Drenovac", "natural": "peak"}}, {"name": "Mali Tić", "latitude": 45.2330384, "longitude": 14.7078404, "elevation": 852.0, "source": "osm", "_tags": {"ele": "852", "name": "Mali Tić", "natural": "peak"}}, {"name": "Brikvičko brdo", "latitude": 45.2334869, "longitude": 14.7337908, "elevation": 964.6, "source": "osm", "_tags": {"ele": "964.6", "name": "Brikvičko brdo", "natural": "peak"}}, {"name": "", "latitude": 45.2155674, "longitude": 14.7303066, "elevation": 785.5, "source": "osm", "_tags": {"ele": "785.5", "natural": "peak"}}, {"name": "Stojač", "latitude": 45.2254356, "longitude": 14.7477435, "elevation": 1015.3, "source": "osm", "_tags": {"ele": "1015.3", "name": "Stojač", "natural": "peak"}}, {"name": "Pališin", "latitude": 45.18766, "longitude": 14.7645049, "elevation": 760.8, "source": "osm", "_tags": {"ele": "760.8", "name": "Pališin", "natural": "peak"}}, {"name": "Ugljevarica", "latitude": 45.2103264, "longitude": 14.7723965, "elevation": 925.0, "source": "osm", "_tags": {"ele": "925", "name": "Ugljevarica", "natural": "peak"}}, {"name": "Netermnjak", "latitude": 45.1959145, "longitude": 14.7642197, "elevation": 887.4, "source": "osm", "_tags": {"ele": "887.4", "name": "Netermnjak", "natural": "peak", "wikidata": "Q25291643"}}, {"name": "Siče", "latitude": 45.2561219, "longitude": 14.7485566, "elevation": 890.0, "source": "osm", "_tags": {"ele": "890", "name": "Siče", "natural": "peak"}}, {"name": "Kurilovac", "latitude": 45.259295, "longitude": 14.6631838, "elevation": 805.1, "source": "osm", "_tags": {"ele": "805.1", "name": "Kurilovac", "natural": "peak"}}, {"name": "Vršina", "latitude": 45.255276, "longitude": 14.7604356, "elevation": 892.9, "source": "osm", "_tags": {"ele": "892.9", "name": "Vršina", "natural": "peak"}}, {"name": "Vrški", "latitude": 45.1195025, "longitude": 14.872352, "elevation": 591.8, "source": "osm", "_tags": {"ele": "591.8", "name": "Vrški", "natural": "peak"}}, {"name": "V. Stražište", "latitude": 45.1277432, "longitude": 14.8647357, "elevation": 630.3, "source": "osm", "_tags": {"ele": "630.3", "name": "V. Stražište", "natural": "peak"}}, {"name": "Kita", "latitude": 45.1008289, "longitude": 14.8792653, "elevation": 656.6, "source": "osm", "_tags": {"ele": "656.6", "name": "Kita", "natural": "peak"}}, {"name": "Veliki vrh", "latitude": 45.0700796, "longitude": 14.8845746, "elevation": 511.9, "source": "osm", "_tags": {"ele": "511.9", "name": "Veliki vrh", "natural": "peak"}}, {"name": "Duduk", "latitude": 45.1094288, "longitude": 14.8769435, "elevation": 621.1, "source": "osm", "_tags": {"ele": "621.1", "name": "Duduk", "natural": "peak"}}, {"name": "Veliki Zmijnjak", "latitude": 45.1628813, "longitude": 14.8492146, "elevation": 752.6, "source": "osm", "_tags": {"ele": "752.6", "name": "Veliki Zmijnjak", "natural": "peak"}}, {"name": "Lipnik", "latitude": 45.1506576, "longitude": 14.873132, "elevation": 859.1, "source": "osm", "_tags": {"ele": "859.1", "name": "Lipnik", "natural": "peak"}}, {"name": "M. Lipnik", "latitude": 45.1495961, "longitude": 14.88291, "elevation": 887.0, "source": "osm", "_tags": {"ele": "887", "name": "M. Lipnik", "natural": "peak"}}, {"name": "Markovica", "latitude": 45.1405285, "longitude": 14.8830108, "elevation": 764.8, "source": "osm", "_tags": {"ele": "764.8", "name": "Markovica", "natural": "peak"}}, {"name": "Kuk", "latitude": 45.079747, "longitude": 14.8706301, "elevation": 318.9, "source": "osm", "_tags": {"ele": "318.9", "name": "Kuk", "natural": "peak"}}, {"name": "Babin vrh", "latitude": 45.1838517, "longitude": 14.7968498, "elevation": 776.0, "source": "osm", "_tags": {"ele": "776", "name": "Babin vrh", "natural": "peak"}}, {"name": "Rujica", "latitude": 45.2065029, "longitude": 14.8509594, "elevation": 1078.1, "source": "osm", "_tags": {"ele": "1078.1", "name": "Rujica", "natural": "peak"}}, {"name": "Golić", "latitude": 45.2133803, "longitude": 14.8390715, "elevation": 1055.3, "source": "osm", "_tags": {"ele": "1055.3", "name": "Golić", "natural": "peak"}}, {"name": "Duševlaka", "latitude": 45.1990962, "longitude": 14.7929242, "elevation": 916.7, "source": "osm", "_tags": {"ele": "916.7", "name": "Duševlaka", "natural": "peak"}}, {"name": "Rape", "latitude": 45.1822552, "longitude": 14.8078497, "elevation": 833.2, "source": "osm", "_tags": {"ele": "833.2", "name": "Rape", "natural": "peak"}}, {"name": "Veliki Smolnik", "latitude": 45.2106781, "longitude": 14.8770604, "elevation": 1279.1, "source": "osm", "_tags": {"ele": "1279.1", "name": "Veliki Smolnik", "natural": "peak"}}, {"name": "Vjeternica", "latitude": 45.2011936, "longitude": 14.8106498, "elevation": 917.3, "source": "osm", "_tags": {"ele": "917.3", "name": "Vjeternica", "natural": "peak"}}, {"name": "Privija", "latitude": 45.1749272, "longitude": 14.8142644, "elevation": 775.3, "source": "osm", "_tags": {"ele": "775.3", "name": "Privija", "natural": "peak"}}, {"name": "Šepin vrh", "latitude": 45.3838537, "longitude": 14.268108, "elevation": 729.0, "source": "osm", "_tags": {"ele": "729", "name": "Šepin vrh", "natural": "peak"}}, {"name": "Veliki Kanat", "latitude": 44.5995412, "longitude": 14.8490186, "elevation": 101.0, "source": "osm", "_tags": {"ele": "101", "name": "Veliki Kanat", "natural": "peak"}}, {"name": "Golubovac", "latitude": 45.3697665, "longitude": 14.2410612, "elevation": 1017.0, "source": "osm", "_tags": {"ele": "1017", "name": "Golubovac", "natural": "peak"}}, {"name": "Mišnjak", "latitude": 44.6595162, "longitude": 14.2771163, "elevation": 52.0, "source": "osm", "_tags": {"ele": "52", "name": "Mišnjak", "natural": "peak", "source": "DGU-TK25"}}, {"name": "Kujni", "latitude": 44.6573796, "longitude": 14.2625948, "elevation": 43.0, "source": "osm", "_tags": {"ele": "43", "name": "Kujni", "natural": "peak", "source": "DGU-TK25"}}, {"name": "Vela straža", "latitude": 44.6481956, "longitude": 14.2609636, "elevation": 43.0, "source": "osm", "_tags": {"ele": "43", "name": "Vela straža", "natural": "peak", "source": "DGU-TK25"}}, {"name": "Križ", "latitude": 44.6447353, "longitude": 14.2465217, "elevation": 109.0, "source": "osm", "_tags": {"ele": "109", "name": "Križ", "natural": "peak", "source": "DGU-TK25", "wikidata": "Q25295515"}}, {"name": "Sičin", "latitude": 44.6282942, "longitude": 14.2606652, "elevation": 108.0, "source": "osm", "_tags": {"ele": "108", "name": "Sičin", "natural": "peak", "source": "DGU-TK25"}}, {"name": "Arbit", "latitude": 44.60891, "longitude": 14.2777727, "elevation": 75.0, "source": "osm", "_tags": {"ele": "75", "name": "Arbit", "natural": "peak", "source": "DGU-TK25"}}, {"name": "Piket", "latitude": 45.2979346, "longitude": 14.0740649, "elevation": null, "source": "osm", "_tags": {"name": "Piket", "natural": "peak"}}, {"name": "Straževica", "latitude": 45.2897696, "longitude": 14.0761007, "elevation": 460.0, "source": "osm", "_tags": {"ele": "460", "name": "Straževica", "natural": "peak", "wikidata": "Q25288647"}}, {"name": "Sv. Kocijan", "latitude": 45.2916144, "longitude": 14.053573, "elevation": 475.0, "source": "osm", "_tags": {"ele": "475", "name": "Sv. Kocijan", "natural": "peak"}}, {"name": "Gradnji breg", "latitude": 45.284807, "longitude": 14.0586364, "elevation": 497.0, "source": "osm", "_tags": {"ele": "497", "name": "Gradnji breg", "natural": "peak"}}, {"name": "Brdo", "latitude": 45.2840062, "longitude": 14.0396219, "elevation": 465.0, "source": "osm", "_tags": {"ele": "465", "name": "Brdo", "natural": "peak"}}, {"name": "Grnčališće", "latitude": 45.2650069, "longitude": 14.0192608, "elevation": 363.0, "source": "osm", "_tags": {"ele": "363", "name": "Grnčališće", "natural": "peak"}}, {"name": "Sv. Križ", "latitude": 45.2602763, "longitude": 14.0435813, "elevation": 381.0, "source": "osm", "_tags": {"ele": "381", "name": "Sv. Križ", "natural": "peak"}}, {"name": "Gradina", "latitude": 45.2974458, "longitude": 14.2429666, "elevation": 694.0, "source": "osm", "_tags": {"ele": "694", "name": "Gradina", "natural": "peak", "source": "https://gorja.net/putopisi/313/kozuli-gradina-poklon-gorica-kozuli/"}}, {"name": "Križ", "latitude": 45.2994207, "longitude": 14.2501067, "elevation": 593.0, "source": "osm", "_tags": {"ele": "593", "name": "Križ", "natural": "peak"}}, {"name": "", "latitude": 45.3050034, "longitude": 14.2364625, "elevation": 682.0, "source": "osm", "_tags": {"ele": "682", "natural": "peak", "source": "dgu.hr Topo25"}}, {"name": "Mali Orjak", "latitude": 45.3530874, "longitude": 14.2886159, "elevation": 617.0, "source": "osm", "_tags": {"ele": "617", "name": "Mali Orjak", "natural": "peak", "source": "dgu.hr TK25"}}, {"name": "Bilišće", "latitude": 45.3042181, "longitude": 14.0683819, "elevation": 339.0, "source": "osm", "_tags": {"ele": "339", "name": "Bilišće", "natural": "peak"}}, {"name": "Orjak", "latitude": 45.2828005, "longitude": 14.1110964, "elevation": 245.0, "source": "osm", "_tags": {"ele": "245", "name": "Orjak", "natural": "peak"}}, {"name": "Linčica", "latitude": 45.2750966, "longitude": 14.0736107, "elevation": 444.0, "source": "osm", "_tags": {"ele": "444", "name": "Linčica", "natural": "peak"}}, {"name": "Sv. Duh", "latitude": 45.2694058, "longitude": 14.0706134, "elevation": 426.0, "source": "osm", "_tags": {"ele": "426", "name": "Sv. Duh", "natural": "peak"}}, {"name": "Knježovica", "latitude": 45.2718286, "longitude": 14.0483334, "elevation": 406.0, "source": "osm", "_tags": {"ele": "406", "name": "Knježovica", "natural": "peak"}}, {"name": "Vetveni vrh", "latitude": 45.3275931, "longitude": 14.2388502, "elevation": 933.0, "source": "osm", "_tags": {"ele": "933", "name": "Vetveni vrh", "natural": "peak", "source": "dgu.hr HOK"}}, {"name": "Gračišće", "latitude": 45.3704191, "longitude": 14.2948327, "elevation": 466.0, "source": "osm", "_tags": {"ele": "466", "name": "Gračišće", "natural": "peak"}}, {"name": "Klis", "latitude": 45.303483, "longitude": 14.0962029, "elevation": 265.0, "source": "osm", "_tags": {"ele": "265", "name": "Klis", "natural": "peak"}}, {"name": "Lesnički vrh", "latitude": 45.3835884, "longitude": 14.2400298, "elevation": 1028.0, "source": "osm", "_tags": {"ele": "1028", "name": "Lesnički vrh", "natural": "peak", "source": "dgu.hr HOK;dgu.hr TK25"}}, {"name": "Lipa", "latitude": 45.4047117, "longitude": 14.2245658, "elevation": 1014.0, "source": "osm", "_tags": {"ele": "1014", "name": "Lipa", "natural": "peak", "source": "dgu.hr HOK"}}, {"name": "", "latitude": 45.2015446, "longitude": 14.2055158, "elevation": 610.0, "source": "osm", "_tags": {"ele": "610", "natural": "peak"}}, {"name": "Velo Židovje", "latitude": 45.4304801, "longitude": 14.3778439, "elevation": 661.0, "source": "osm", "_tags": {"ele": "661", "name": "Velo Židovje", "natural": "peak"}}, {"name": "", "latitude": 45.4238602, "longitude": 14.3935602, "elevation": 622.0, "source": "osm", "_tags": {"ele": "622", "natural": "peak"}}, {"name": "Škrapni vrh", "latitude": 45.4003312, "longitude": 14.2589335, "elevation": 733.0, "source": "osm", "_tags": {"ele": "733", "name": "Škrapni vrh", "natural": "peak"}}, {"name": "Šija", "latitude": 45.3958529, "longitude": 14.2514521, "elevation": 811.0, "source": "osm", "_tags": {"ele": "811", "name": "Šija", "natural": "peak"}}, {"name": "Krivljanski vrh", "latitude": 45.3886031, "longitude": 14.2671229, "elevation": 719.0, "source": "osm", "_tags": {"ele": "719", "name": "Krivljanski vrh", "natural": "peak"}}, {"name": "Osojnak", "latitude": 45.3848528, "longitude": 14.282063, "elevation": 646.8, "source": "osm", "_tags": {"ele": "646.8", "name": "Osojnak", "natural": "peak"}}, {"name": "Mahen", "latitude": 45.3484936, "longitude": 14.2170699, "elevation": 1144.0, "source": "osm", "_tags": {"ele": "1144", "name": "Mahen", "natural": "peak"}}, {"name": "", "latitude": 45.4041871, "longitude": 14.3121386, "elevation": 396.2, "source": "osm", "_tags": {"ele": "396.2", "natural": "peak", "source": "dgu.hr TK25"}}, {"name": "Janjina kosa", "latitude": 45.2854332, "longitude": 14.8839101, "elevation": 1152.0, "source": "osm", "_tags": {"ele": "1152", "name": "Janjina kosa", "natural": "peak"}}, {"name": "Maj vrh", "latitude": 45.2880176, "longitude": 14.8724946, "elevation": 1268.0, "source": "osm", "_tags": {"ele": "1268", "name": "Maj vrh", "natural": "peak"}}, {"name": "Maj vrh", "latitude": 45.2910674, "longitude": 14.8693215, "elevation": 1243.0, "source": "osm", "_tags": {"ele": "1243", "name": "Maj vrh", "natural": "peak"}}, {"name": "Militar", "latitude": 45.3257205, "longitude": 14.796463, "elevation": 961.0, "source": "osm", "_tags": {"ele": "961", "name": "Militar", "natural": "peak"}}, {"name": "Japlenški vrh", "latitude": 45.3984294, "longitude": 14.7900841, "elevation": 842.0, "source": "osm", "_tags": {"ele": "842", "name": "Japlenški vrh", "natural": "peak"}}, {"name": "Planik", "latitude": 45.1801743, "longitude": 14.8704295, "elevation": 862.0, "source": "osm", "_tags": {"ele": "862", "name": "Planik", "natural": "peak"}}, {"name": "Mali Rujnik", "latitude": 45.1833509, "longitude": 14.8594288, "elevation": 907.0, "source": "osm", "_tags": {"ele": "907", "name": "Mali Rujnik", "natural": "peak"}}, {"name": "Jesenovac", "latitude": 45.0047854, "longitude": 14.3811364, "elevation": 543.0, "source": "osm", "_tags": {"ele": "543", "name": "Jesenovac", "natural": "peak"}}, {"name": "", "latitude": 45.0093603, "longitude": 14.3740935, "elevation": 509.0, "source": "osm", "_tags": {"ele": "509", "natural": "peak"}}, {"name": "Zidimar", "latitude": 44.988055, "longitude": 14.4144609, "elevation": 232.0, "source": "osm", "_tags": {"ele": "232", "name": "Zidimar", "natural": "peak"}}, {"name": "", "latitude": 45.0355469, "longitude": 14.3694201, "elevation": 483.0, "source": "osm", "_tags": {"ele": "483", "natural": "peak"}}, {"name": "Veli črni", "latitude": 45.0702203, "longitude": 14.3297751, "elevation": 528.0, "source": "osm", "_tags": {"ele": "528", "name": "Veli črni", "natural": "peak"}}, {"name": "Kućina", "latitude": 45.0747413, "longitude": 14.3179355, "elevation": 397.0, "source": "osm", "_tags": {"ele": "397", "name": "Kućina", "natural": "peak"}}, {"name": "Prašče", "latitude": 45.0797331, "longitude": 14.3240807, "elevation": 453.0, "source": "osm", "_tags": {"ele": "453", "name": "Prašče", "natural": "peak"}}, {"name": "Maslovnik", "latitude": 44.6550308, "longitude": 14.4656212, "elevation": 79.0, "source": "osm", "_tags": {"ele": "79", "name": "Maslovnik", "natural": "peak", "wikidata": "Q25291526"}}, {"name": "", "latitude": 44.92628, "longitude": 14.4603548, "elevation": 4.0, "source": "osm", "_tags": {"ele": "4", "natural": "peak"}}, {"name": "Marcinjef", "latitude": 44.9359859, "longitude": 14.436948, "elevation": 324.0, "source": "osm", "_tags": {"ele": "324", "name": "Marcinjef", "natural": "peak"}}, {"name": "", "latitude": 44.9543174, "longitude": 14.4356616, "elevation": 333.0, "source": "osm", "_tags": {"ele": "333", "natural": "peak"}}, {"name": "Garbujev", "latitude": 44.958735, "longitude": 14.4289168, "elevation": 352.0, "source": "osm", "_tags": {"ele": "352", "name": "Garbujev", "natural": "peak"}}, {"name": "", "latitude": 44.9660115, "longitude": 14.4266602, "elevation": 338.0, "source": "osm", "_tags": {"ele": "338", "natural": "peak"}}, {"name": "", "latitude": 44.9633616, "longitude": 14.4307493, "elevation": 350.0, "source": "osm", "_tags": {"ele": "350", "natural": "peak"}}, {"name": "", "latitude": 44.9679303, "longitude": 14.44302, "elevation": 316.0, "source": "osm", "_tags": {"ele": "316", "natural": "peak"}}, {"name": "", "latitude": 44.9512553, "longitude": 14.4310417, "elevation": 326.0, "source": "osm", "_tags": {"ele": "326", "natural": "peak"}}, {"name": "Čule", "latitude": 44.9126244, "longitude": 14.4259664, "elevation": 340.0, "source": "osm", "_tags": {"ele": "340", "name": "Čule", "natural": "peak", "wikidata": "Q25302362"}}, {"name": "", "latitude": 44.8919927, "longitude": 14.4259755, "elevation": 257.0, "source": "osm", "_tags": {"ele": "257", "natural": "peak"}}, {"name": "", "latitude": 44.8834707, "longitude": 14.4417726, "elevation": 154.0, "source": "osm", "_tags": {"ele": "154", "natural": "peak"}}, {"name": "Skulka", "latitude": 44.8727366, "longitude": 14.4180198, "elevation": 320.0, "source": "osm", "_tags": {"ele": "320", "name": "Skulka", "natural": "peak"}}, {"name": "Vršina", "latitude": 44.8645039, "longitude": 14.419913, "elevation": 292.0, "source": "osm", "_tags": {"ele": "292", "name": "Vršina", "natural": "peak"}}, {"name": "", "latitude": 44.8376727, "longitude": 14.4399033, "elevation": 171.0, "source": "osm", "_tags": {"ele": "171", "natural": "peak"}}, {"name": "", "latitude": 44.8261287, "longitude": 14.4472021, "elevation": 165.0, "source": "osm", "_tags": {"ele": "165", "natural": "peak"}}, {"name": "Oštroj", "latitude": 44.8133855, "longitude": 14.4305077, "elevation": 200.0, "source": "osm", "_tags": {"ele": "200", "name": "Oštroj", "natural": "peak", "wikidata": "Q25291897"}}, {"name": "", "latitude": 44.8079865, "longitude": 14.4578177, "elevation": 107.0, "source": "osm", "_tags": {"ele": "107", "natural": "peak"}}, {"name": "Bater", "latitude": 45.1490652, "longitude": 14.8445174, "elevation": 596.0, "source": "osm", "_tags": {"ele": "596", "name": "Bater", "natural": "peak"}}, {"name": "Makarenac", "latitude": 45.1787139, "longitude": 14.8495159, "elevation": 782.0, "source": "osm", "_tags": {"ele": "782", "name": "Makarenac", "natural": "peak"}}, {"name": "Beč", "latitude": 45.2469754, "longitude": 14.6204533, "elevation": 319.0, "source": "osm", "_tags": {"ele": "319", "name": "Beč", "natural": "peak"}}, {"name": "Vršina", "latitude": 44.916729, "longitude": 14.3151253, "elevation": 326.8, "source": "osm", "_tags": {"ele": "326.8", "name": "Vršina", "natural": "peak"}}, {"name": "", "latitude": 44.906814, "longitude": 14.344288, "elevation": 240.9, "source": "osm", "_tags": {"ele": "240.9", "natural": "peak"}}, {"name": "", "latitude": 44.8883903, "longitude": 14.3308712, "elevation": 382.3, "source": "osm", "_tags": {"ele": "382.3", "natural": "peak"}}, {"name": "", "latitude": 44.9017485, "longitude": 14.3319329, "elevation": 381.5, "source": "osm", "_tags": {"ele": "381.5", "natural": "peak"}}, {"name": "", "latitude": 44.9055933, "longitude": 14.326402, "elevation": 372.3, "source": "osm", "_tags": {"ele": "372.3", "natural": "peak", "source": "dgu.hr:Topo25"}}, {"name": "Zaglav", "latitude": 44.9087673, "longitude": 14.3032359, "elevation": 81.3, "source": "osm", "_tags": {"ele": "81.3", "name": "Zaglav", "natural": "peak", "source": "dgu.hr:Topo25"}}, {"name": "Hrip", "latitude": 44.8774407, "longitude": 14.3358538, "elevation": 447.0, "source": "osm", "_tags": {"ele": "447", "name": "Hrip", "natural": "peak", "source": "dgu.hr:Topo25"}}, {"name": "", "latitude": 44.848303, "longitude": 14.4159763, "elevation": 292.2, "source": "osm", "_tags": {"ele": "292.2", "natural": "peak", "source": "dgu.hr:Topo25"}}, {"name": "", "latitude": 44.81573, "longitude": 14.4081992, "elevation": 208.4, "source": "osm", "_tags": {"ele": "208.4", "natural": "peak"}}, {"name": "", "latitude": 44.8069923, "longitude": 14.3697202, "elevation": 125.0, "source": "osm", "_tags": {"ele": "125", "natural": "peak", "source": "dgu.hr:Topo25"}}, {"name": "", "latitude": 44.8224416, "longitude": 14.3741759, "elevation": 326.8, "source": "osm", "_tags": {"ele": "326.8", "natural": "peak", "source": "dgu.hr:Topo25"}}, {"name": "Vrh od Pojane", "latitude": 44.8291891, "longitude": 14.3433003, "elevation": 207.2, "source": "osm", "_tags": {"ele": "207.2", "name": "Vrh od Pojane", "natural": "peak", "source": "dgu.hr:Topo25"}}, {"name": "Ograjčine", "latitude": 44.8400404, "longitude": 14.3455236, "elevation": 373.9, "source": "osm", "_tags": {"ele": "373.9", "name": "Ograjčine", "natural": "peak", "source": "dgu.hr:Topo25"}}, {"name": "Sopći", "latitude": 44.8375405, "longitude": 14.3640836, "elevation": 392.6, "source": "osm", "_tags": {"ele": "392.6", "name": "Sopći", "natural": "peak", "source": "dgu.hr:Topo25"}}, {"name": "", "latitude": 44.8344258, "longitude": 14.3749608, "elevation": 351.3, "source": "osm", "_tags": {"ele": "351.3", "natural": "peak", "source": "dgu.hr:Topo25"}}, {"name": "", "latitude": 44.8548744, "longitude": 14.3445314, "elevation": 371.9, "source": "osm", "_tags": {"ele": "371.9", "natural": "peak", "source": "dgu.hr:Topo25"}}, {"name": "Oštri", "latitude": 44.8545475, "longitude": 14.3552671, "elevation": 437.4, "source": "osm", "_tags": {"ele": "437.4", "name": "Oštri", "natural": "peak", "source": "dgu.hr:Topo25"}}, {"name": "", "latitude": 44.7760305, "longitude": 14.3480313, "elevation": 9.2, "source": "osm", "_tags": {"ele": "9.2", "natural": "peak", "source": "dgu.hr:Topo25"}}, {"name": "", "latitude": 44.7661863, "longitude": 14.3058002, "elevation": 65.3, "source": "osm", "_tags": {"ele": "65.3", "natural": "peak", "source": "dgu.hr:Topo25"}}, {"name": "", "latitude": 44.7010856, "longitude": 14.3961557, "elevation": 40.1, "source": "osm", "_tags": {"ele": "40.1", "natural": "peak", "source": "dgu.hr:Topo25"}}, {"name": "Peščenji", "latitude": 44.7166594, "longitude": 14.408363, "elevation": 175.8, "source": "osm", "_tags": {"ele": "175.8", "name": "Peščenji", "natural": "peak", "source": "dgu.hr:Topo25"}}, {"name": "Trsina", "latitude": 44.7367566, "longitude": 14.410556, "elevation": 186.3, "source": "osm", "_tags": {"ele": "186.3", "name": "Trsina", "natural": "peak", "source": "dgu.hr:Topo25"}}, {"name": "", "latitude": 44.7478233, "longitude": 14.4123252, "elevation": 195.9, "source": "osm", "_tags": {"ele": "195.9", "natural": "peak", "source": "dgu.hr:Topo25"}}, {"name": "Gračišće", "latitude": 44.7505203, "longitude": 14.3899821, "elevation": 92.0, "source": "osm", "_tags": {"ele": "92", "name": "Gračišće", "natural": "peak", "source": "dgu.hr:Topo25"}}, {"name": "", "latitude": 44.7591693, "longitude": 14.3762945, "elevation": 109.4, "source": "osm", "_tags": {"ele": "109.4", "natural": "peak", "source": "dgu.hr:Topo25"}}, {"name": "", "latitude": 44.7602174, "longitude": 14.4235194, "elevation": 171.5, "source": "osm", "_tags": {"ele": "171.5", "natural": "peak", "source": "dgu.hr:Topo25"}}, {"name": "Bojnak", "latitude": 44.7656508, "longitude": 14.3968477, "elevation": 222.1, "source": "osm", "_tags": {"ele": "222.1", "name": "Bojnak", "natural": "peak", "source": "dgu.hr:Topo25", "wikidata": "Q25300429"}}, {"name": "", "latitude": 44.7734722, "longitude": 14.3753241, "elevation": 127.8, "source": "osm", "_tags": {"ele": "127.8", "natural": "peak", "source": "dgu.hr:Topo25"}}, {"name": "Konjić", "latitude": 44.7879896, "longitude": 14.3714293, "elevation": 125.7, "source": "osm", "_tags": {"ele": "125.7", "name": "Konjić", "natural": "peak", "source": "dgu.hr:Topo25"}}, {"name": "Zlostan", "latitude": 44.8868196, "longitude": 14.3994671, "elevation": 428.3, "source": "osm", "_tags": {"ele": "428.3", "name": "Zlostan", "natural": "peak", "source": "dgu.hr:Topo25"}}, {"name": "", "latitude": 44.8932262, "longitude": 14.3768693, "elevation": 284.0, "source": "osm", "_tags": {"ele": "284", "natural": "peak", "source": "dgu.hr:Topo25"}}, {"name": "", "latitude": 44.9154881, "longitude": 14.4111703, "elevation": 270.9, "source": "osm", "_tags": {"ele": "270.9", "natural": "peak", "source": "dgu.hr:Topo25"}}, {"name": "Betkaf", "latitude": 44.927266, "longitude": 14.4073044, "elevation": 340.6, "source": "osm", "_tags": {"ele": "340.6", "name": "Betkaf", "natural": "peak", "source": "dgu.hr:Topo25"}}, {"name": "Helm", "latitude": 44.9348046, "longitude": 14.408203, "elevation": 313.6, "source": "osm", "_tags": {"ele": "313.6", "name": "Helm", "natural": "peak", "source": "dgu.hr:Topo25"}}, {"name": "", "latitude": 45.0133245, "longitude": 14.3874805, "elevation": 507.1, "source": "osm", "_tags": {"ele": "507.1", "natural": "peak", "source": "dgu.hr:Topo25"}}, {"name": "Velo Gračište", "latitude": 45.0197345, "longitude": 14.3782129, "elevation": 562.5, "source": "osm", "_tags": {"alt_name": "Velike Gračište", "ele": "562.5", "name": "Velo Gračište", "natural": "peak", "source": "dgu.hr:Topo25", "wikidata": "Q25297269"}}, {"name": "Barbin", "latitude": 45.0503979, "longitude": 14.369105, "elevation": 467.0, "source": "osm", "_tags": {"ele": "467", "name": "Barbin", "natural": "peak", "source": "dgu.hr:Topo25"}}, {"name": "Halmac", "latitude": 45.0915403, "longitude": 14.3039865, "elevation": 280.3, "source": "osm", "_tags": {"ele": "280.3", "name": "Halmac", "natural": "peak", "source": "dgu.hr:Topo25"}}, {"name": "Telcar", "latitude": 45.1027098, "longitude": 14.2984434, "elevation": 323.9, "source": "osm", "_tags": {"ele": "323.9", "name": "Telcar", "natural": "peak", "source": "dgu.hr:Topo25"}}, {"name": "Kalk", "latitude": 45.1093454, "longitude": 14.288941, "elevation": 340.4, "source": "osm", "_tags": {"ele": "340.4", "name": "Kalk", "natural": "peak", "source": "dgu.hr:Topo25"}}, {"name": "Greben", "latitude": 45.1302063, "longitude": 14.292483, "elevation": 222.9, "source": "osm", "_tags": {"ele": "222.9", "name": "Greben", "natural": "peak", "source": "dgu.hr:Topo25"}}, {"name": "", "latitude": 45.139629, "longitude": 14.3233597, "elevation": 327.2, "source": "osm", "_tags": {"ele": "327.2", "natural": "peak", "source": "dgu.hr:Topo25"}}, {"name": "", "latitude": 45.1285877, "longitude": 14.3261445, "elevation": 342.9, "source": "osm", "_tags": {"ele": "342.9", "natural": "peak", "source": "dgu.hr:Topo25"}}, {"name": "", "latitude": 45.1490724, "longitude": 14.3177471, "elevation": 297.1, "source": "osm", "_tags": {"ele": "297.1", "natural": "peak", "source": "dgu.hr:Topo25"}}, {"name": "", "latitude": 45.1507374, "longitude": 14.3307644, "elevation": 301.1, "source": "osm", "_tags": {"ele": "301.1", "natural": "peak", "source": "dgu.hr:Topo25"}}, {"name": "Paprić", "latitude": 45.1518597, "longitude": 14.3616936, "elevation": 223.6, "source": "osm", "_tags": {"ele": "223.6", "name": "Paprić", "natural": "peak", "source": "dgu.hr:Topo25"}}, {"name": "", "latitude": 45.1560533, "longitude": 14.3566717, "elevation": 219.2, "source": "osm", "_tags": {"ele": "219.2", "natural": "peak", "source": "dgu.hr:Topo25"}}, {"name": "", "latitude": 45.1516453, "longitude": 14.3059707, "elevation": 201.1, "source": "osm", "_tags": {"ele": "201.1", "natural": "peak", "source": "dgu.hr:Topo25"}}, {"name": "", "latitude": 45.1277533, "longitude": 14.3478309, "elevation": 280.3, "source": "osm", "_tags": {"ele": "280.3", "natural": "peak", "source": "dgu.hr:Topo25"}}, {"name": "", "latitude": 45.1138795, "longitude": 14.3551789, "elevation": 114.7, "source": "osm", "_tags": {"ele": "114.7", "natural": "peak", "source": "dgu.hr:Topo25"}}, {"name": "Golo", "latitude": 45.1004014, "longitude": 14.3574136, "elevation": 142.3, "source": "osm", "_tags": {"ele": "142.3", "name": "Golo", "natural": "peak", "source": "dgu.hr:Topo25"}}, {"name": "", "latitude": 45.0906177, "longitude": 14.3552017, "elevation": 246.1, "source": "osm", "_tags": {"ele": "246.1", "natural": "peak", "source": "dgu.hr:Topo25"}}, {"name": "", "latitude": 45.071658, "longitude": 14.3624794, "elevation": 373.6, "source": "osm", "_tags": {"ele": "373.6", "natural": "peak", "source": "dgu.hr:Topo25"}}, {"name": "Goli", "latitude": 45.0947251, "longitude": 14.3144128, "elevation": 447.5, "source": "osm", "_tags": {"ele": "447.5", "name": "Goli", "natural": "peak", "source": "dgu.hr:Topo25"}},