[{"name": "Cima di Gagela", "latitude": 46.3841697, "longitude": 9.1747139, "elevation": 2805.0, "source": "osm", "_tags": {"ele": "2805", "name": "Cima di Gagela", "natural": "peak", "wikidata": "Q5120057"}}, {"name": "Grigna Settentrionale", "latitude": 45.9533979, "longitude": 9.3876756, "elevation": 2410.0, "source": "osm", "_tags": {"alt_name": "Grignone", "ele": "2410", "name": "Grigna Settentrionale", "natural": "peak", "prominence": "1670", "source:prominence": "2410-740 (Balisio)", "summit:cross": "yes", "wikidata": "Q20970624", "wikimedia_commons": "Category:Grigna Settentrionale", "wikipedia": "it:Grigna settentrionale"}}, {"name": "Monte Alben", "latitude": 45.8620937, "longitude": 9.7820763, "elevation": 2019.0, "source": "osm", "_tags": {"alt_name": "Monte Alberi", "ele": "2019", "man_made": "cross", "name": "Monte Alben", "natural": "peak", "note": "sulla CTR Regione Lombardia al tratto è chiamato Monte Alberi, più noto come Monte Alben", "summit:cross": "yes", "wikidata": "Q3861171", "wikipedia": "it:Monte Alben"}}, {"name": "Monte Croce di Muggio", "latitude": 46.0507614, "longitude": 9.3570445, "elevation": 1799.0, "source": "osm", "_tags": {"alt_name": "Monte Muggio", "ele": "1799", "loc_name": "Müc", "name": "Monte Croce di Muggio", "natural": "peak", "wikidata": "Q1945821", "wikimedia_commons": "Category:Monte Croce di Muggio", "wikipedia": "de:Monte Croce di Muggio"}}, {"name": "Monte San Giorgio", "latitude": 45.9137631, "longitude": 8.9498905, "elevation": 1097.0, "source": "osm", "_tags": {"ele": "1097", "heritage": "1", "heritage:operator": "whc", "name": "Monte San Giorgio", "natural": "peak", "ref:whc": "1090bis", "summit:cross": "no", "summit:register": "no", "whc:inscription_date": "2003", "wikidata": "Q16648", "wikipedia": "it:Monte San Giorgio (Cantone Ticino)"}}, {"name": "Monte San Primo", "latitude": 45.9154362, "longitude": 9.2098416, "elevation": 1682.0, "source": "osm", "_tags": {"ele": "1682", "name": "Monte San Primo", "natural": "peak", "prominence": "1407", "wikidata": "Q1132166"}}, {"name": "Monte San Salvatore", "latitude": 45.977112, "longitude": 8.9473021, "elevation": 912.0, "source": "osm", "_tags": {"ele": "912", "name": "Monte San Salvatore", "natural": "peak", "wikidata": "Q16543", "wikipedia": "it:Monte San Salvatore (Svizzera)"}}, {"name": "Pizzo Arera", "latitude": 45.9345913, "longitude": 9.8158164, "elevation": 2512.0, "source": "osm", "_tags": {"ele": "2512", "man_made": "cross", "name": "Pizzo Arera", "natural": "peak", "summit:cross": "yes", "wikidata": "Q3905978", "wikipedia": "it:Pizzo Arera"}}, {"name": "Pizzo Cengalo", "latitude": 46.2947653, "longitude": 9.6021641, "elevation": 3368.0, "source": "osm", "_tags": {"alt_name": "Pizzo Gengalo", "ele": "3368", "name": "Pizzo Cengalo", "name:de": "Piz Cengalo", "natural": "peak", "summit:cross": "yes", "wikidata": "Q2574854", "wikipedia": "it:Pizzo Cengalo"}}, {"name": "Pizzo Stella", "latitude": 46.3814813, "longitude": 9.4214446, "elevation": 3163.0, "source": "osm", "_tags": {"ele": "3163", "name": "Pizzo Stella", "natural": "peak", "summit:cross": "yes", "wikidata": "Q1633056", "wikipedia": "it:Pizzo Stella"}}, {"name": "Monte Resegone", "latitude": 45.8584126, "longitude": 9.4688633, "elevation": 1875.0, "source": "osm", "_tags": {"alt_name": "Resegone di Lecco;Resegone;Punta Cermenati;Punta della Croce Resegone", "ele": "1875", "name": "Monte Resegone", "natural": "peak", "source": "survey", "summit:cross": "yes", "wikidata": "Q1231343", "wikimedia_commons": "Category:Resegone"}}, {"name": "Torent Alto", "latitude": 46.343609, "longitude": 9.0711183, "elevation": 2948.0, "source": "osm", "_tags": {"alt_name": "Torrone Alto", "alt_name_1": "Torrone d'Orza", "ele": "2948", "name": "Torent Alto", "natural": "peak", "wikidata": "Q2783901", "wikipedia": "it:Torrone Alto"}}, {"name": "Monte Cereto", "latitude": 45.7647694, "longitude": 9.7726856, "elevation": 936.0, "source": "osm", "_tags": {"ele": "936", "name": "Monte Cereto", "natural": "peak", "summit:cross": "yes"}}, {"name": "Monte Bre", "latitude": 46.0090846, "longitude": 8.9874096, "elevation": 925.0, "source": "osm", "_tags": {"ele": "925", "name": "Monte Bre", "natural": "peak", "wikidata": "Q692385", "wikipedia": "it:Monte Brè"}}, {"name": "Monte Corte", "latitude": 45.9836198, "longitude": 9.8256305, "elevation": 2493.0, "source": "osm", "_tags": {"ele": "2493", "name": "Monte Corte", "natural": "peak", "source": "Regione Lombardia - La banca dati territoriali CTR10000 e' prodotta da Regione Lombardia - Infrastruttura per l'Informazione Territoriale", "wikidata": "Q31623405"}}, {"name": "", "latitude": 46.0494888, "longitude": 9.809987, "elevation": 2554.0, "source": "osm", "_tags": {"ele": "2554", "natural": "peak"}}, {"name": "Pizzo Zerna", "latitude": 46.0483329, "longitude": 9.8307747, "elevation": 2572.0, "source": "osm", "_tags": {"alt_name": "Corno di Publino", "ele": "2572", "name": "Pizzo Zerna", "natural": "peak", "summit:cross": "yes", "wikidata": "Q3906024", "wikipedia": "it:Pizzo Zerna"}}, {"name": "Monte Sissone", "latitude": 46.2928922, "longitude": 9.7144877, "elevation": 3327.0, "source": "osm", "_tags": {"ele": "3327", "name": "Monte Sissone", "natural": "peak", "source": "Regione Lombardia - La banca dati territoriali CTR10000 e' prodotta da Regione Lombardia - Infrastruttura per l'Informazione Territoriale", "wikidata": "Q3015626"}}, {"name": "Punta Sant'Anna / Piz Badilett", "latitude": 46.2943382, "longitude": 9.5831489, "elevation": 3170.0, "source": "osm", "_tags": {"ele": "3170", "name": "Punta Sant'Anna / Piz Badilett", "natural": "peak", "note": "3170 CNS\nIn Bregaglia era nota come Piz Badilett, il topografo Lurani la denominò Cima S. Anna avendola salita in tale giorno nel 1893. Nell'uso alpinistico è invalso il nome attuale.", "source": "Regione Lombardia - La banca dati territoriali CTR10000 e' prodotta da Regione Lombardia - Infrastruttura per l'Informazione Territoriale"}}, {"name": "Monte Bolettone", "latitude": 45.8371503, "longitude": 9.1793766, "elevation": 1318.0, "source": "osm", "_tags": {"alt_name": "Monte Bollettone", "ele": "1318", "name": "Monte Bolettone", "natural": "peak", "wikidata": "Q3641759", "wikimedia_commons": "Category:Monte Bollettone", "wikipedia": "it:Bollettone"}}, {"name": "Pizzo dei Tre Signori", "latitude": 46.0115365, "longitude": 9.5274652, "elevation": 2554.0, "source": "osm", "_tags": {"ele": "2554", "name": "Pizzo dei Tre Signori", "natural": "peak", "summit:cross": "yes", "wikidata": "Q2739302", "wikipedia": "it:Pizzo dei Tre Signori"}}, {"name": "Cima di Camisolo", "latitude": 46.011167, "longitude": 9.506369, "elevation": 2156.0, "source": "osm", "_tags": {"ele": "2156", "name": "Cima di Camisolo", "natural": "peak"}}, {"name": "Montirolo", "latitude": 46.0901966, "longitude": 9.8799069, "elevation": 2123.0, "source": "osm", "_tags": {"ele": "2123", "name": "Montirolo", "natural": "peak"}}, {"name": "Cima da Lägh", "latitude": 46.3763695, "longitude": 9.4610761, "elevation": 3082.0, "source": "osm", "_tags": {"ele": "3082", "name": "Cima da Lägh", "natural": "peak", "wikidata": "Q2002817", "wikipedia": "it:Cima di Lago"}}, {"name": "Piz dal Märc", "latitude": 46.37094, "longitude": 9.5455845, "elevation": 2948.0, "source": "osm", "_tags": {"ele": "2948", "name": "Piz dal Märc", "natural": "peak", "wikidata": "Q22384971"}}, {"name": "Gletscherhorn", "latitude": 46.3874182, "longitude": 9.5606638, "elevation": 3107.0, "source": "osm", "_tags": {"ele": "3107", "name": "Gletscherhorn", "natural": "peak", "wikidata": "Q5569515"}}, {"name": "Piz Duan", "latitude": 46.3758792, "longitude": 9.5833219, "elevation": 3131.0, "source": "osm", "_tags": {"ele": "3131", "name": "Piz Duan", "natural": "peak", "wikidata": "Q1633716"}}, {"name": "Piz Piot", "latitude": 46.4028512, "longitude": 9.5868951, "elevation": 3053.0, "source": "osm", "_tags": {"ele": "3053", "name": "Piz Piot", "natural": "peak", "wikidata": "Q7199874"}}, {"name": "Cima di Cantun", "latitude": 46.3106374, "longitude": 9.6779048, "elevation": null, "source": "osm", "_tags": {"name": "Cima di Cantun", "name:ru": "пик Кантун", "natural": "peak", "wikidata": "Q3646939"}}, {"name": "Monte Girosso", "latitude": 46.2643178, "longitude": 9.7571749, "elevation": 3475.0, "source": "osm", "_tags": {"ele": "3475", "name": "Monte Girosso", "natural": "peak", "note": "Sulla CTR in questa posizione il Monte Girosso non è nominato"}}, {"name": "Piz Corvatsch", "latitude": 46.4084924, "longitude": 9.8161413, "elevation": 3451.0, "source": "osm", "_tags": {"ele": "3451", "name": "Piz Corvatsch", "natural": "peak", "wikidata": "Q677288"}}, {"name": "Il Chapütschin", "latitude": 46.3745346, "longitude": 9.8190218, "elevation": 3386.0, "source": "osm", "_tags": {"ele": "3386", "name": "Il Chapütschin", "natural": "peak", "wikidata": "Q3647003"}}, {"name": "La Muongia", "latitude": 46.3667346, "longitude": 9.8244653, "elevation": 3415.0, "source": "osm", "_tags": {"ele": "3415", "name": "La Muongia", "natural": "peak", "wikidata": "Q22655364"}}, {"name": "Piz Murtèl", "latitude": 46.4126328, "longitude": 9.819941, "elevation": 3433.0, "source": "osm", "_tags": {"ele": "3433", "name": "Piz Murtèl", "natural": "peak", "wikidata": "Q22387660"}}, {"name": "Piz da la Margna", "latitude": 46.3819626, "longitude": 9.7300245, "elevation": 3159.0, "source": "osm", "_tags": {"ele": "3159", "name": "Piz da la Margna", "natural": "peak", "source": "GPS", "wikidata": "Q4353322"}}, {"name": "Piz Led", "latitude": 46.3612055, "longitude": 9.7725871, "elevation": 3090.0, "source": "osm", "_tags": {"ele": "3090", "name": "Piz Led", "natural": "peak", "wikidata": "Q22386745"}}, {"name": "Piz Güz", "latitude": 46.3566041, "longitude": 9.773721, "elevation": 3169.0, "source": "osm", "_tags": {"ele": "3169", "name": "Piz Güz", "natural": "peak", "wikidata": "Q22386409"}}, {"name": "Piz Grevasalvas", "latitude": 46.4228329, "longitude": 9.6744409, "elevation": 2932.0, "source": "osm", "_tags": {"ele": "2932", "name": "Piz Grevasalvas", "natural": "peak", "source": "GPS", "wikidata": "Q7199846"}}, {"name": "Schneekuppe", "latitude": 46.3754831, "longitude": 9.8798416, "elevation": 3917.0, "source": "osm", "_tags": {"alt_name": "Piz Roseg, north-west summit", "ele": "3917", "name": "Schneekuppe", "name:de": "Schneekuppe", "name:rm": "Muotta da Naiv", "natural": "peak", "source": "www.gipfelverzeichnis.ch", "wikidata": "Q128789153"}}, {"name": "Sasso Palazzo", "latitude": 46.0541885, "longitude": 9.0285781, "elevation": 1445.0, "source": "osm", "_tags": {"ele": "1445", "name": "Sasso Palazzo", "natural": "peak"}}, {"name": "Monte Roveraccio", "latitude": 46.0663813, "longitude": 8.9978597, "elevation": 904.0, "source": "osm", "_tags": {"ele": "904", "name": "Monte Roveraccio", "natural": "peak"}}, {"name": "Monte Boglia", "latitude": 46.0297774, "longitude": 9.0075561, "elevation": 1516.0, "source": "osm", "_tags": {"alt_name": "Colma Regia", "direction": "40", "ele": "1516", "name": "Monte Boglia", "natural": "peak", "wikidata": "Q870031", "wikipedia": "it:Monte Boglia"}}, {"name": "Monte Bar", "latitude": 46.1077522, "longitude": 9.0118115, "elevation": 1816.0, "source": "osm", "_tags": {"ele": "1816", "name": "Monte Bar", "natural": "peak", "wikidata": "Q3861210", "wikipedia": "it:Monte Bar"}}, {"name": "Monte Gazzirola", "latitude": 46.1179764, "longitude": 9.0723827, "elevation": 2116.0, "source": "osm", "_tags": {"alt_name": "Monte Garzirola", "ele": "2116", "name": "Monte Gazzirola", "natural": "peak", "summit:cross": "no", "summit:register": "no", "wikidata": "Q2817359", "wikipedia": "it:Gazzirola"}}, {"name": "Caval Drossa", "latitude": 46.1020219, "longitude": 8.9933002, "elevation": 1632.0, "source": "osm", "_tags": {"ele": "1632", "name": "Caval Drossa", "natural": "peak", "wikidata": "Q22452855"}}, {"name": "Cima Cavrighe", "latitude": 46.0502988, "longitude": 9.0327933, "elevation": 1244.0, "source": "osm", "_tags": {"ele": "1244", "name": "Cima Cavrighe", "natural": "peak"}}, {"name": "Monte Arbostora", "latitude": 45.9398712, "longitude": 8.9124584, "elevation": 822.0, "source": "osm", "_tags": {"ele": "822", "name": "Monte Arbostora", "natural": "peak"}}, {"name": "Cima Pescia", "latitude": 45.9457436, "longitude": 8.9237391, "elevation": 835.0, "source": "osm", "_tags": {"ele": "835", "name": "Cima Pescia", "natural": "peak"}}, {"name": "Zocca della Nave", "latitude": 46.031583, "longitude": 9.0271633, "elevation": 1135.0, "source": "osm", "_tags": {"ele": "1135", "name": "Zocca della Nave", "natural": "peak"}}, {"name": "Monte Bronzone", "latitude": 46.0417077, "longitude": 9.0861885, "elevation": 1434.0, "source": "osm", "_tags": {"ele": "1434", "name": "Monte Bronzone", "natural": "peak"}}, {"name": "Pizzo Ravò", "latitude": 46.0422076, "longitude": 9.078893, "elevation": 1281.0, "source": "osm", "_tags": {"alt_name": "Sasso della mano", "ele": "1281", "local_name": "Sass de la man", "name": "Pizzo Ravò", "natural": "peak"}}, {"name": "Monte Pradè", "latitude": 46.0523012, "longitude": 9.0701059, "elevation": 1607.0, "source": "osm", "_tags": {"ele": "1607", "name": "Monte Pradè", "natural": "peak", "wikidata": "Q31650203"}}, {"name": "Camoghè", "latitude": 46.1349091, "longitude": 9.0641882, "elevation": 2228.0, "source": "osm", "_tags": {"ele": "2228", "mapillary": "777946079520681", "name": "Camoghè", "natural": "peak", "wikidata": "Q16534"}}, {"name": "San Giorgio", "latitude": 46.0567789, "longitude": 8.9416915, "elevation": 465.0, "source": "osm", "_tags": {"ele": "465", "name": "San Giorgio", "natural": "peak"}}, {"name": "San Bernardo", "latitude": 46.0454553, "longitude": 8.9621372, "elevation": 707.0, "source": "osm", "_tags": {"ele": "707", "name": "San Bernardo", "natural": "peak", "wikidata": "Q3683246"}}, {"name": "Matro Rotondo", "latitude": 46.0494454, "longitude": 8.9623727, "elevation": 679.0, "source": "osm", "_tags": {"ele": "679", "name": "Matro Rotondo", "natural": "peak"}}, {"name": "Sasso Scuro", "latitude": 46.0563849, "longitude": 8.9653767, "elevation": 634.0, "source": "osm", "_tags": {"ele": "634", "name": "Sasso Scuro", "natural": "peak"}}, {"name": "Cima di Screvia", "latitude": 46.1179838, "longitude": 8.9996937, "elevation": 1493.0, "source": "osm", "_tags": {"ele": "1493", "name": "Cima di Screvia", "natural": "peak", "wikidata": "Q22503831"}}, {"name": "Porta delle Cornacchie", "latitude": 45.960502, "longitude": 9.7358956, "elevation": null, "source": "osm", "_tags": {"name": "Porta delle Cornacchie", "natural": "peak"}}, {"name": "Corno di Canzo Orientale", "latitude": 45.8611798, "longitude": 9.332456, "elevation": 1239.0, "source": "osm", "_tags": {"ele": "1239", "name": "Corno di Canzo Orientale", "natural": "peak", "summit:cross": "yes"}}, {"name": "Cima de Barna", "latitude": 46.4205173, "longitude": 9.2637112, "elevation": 2857.0, "source": "osm", "_tags": {"ele": "2857", "name": "Cima de Barna", "natural": "peak", "source": "Regione Lombardia - La banca dati territoriali CTR10000 e' prodotta da Regione Lombardia - Infrastruttura per l'Informazione Territoriale", "wikidata": "Q5120056"}}, {"name": "La Colma", "latitude": 46.4228557, "longitude": 9.2624325, "elevation": 2855.0, "source": "osm", "_tags": {"ele": "2855", "name": "La Colma", "natural": "peak", "source": "Regione Lombardia - La banca dati territoriali CTR10000 e' prodotta da Regione Lombardia - Infrastruttura per l'Informazione Territoriale"}}, {"name": "Motto Alto", "latitude": 46.3877513, "longitude": 9.2980773, "elevation": 2720.0, "source": "osm", "_tags": {"ele": "2720", "name": "Motto Alto", "natural": "peak", "source": "Regione Lombardia - La banca dati territoriali CTR10000 e' prodotta da Regione Lombardia - Infrastruttura per l'Informazione Territoriale"}}, {"name": "Dosso Mottascio", "latitude": 46.3947485, "longitude": 9.2760591, "elevation": 2872.0, "source": "osm", "_tags": {"alt_name": "Cima de Verchenca", "ele": "2872", "name": "Dosso Mottascio", "natural": "peak", "source": "Regione Lombardia - La banca dati territoriali CTR10000 e' prodotta da Regione Lombardia - Infrastruttura per l'Informazione Territoriale"}}, {"name": "Pizzo Truzzo", "latitude": 46.3778985, "longitude": 9.3104644, "elevation": 2723.0, "source": "osm", "_tags": {"ele": "2723", "name": "Pizzo Truzzo", "natural": "peak", "source": "Regione Lombardia - La banca dati territoriali CTR10000 e' prodotta da Regione Lombardia - Infrastruttura per l'Informazione Territoriale"}}, {"name": "Monte Balniscio / Pizzo dei Rossi", "latitude": 46.426592, "longitude": 9.2578432, "elevation": 2846.0, "source": "osm", "_tags": {"alt_name": "Monte Balniscio", "ele": "2846", "name": "Monte Balniscio / Pizzo dei Rossi", "natural": "peak"}}, {"name": "Motto dell` Asino", "latitude": 46.3735665, "longitude": 9.2964656, "elevation": 2350.0, "source": "osm", "_tags": {"ele": "2350", "name": "Motto dell` Asino", "natural": "peak", "source": "Regione Lombardia - La banca dati territoriali CTR10000 e' prodotta da Regione Lombardia - Infrastruttura per l'Informazione Territoriale"}}, {"name": "Monte Tignoso", "latitude": 46.4163751, "longitude": 9.3086654, "elevation": 2375.0, "source": "osm", "_tags": {"ele": "2375", "name": "Monte Tignoso", "natural": "peak", "source": "Regione Lombardia - La banca dati territoriali CTR10000 e' prodotta da Regione Lombardia - Infrastruttura per l'Informazione Territoriale"}}, {"name": "Pizzo della Sancia", "latitude": 46.4015759, "longitude": 9.2820534, "elevation": 2718.0, "source": "osm", "_tags": {"alt_name": "Piz de Montagnìa", "ele": "2718", "loc_name": "Pizzot", "name": "Pizzo della Sancia", "natural": "peak", "source": "gps"}}, {"name": "Piz Dale`", "latitude": 46.4109595, "longitude": 9.280737, "elevation": 2600.0, "source": "osm", "_tags": {"ele": "2600", "name": "Piz Dale`", "natural": "peak", "source": "Regione Lombardia - La banca dati territoriali CTR10000 e' prodotta da Regione Lombardia - Infrastruttura per l'Informazione Territoriale", "wikidata": "Q22385028"}}, {"name": "Cima d'Ala", "latitude": 46.2972207, "longitude": 9.3001999, "elevation": 2151.0, "source": "osm", "_tags": {"ele": "2151", "name": "Cima d'Ala", "natural": "peak", "source": "Regione Lombardia - La banca dati territoriali CTR10000 e' prodotta da Regione Lombardia - Infrastruttura per l'Informazione Territoriale"}}, {"name": "Pizzo di Padion", "latitude": 46.3146105, "longitude": 9.285359, "elevation": 2633.0, "source": "osm", "_tags": {"ele": "2633", "name": "Pizzo di Padion", "natural": "peak", "source": "Regione Lombardia - La banca dati territoriali CTR10000 e' prodotta da Regione Lombardia - Infrastruttura per l'Informazione Territoriale"}}, {"name": "Pizzo della Forcola", "latitude": 46.3165329, "longitude": 9.293823, "elevation": 2671.0, "source": "osm", "_tags": {"ele": "2671", "name": "Pizzo della Forcola", "natural": "peak", "source": "Regione Lombardia - La banca dati territoriali CTR10000 e' prodotta da Regione Lombardia - Infrastruttura per l'Informazione Territoriale", "wikidata": "Q3905953", "wikipedia": "it:Piz della Forcola"}}, {"name": "Pizzo Piodella", "latitude": 46.2970261, "longitude": 9.2848566, "elevation": 2456.0, "source": "osm", "_tags": {"ele": "2456", "name": "Pizzo Piodella", "natural": "peak", "source": "Regione Lombardia - La banca dati territoriali CTR10000 e' prodotta da Regione Lombardia - Infrastruttura per l'Informazione Territoriale"}}, {"name": "Punta Marina", "latitude": 46.3383858, "longitude": 9.2932909, "elevation": 2653.0, "source": "osm", "_tags": {"ele": "2653", "name": "Punta Marina", "natural": "peak", "source": "Regione Lombardia - La banca dati territoriali CTR10000 e' prodotta da Regione Lombardia - Infrastruttura per l'Informazione Territoriale"}}, {"name": "", "latitude": 46.249013, "longitude": 9.2503153, "elevation": 2246.0, "source": "osm", "_tags": {"ele": "2246", "natural": "peak", "source": "Regione Lombardia - La banca dati territoriali CTR10000 e' prodotta da Regione Lombardia - Infrastruttura per l'Informazione Territoriale"}}, {"name": "Cantone di Strem", "latitude": 46.2757527, "longitude": 9.2594983, "elevation": 2556.0, "source": "osm", "_tags": {"ele": "2556", "name": "Cantone di Strem", "natural": "peak", "source": "Regione Lombardia - La banca dati territoriali CTR10000 e' prodotta da Regione Lombardia - Infrastruttura per l'Informazione Territoriale"}}, {"name": "Pizzo Gallusen", "latitude": 46.2693953, "longitude": 9.2570381, "elevation": 2473.0, "source": "osm", "_tags": {"ele": "2473", "name": "Pizzo Gallusen", "natural": "peak", "source": "Regione Lombardia - La banca dati territoriali CTR10000 e' prodotta da Regione Lombardia - Infrastruttura per l'Informazione Territoriale"}}, {"name": "Pizzo San Pio", "latitude": 46.2327837, "longitude": 9.2625279, "elevation": 2301.0, "source": "osm", "_tags": {"ele": "2301", "name": "Pizzo San Pio", "natural": "peak", "source": "Regione Lombardia - La banca dati territoriali CTR10000 e' prodotta da Regione Lombardia - Infrastruttura per l'Informazione Territoriale", "wikidata": "Q31653506"}}, {"name": "Il Pizzaccio", "latitude": 46.3271589, "longitude": 9.2993038, "elevation": 2589.0, "source": "osm", "_tags": {"ele": "2589", "name": "Il Pizzaccio", "natural": "peak", "source": "Regione Lombardia - La banca dati territoriali CTR10000 e' prodotta da Regione Lombardia - Infrastruttura per l'Informazione Territoriale", "summit:cross": "yes", "wikidata": "Q31655911", "wikipedia": "it:Pizzaccio"}}, {"name": "Campanile di Val Marina", "latitude": 46.3361098, "longitude": 9.2916885, "elevation": null, "source": "osm", "_tags": {"name": "Campanile di Val Marina", "natural": "peak", "source": "Regione Lombardia - La banca dati territoriali CTR10000 e' prodotta da Regione Lombardia - Infrastruttura per l'Informazione Territoriale"}}, {"name": "Piz Papalin", "latitude": 46.3462819, "longitude": 9.2989198, "elevation": 2715.0, "source": "osm", "_tags": {"alt_name": "Pizzo della Colla", "ele": "2715", "name": "Piz Papalin", "natural": "peak", "source": "Regione Lombardia - La banca dati territoriali CTR10000 e' prodotta da Regione Lombardia - Infrastruttura per l'Informazione Territoriale"}}, {"name": "Pizzo del Torto", "latitude": 46.3556907, "longitude": 9.296195, "elevation": 2723.0, "source": "osm", "_tags": {"alt_name": "Il Mottaccio", "ele": "2723", "name": "Pizzo del Torto", "natural": "peak", "source": "Regione Lombardia - La banca dati territoriali CTR10000 e' prodotta da Regione Lombardia - Infrastruttura per l'Informazione Territoriale", "wikidata": "Q7200041"}}, {"name": "Corn dal Noovar", "latitude": 46.2582951, "longitude": 9.2920345, "elevation": 1981.0, "source": "osm", "_tags": {"alt_name": "Monte Cor del Nova", "ele": "1981", "name": "Corn dal Noovar", "natural": "peak", "source": "Regione Lombardia - La banca dati territoriali CTR10000 e' prodotta da Regione Lombardia - Infrastruttura per l'Informazione Territoriale"}}, {"name": "Piz de Sambrog", "latitude": 46.2558732, "longitude": 9.2488592, "elevation": 2312.0, "source": "osm", "_tags": {"alt_name": "Pizzo Sambrosio", "ele": "2312", "name": "Piz de Sambrog", "natural": "peak", "source": "Regione Lombardia - La banca dati territoriali CTR10000 e' prodotta da Regione Lombardia - Infrastruttura per l'Informazione Territoriale", "wikidata": "Q22385455"}}, {"name": "Pizzo Camparasca", "latitude": 46.2519033, "longitude": 9.2514093, "elevation": 2315.0, "source": "osm", "_tags": {"ele": "2315", "name": "Pizzo Camparasca", "natural": "peak", "source": "Regione Lombardia - La banca dati territoriali CTR10000 e' prodotta da Regione Lombardia - Infrastruttura per l'Informazione Territoriale"}}, {"name": "Pizzo Setaggiolo di Dentro", "latitude": 46.2783637, "longitude": 9.2590354, "elevation": null, "source": "osm", "_tags": {"name": "Pizzo Setaggiolo di Dentro", "natural": "peak", "source": "Regione Lombardia - La banca dati territoriali CTR10000 e' prodotta da Regione Lombardia - Infrastruttura per l'Informazione Territoriale"}}, {"name": "Pizzo della Piazza", "latitude": 46.279998, "longitude": 9.2832265, "elevation": 2239.0, "source": "osm", "_tags": {"ele": "2239", "name": "Pizzo della Piazza", "natural": "peak", "source": "Regione Lombardia - La banca dati territoriali CTR10000 e' prodotta da Regione Lombardia - Infrastruttura per l'Informazione Territoriale"}}, {"name": "Pizzo Setaggio", "latitude": 46.2954071, "longitude": 9.2808508, "elevation": 2476.0, "source": "osm", "_tags": {"alt_name": "Piz Setag", "ele": "2476", "name": "Pizzo Setaggio", "natural": "peak", "source": "Regione Lombardia - La banca dati territoriali CTR10000 e' prodotta da Regione Lombardia - Infrastruttura per l'Informazione Territoriale", "wikidata": "Q7199931"}}, {"name": "Pizzo Setaggiolo di Fuori", "latitude": 46.2892237, "longitude": 9.2718191, "elevation": 2389.0, "source": "osm", "_tags": {"ele": "2389", "name": "Pizzo Setaggiolo di Fuori", "natural": "peak", "source": "Regione Lombardia - La banca dati territoriali CTR10000 e' prodotta da Regione Lombardia - Infrastruttura per l'Informazione Territoriale"}}, {"name": "Il Mottone", "latitude": 46.2818995, "longitude": 9.3072844, "elevation": 2053.0, "source": "osm", "_tags": {"ele": "2053", "name": "Il Mottone", "natural": "peak", "source": "Regione Lombardia - La banca dati territoriali CTR10000 e' prodotta da Regione Lombardia - Infrastruttura per l'Informazione Territoriale"}}, {"name": "Pizzo Gandaiole", "latitude": 46.2838165, "longitude": 9.2692009, "elevation": 2396.0, "source": "osm", "_tags": {"ele": "2396", "name": "Pizzo Gandaiole", "natural": "peak", "source": "Regione Lombardia - La banca dati territoriali CTR10000 e' prodotta da Regione Lombardia - Infrastruttura per l'Informazione Territoriale"}}, {"name": "Pizzo Roggione", "latitude": 46.2665349, "longitude": 9.2505039, "elevation": 2575.0, "source": "osm", "_tags": {"alt_name": "Piz de Cressim", "ele": "2575", "name": "Pizzo Roggione", "natural": "peak", "source": "Regione Lombardia - La banca dati territoriali CTR10000 e' prodotta da Regione Lombardia - Infrastruttura per l'Informazione Territoriale"}}, {"name": "Pizzo d'Arsa", "latitude": 46.2686612, "longitude": 9.2542306, "elevation": 2490.0, "source": "osm", "_tags": {"ele": "2490", "name": "Pizzo d'Arsa", "natural": "peak", "source": "Regione Lombardia - La banca dati territoriali CTR10000 e' prodotta da Regione Lombardia - Infrastruttura per l'Informazione Territoriale"}}, {"name": "Mut Pelee", "latitude": 46.254072, "longitude": 9.2868887, "elevation": 2120.0, "source": "osm", "_tags": {"ele": "2120", "name": "Mut Pelee", "natural": "peak"}}, {"name": "Cima de Lughezzasca", "latitude": 46.3492415, "longitude": 9.2959875, "elevation": 2715.0, "source": "osm", "_tags": {"alt_name": "Cima di Lughesasca", "ele": "2715", "name": "Cima de Lughezzasca", "natural": "peak", "source": "Regione Lombardia - La banca dati territoriali CTR10000 e' prodotta da Regione Lombardia - Infrastruttura per l'Informazione Territoriale"}}, {"name": "Fil dei Fredolan", "latitude": 46.3583704, "longitude": 9.2823446, "elevation": 2710.0, "source": "osm", "_tags": {"ele": "2710", "name": "Fil dei Fredolan", "natural": "peak", "source": "Regione Lombardia - La banca dati territoriali CTR10000 e' prodotta da Regione Lombardia - Infrastruttura per l'Informazione Territoriale"}}, {"name": "Pizzo Groppera", "latitude": 46.4140682, "longitude": 9.3998247, "elevation": 2948.0, "source": "osm", "_tags": {"ele": "2948", "name": "Pizzo Groppera", "natural": "peak", "source": "Regione Lombardia - La banca dati territoriali CTR10000 e' prodotta da Regione Lombardia - Infrastruttura per l'Informazione Territoriale", "wikidata": "Q747532", "wikipedia": "it:Pizzo Groppera"}}, {"name": "La Colmenetta", "latitude": 46.4201464, "longitude": 9.3817973, "elevation": 2345.0, "source": "osm", "_tags": {"ele": "2345", "name": "La Colmenetta", "natural": "peak", "source": "Regione Lombardia - La banca dati territoriali CTR10000 e' prodotta da Regione Lombardia - Infrastruttura per l'Informazione Territoriale"}}, {"name": "Motto di Bondeno", "latitude": 46.3720398, "longitude": 9.3751999, "elevation": 1786.0, "source": "osm", "_tags": {"ele": "1786", "name": "Motto di Bondeno", "natural": "peak", "source": "Regione Lombardia - La banca dati territoriali CTR10000 e' prodotta da Regione Lombardia - Infrastruttura per l'Informazione Territoriale"}}, {"name": "Pizzo Alto", "latitude": 46.3562802, "longitude": 9.4126473, "elevation": 2482.0, "source": "osm", "_tags": {"ele": "2482", "name": "Pizzo Alto", "natural": "peak", "source": "Regione Lombardia - La banca dati territoriali CTR10000 e' prodotta da Regione Lombardia - Infrastruttura per l'Informazione Territoriale"}}, {"name": "Monte Mater", "latitude": 46.3249712, "longitude": 9.3217278, "elevation": 2415.0, "source": "osm", "_tags": {"ele": "2415", "name": "Monte Mater", "natural": "peak", "source": "Regione Lombardia - La banca dati territoriali CTR10000 e' prodotta da Regione Lombardia - Infrastruttura per l'Informazione Territoriale"}}, {"name": "Il Pizzetto", "latitude": 46.3289979, "longitude": 9.3329769, "elevation": null, "source": "osm", "_tags": {"name": "Il Pizzetto", "natural": "peak", "source": "Regione Lombardia - La banca dati territoriali CTR10000 e' prodotta da Regione Lombardia - Infrastruttura per l'Informazione Territoriale"}}, {"name": "Pizzo Camoscera", "latitude": 46.3573166, "longitude": 9.3402449, "elevation": 2050.0, "source": "osm", "_tags": {"ele": "2050", "name": "Pizzo Camoscera", "natural": "peak", "source": "Regione Lombardia - La banca dati territoriali CTR10000 e' prodotta da Regione Lombardia - Infrastruttura per l'Informazione Territoriale"}}, {"name": "Motta Secca", "latitude": 46.362297, "longitude": 9.378975, "elevation": 1670.0, "source": "osm", "_tags": {"ele": "1670", "name": "Motta Secca", "natural": "peak", "source": "Regione Lombardia - La banca dati territoriali CTR10000 e' prodotta da Regione Lombardia - Infrastruttura per l'Informazione Territoriale"}}, {"name": "Pizzo Camoscie", "latitude": 46.3641619, "longitude": 9.3265335, "elevation": 2467.0, "source": "osm", "_tags": {"alt_name": "I Caurgh", "ele": "2467", "name": "Pizzo Camoscie", "natural": "peak", "source": "Regione Lombardia - La banca dati territoriali CTR10000 e' prodotta da Regione Lombardia - Infrastruttura per l'Informazione Territoriale"}}, {"name": "Pizzo Guardiello", "latitude": 46.3478358, "longitude": 9.394452, "elevation": 2091.0, "source": "osm", "_tags": {"ele": "2091", "name": "Pizzo Guardiello", "natural": "peak", "source": "Regione Lombardia - La banca dati territoriali CTR10000 e' prodotta da Regione Lombardia - Infrastruttura per l'Informazione Territoriale"}}, {"name": "Motto del Piano", "latitude": 46.3563361, "longitude": 9.3957449, "elevation": 2313.0, "source": "osm", "_tags": {"ele": "2313", "name": "Motto del Piano", "natural": "peak", "source": "Regione Lombardia - La banca dati territoriali CTR10000 e' prodotta da Regione Lombardia - Infrastruttura per l'Informazione Territoriale"}}, {"name": "Dosso della Marcia", "latitude": 46.3359649, "longitude": 9.3966827, "elevation": 1372.0, "source": "osm", "_tags": {"ele": "1372", "name": "Dosso della Marcia", "natural": "peak", "source": "Regione Lombardia - La banca dati territoriali CTR10000 e' prodotta da Regione Lombardia - Infrastruttura per l'Informazione Territoriale"}}, {"name": "Monte Cucco", "latitude": 46.2506726, "longitude": 9.3122157, "elevation": 2024.0, "source": "osm", "_tags": {"ele": "2024", "name": "Monte Cucco", "natural": "peak", "source": "Regione Lombardia - La banca dati territoriali CTR10000 e' prodotta da Regione Lombardia - Infrastruttura per l'Informazione Territoriale"}}, {"name": "Monte Borlasca", "latitude": 46.2591345, "longitude": 9.3456196, "elevation": 1778.0, "source": "osm", "_tags": {"ele": "1778", "name": "Monte Borlasca", "natural": "peak", "source": "Regione Lombardia - La banca dati territoriali CTR10000 e' prodotta da Regione Lombardia - Infrastruttura per l'Informazione Territoriale"}}, {"name": "", "latitude": 46.2731102, "longitude": 9.3721465, "elevation": 659.0, "source": "osm", "_tags": {"ele": "659", "fixme": "Trovare il punto più alto del rilievo su cui sorge la Torre di Signame", "natural": "peak"}}, {"name": "Dosso Mottone", "latitude": 46.2956937, "longitude": 9.3234246, "elevation": 1904.0, "source": "osm", "_tags": {"ele": "1904", "name": "Dosso Mottone", "natural": "peak", "source": "Regione Lombardia - La banca dati territoriali CTR10000 e' prodotta da Regione Lombardia - Infrastruttura per l'Informazione Territoriale"}}, {"name": "Pizzo Anna Maria", "latitude": 46.2349706, "longitude": 9.3334788, "elevation": 2361.0, "source": "osm", "_tags": {"ele": "2361", "name": "Pizzo Anna Maria", "natural": "peak", "source": "Regione Lombardia - La banca dati territoriali CTR10000 e' prodotta da Regione Lombardia - Infrastruttura per l'Informazione Territoriale"}}, {"name": "Pizzo d'Inferno", "latitude": 46.3950906, "longitude": 9.4665568, "elevation": 3034.0, "source": "osm", "_tags": {"ele": "3034", "name": "Pizzo d'Inferno", "natural": "peak", "source": "Regione Lombardia - La banca dati territoriali CTR10000 e' prodotta da Regione Lombardia - Infrastruttura per l'Informazione Territoriale"}}, {"name": "Pizzo Peloso", "latitude": 46.3969738, "longitude": 9.4209245, "elevation": 2780.0, "source": "osm", "_tags": {"ele": "2780", "name": "Pizzo Peloso", "natural": "peak", "source": "Regione Lombardia - La banca dati territoriali CTR10000 e' prodotta da Regione Lombardia - Infrastruttura per l'Informazione Territoriale"}}, {"name": "Pizzo Rosso", "latitude": 46.3802264, "longitude": 9.4631977, "elevation": 3050.0, "source": "osm", "_tags": {"ele": "3050", "name": "Pizzo Rosso", "natural": "peak", "source": "Regione Lombardia - La banca dati territoriali CTR10000 e' prodotta da Regione Lombardia - Infrastruttura per l'Informazione Territoriale"}}, {"name": "Punta del Poli", "latitude": 46.384869, "longitude": 9.4661456, "elevation": 2962.0, "source": "osm", "_tags": {"ele": "2962", "name": "Punta del Poli", "natural": "peak", "source": "Regione Lombardia - La banca dati territoriali CTR10000 e' prodotta da Regione Lombardia - Infrastruttura per l'Informazione Territoriale"}}, {"name": "Cima da la Sovräna", "latitude": 46.3887272, "longitude": 9.4688971, "elevation": 3014.0, "source": "osm", "_tags": {"ele": "3014", "name": "Cima da la Sovräna", "name:it": "Cima della Sovrana", "name:lmo": "Cima da la Sovräna", "natural": "peak", "source": "Regione Lombardia - La banca dati territoriali CTR10000 e' prodotta da Regione Lombardia - Infrastruttura per l'Informazione Territoriale", "wikidata": "Q22503364"}}, {"name": "Cima di Pian Secco", "latitude": 46.4268711, "longitude": 9.4558392, "elevation": 2765.0, "source": "osm", "_tags": {"ele": "2765", "name": "Cima di Pian Secco", "natural": "peak", "source": "Regione Lombardia - La banca dati territoriali CTR10000 e' prodotta da Regione Lombardia - Infrastruttura per l'Informazione Territoriale"}}, {"name": "Lo Stellino", "latitude": 46.3885609, "longitude": 9.4235192, "elevation": 2896.0, "source": "osm", "_tags": {"ele": "2896", "name": "Lo Stellino", "natural": "peak", "source": "Regione Lombardia - La banca dati territoriali CTR10000 e' prodotta da Regione Lombardia - Infrastruttura per l'Informazione Territoriale"}}, {"name": "Cima di Pian della Vacca", "latitude": 46.4205007, "longitude": 9.4544017, "elevation": 2859.0, "source": "osm", "_tags": {"ele": "2859", "name": "Cima di Pian della Vacca", "natural": "peak", "source": "Regione Lombardia - La banca dati territoriali CTR10000 e' prodotta da Regione Lombardia - Infrastruttura per l'Informazione Territoriale"}}, {"name": "Cima della Blese", "latitude": 46.3981606, "longitude": 9.4668272, "elevation": 3044.0, "source": "osm", "_tags": {"alt_name": "Piz Bles", "ele": "3044", "name": "Cima della Blese", "natural": "peak", "source": "Regione Lombardia - La banca dati territoriali CTR10000 e' prodotta da Regione Lombardia - Infrastruttura per l'Informazione Territoriale", "wikidata": "Q7199817"}}, {"name": "Il Dente", "latitude": 46.3920265, "longitude": 9.4213178, "elevation": 2805.0, "source": "osm", "_tags": {"ele": "2805", "name": "Il Dente", "natural": "peak", "source": "Regione Lombardia - La banca dati territoriali CTR10000 e' prodotta da Regione Lombardia - Infrastruttura per l'Informazione Territoriale"}}, {"name": "Corna di Droso", "latitude": 46.2993115, "longitude": 9.4993511, "elevation": 2410.0, "source": "osm", "_tags": {"ele": "2410", "name": "Corna di Droso", "natural": "peak", "source": "Regione Lombardia - La banca dati territoriali CTR10000 e' prodotta da Regione Lombardia - Infrastruttura per l'Informazione Territoriale"}}, {"name": "Monte Congen", "latitude": 46.3070369, "longitude": 9.4974962, "elevation": 2143.0, "source": "osm", "_tags": {"ele": "2143", "name": "Monte Congen", "natural": "peak", "source": "Regione Lombardia - La banca dati territoriali CTR10000 e' prodotta da Regione Lombardia - Infrastruttura per l'Informazione Territoriale"}}, {"name": "Pizzo dello Scudo (Piz Scut)", "latitude": 46.3540994, "longitude": 9.4736042, "elevation": 2538.0, "source": "osm", "_tags": {"ele": "2538", "name": "Pizzo dello Scudo (Piz Scut)", "natural": "peak", "source": "Regione Lombardia - La banca dati territoriali CTR10000 e' prodotta da Regione Lombardia - Infrastruttura per l'Informazione Territoriale"}}, {"name": "Monte Gruf", "latitude": 46.2863594, "longitude": 9.5057952, "elevation": 2936.0, "source": "osm", "_tags": {"ele": "2936", "name": "Monte Gruf", "natural": "peak", "source": "Regione Lombardia - La banca dati territoriali CTR10000 e' prodotta da Regione Lombardia - Infrastruttura per l'Informazione Territoriale", "wikidata": "Q22365297"}}, {"name": "Monte Conco", "latitude": 46.2908141, "longitude": 9.5108877, "elevation": 2905.0, "source": "osm", "_tags": {"ele": "2905", "name": "Monte Conco", "natural": "peak", "source": "gps"}}, {"name": "Cima Codera", "latitude": 46.2942112, "longitude": 9.5148137, "elevation": 2805.0, "source": "osm", "_tags": {"ele": "2805", "name": "Cima Codera", "natural": "peak", "source": "gps"}}, {"name": "Cima Lavina", "latitude": 46.2636263, "longitude": 9.4623836, "elevation": 2181.0, "source": "osm", "_tags": {"ele": "2181", "name": "Cima Lavina", "natural": "peak", "source": "gps"}}, {"name": "Motta di Piaz", "latitude": 46.2681017, "longitude": 9.4875662, "elevation": 1845.0, "source": "osm", "_tags": {"ele": "1845", "name": "Motta di Piaz", "natural": "peak", "source": "Regione Lombardia - La banca dati territoriali CTR10000 e' prodotta da Regione Lombardia - Infrastruttura per l'Informazione Territoriale"}}, {"name": "Sass Becché", "latitude": 46.2828062, "longitude": 9.4878542, "elevation": 2726.0, "source": "osm", "_tags": {"ele": "2726", "name": "Sass Becché", "natural": "peak", "wikidata": "Q22426423"}}, {"name": "Mot Luvre`", "latitude": 46.2444559, "longitude": 9.4956093, "elevation": 2047.0, "source": "osm", "_tags": {"ele": "2047", "name": "Mot Luvre`", "natural": "peak", "source": "Regione Lombardia - La banca dati territoriali CTR10000 e' prodotta da Regione Lombardia - Infrastruttura per l'Informazione Territoriale"}}, {"name": "Motta Alta", "latitude": 46.2462985, "longitude": 9.464461, "elevation": 1683.0, "source": "osm", "_tags": {"ele": "1683", "name": "Motta Alta", "natural": "peak", "source": "gps"}}, {"name": "Cima di Lavrina", "latitude": 46.2492361, "longitude": 9.5045419, "elevation": 2313.0, "source": "osm", "_tags": {"alt_name": "Cima di Lavinèe", "ele": "2313", "loc_name": "Cima di Lavinèe", "name": "Cima di Lavrina", "natural": "peak", "source": "Regione Lombardia - La banca dati territoriali CTR10000 e' prodotta da Regione Lombardia - Infrastruttura per l'Informazione Territoriale"}}, {"name": "Monte Beleniga, cima W", "latitude": 46.2848663, "longitude": 9.4706287, "elevation": 2609.0, "source": "osm", "_tags": {"ele": "2609", "name": "Monte Beleniga, cima W", "natural": "peak", "source": "gps", "wikidata": "Q22364861"}}, {"name": "Il Mottaccio", "latitude": 46.3010601, "longitude": 9.4432449, "elevation": 1925.0, "source": "osm", "_tags": {"ele": "1925", "name": "Il Mottaccio", "natural": "peak", "source": "Regione Lombardia - La banca dati territoriali CTR10000 e' prodotta da Regione Lombardia - Infrastruttura per l'Informazione Territoriale"}}, {"name": "Motta d'Avedee", "latitude": 46.2348475, "longitude": 9.4555749, "elevation": 1448.0, "source": "osm", "_tags": {"ele": "1448", "name": "Motta d'Avedee", "natural": "peak", "source": "gps"}}, {"name": "Monte Saragiolo", "latitude": 46.3477909, "longitude": 9.469183, "elevation": 2304.0, "source": "osm", "_tags": {"ele": "2304", "loc_name": "Saregioo", "name": "Monte Saragiolo", "natural": "peak"}}, {"name": "Pizzo Grillo", "latitude": 46.3020831, "longitude": 9.4632275, "elevation": 2169.0, "source": "osm", "_tags": {"alt_name": "Forbesc", "ele": "2169", "name": "Pizzo Grillo", "natural": "peak"}}, {"name": "Corna di Garzonè", "latitude": 46.2931697, "longitude": 9.4615401, "elevation": 2455.0, "source": "osm", "_tags": {"alt_name": "Piz del Grill", "ele": "2455", "name": "Corna di Garzonè", "natural": "peak", "source": "gps"}}, {"name": "Corno di Piodalancia", "latitude": 46.2677295, "longitude": 9.4428344, "elevation": 1870.0, "source": "osm", "_tags": {"ele": "1870", "name": "Corno di Piodalancia", "natural": "peak", "source": "gps"}}, {"name": "Punta Buzzetti", "latitude": 46.2792451, "longitude": 9.4612515, "elevation": 2505.0, "source": "osm", "_tags": {"ele": "2505", "name": "Punta Buzzetti", "natural": "peak", "source": "Regione Lombardia - La banca dati territoriali CTR10000 e' prodotta da Regione Lombardia - Infrastruttura per l'Informazione Territoriale"}}, {"name": "Monte Matra", "latitude": 46.2807015, "longitude": 9.4413155, "elevation": 2205.0, "source": "osm", "_tags": {"ele": "2205", "name": "Monte Matra", "natural": "peak", "source": "Regione Lombardia - La banca dati territoriali CTR10000 e' prodotta da Regione Lombardia - Infrastruttura per l'Informazione Territoriale"}}, {"name": "Monte Sparavera", "latitude": 46.2788783, "longitude": 9.4484673, "elevation": 2501.0, "source": "osm", "_tags": {"ele": "2501", "name": "Monte Sparavera", "natural": "peak", "source": "Regione Lombardia - La banca dati territoriali CTR10000 e' prodotta da Regione Lombardia - Infrastruttura per l'Informazione Territoriale"}}, {"name": "Monte Galleggione", "latitude": 46.3668379, "longitude": 9.4877365, "elevation": 3106.0, "source": "osm", "_tags": {"alt_name": "Piz Gallagiun", "ele": "3106", "name": "Monte Galleggione", "natural": "peak", "source": "Regione Lombardia - La banca dati territoriali CTR10000 e' prodotta da Regione Lombardia - Infrastruttura per l'Informazione Territoriale", "wikidata": "Q3883624", "wikipedia": "it:Pizzo Galleggione"}}, {"name": "Monte Alto", "latitude": 46.2853432, "longitude": 9.4215772, "elevation": 1324.0, "source": "osm", "_tags": {"description": "Erroneamente riportato in mappa come \"Monte Matoldo\". In realtà la denominazione italiana corretta è Monte Alto, derivato dal dialetto locale \"Mot Olt\".", "ele": "1324", "name": "Monte Alto", "natural": "peak", "source": "Regione Lombardia - La banca dati territoriali CTR10000 e' prodotta da Regione Lombardia - Infrastruttura per l'Informazione Territoriale"}}, {"name": "Pizzo della Croce", "latitude": 45.9360779, "longitude": 9.0558663, "elevation": 1491.0, "source": "osm", "_tags": {"ele": "1491", "name": "Pizzo della Croce", "natural": "peak", "source": "Regione Lombardia - La banca dati territoriali CTR10000 e' prodotta da Regione Lombardia - Infrastruttura per l'Informazione Territoriale", "wikidata": "Q933309", "wikimedia_commons": "Category:Pizzo della Croce (Como)", "wikipedia": "it:Pizzo della Croce"}}, {"name": "Monte Luria", "latitude": 45.9726851, "longitude": 9.0952558, "elevation": 1286.0, "source": "osm", "_tags": {"ele": "1286", "name": "Monte Luria", "natural": "peak", "source": "Regione Lombardia - La banca dati territoriali CTR10000 e' prodotta da Regione Lombardia - Infrastruttura per l'Informazione Territoriale", "wikidata": "Q113571027", "wikimedia_commons": "Category:Monte Luria"}}, {"name": "Monte Caprino", "latitude": 45.7981911, "longitude": 9.0721871, "elevation": 453.0, "source": "osm", "_tags": {"ele": "453", "name": "Monte Caprino", "natural": "peak", "source": "Regione Lombardia - La banca dati territoriali CTR10000 e' prodotta da Regione Lombardia - Infrastruttura per l'Informazione Territoriale"}}, {"name": "Monte Fontanella", "latitude": 45.9110974, "longitude": 9.0892683, "elevation": 1223.0, "source": "osm", "_tags": {"ele": "1223", "name": "Monte Fontanella", "natural": "peak", "source": "Regione Lombardia - La banca dati territoriali CTR10000 e' prodotta da Regione Lombardia - Infrastruttura per l'Informazione Territoriale"}}, {"name": "Monte Prada", "latitude": 45.9627941, "longitude": 9.0555551, "elevation": 1090.0, "source": "osm", "_tags": {"ele": "1090", "name": "Monte Prada", "natural": "peak", "source": "Regione Lombardia - La banca dati territoriali CTR10000 e' prodotta da Regione Lombardia - Infrastruttura per l'Informazione Territoriale"}}, {"name": "Monte d'Orimento", "latitude": 45.9501288, "longitude": 9.039036, "elevation": 1383.0, "source": "osm", "_tags": {"ele": "1383", "name": "Monte d'Orimento", "natural": "peak", "source": "Regione Lombardia - La banca dati territoriali CTR10000 e' prodotta da Regione Lombardia - Infrastruttura per l'Informazione Territoriale", "wikidata": "Q113626405", "wikimedia_commons": "Category:Monte d'Orimento"}}, {"name": "Monte Alpe Nuovo", "latitude": 45.9611897, "longitude": 9.040241, "elevation": 1192.0, "source": "osm", "_tags": {"ele": "1192", "name": "Monte Alpe Nuovo", "natural": "peak", "source": "Regione Lombardia - La banca dati territoriali CTR10000 e' prodotta da Regione Lombardia - Infrastruttura per l'Informazione Territoriale"}}, {"name": "Poncione della Costa", "latitude": 45.8788822, "longitude": 9.0932458, "elevation": 1251.0, "source": "osm", "_tags": {"alt_name": "Poncion della Costa", "ele": "1251", "name": "Poncione della Costa", "natural": "peak", "source": "Regione Lombardia - La banca dati territoriali CTR10000 e' prodotta da Regione Lombardia - Infrastruttura per l'Informazione Territoriale", "source:alt_name": "CTR al tratto"}}, {"name": "Pizzo Meda", "latitude": 45.854344, "longitude": 9.0520376, "elevation": 890.0, "source": "osm", "_tags": {"ele": "890", "name": "Pizzo Meda", "natural": "peak", "source": "knlowledge"}}, {"name": "Monte Bisbino", "latitude": 45.8736906, "longitude": 9.0666586, "elevation": 1325.0, "source": "osm", "_tags": {"ele": "1325", "name": "Monte Bisbino", "natural": "peak", "source": "survey", "wikidata": "Q3861242", "wikimedia_commons": "Category:Monte Bisbino", "wikipedia": "it:Monte Bisbino"}}, {"name": "Sasso Gordona", "latitude": 45.911966, "longitude": 9.081, "elevation": 1410.0, "source": "osm", "_tags": {"ele": "1410", "name": "Sasso Gordona", "natural": "peak", "source": "Regione Lombardia - La banca dati territoriali CTR10000 e' prodotta da Regione Lombardia - Infrastruttura per l'Informazione Territoriale", "wikidata": "Q3950689", "wikipedia": "it:Sasso Gordona"}}, {"name": "Sasso Bovè", "latitude": 45.9606067, "longitude": 9.0141942, "elevation": 1015.0, "source": "osm", "_tags": {"ele": "1015", "name": "Sasso Bovè", "natural": "peak", "source": "Regione Lombardia - La banca dati territoriali CTR10000 e' prodotta da Regione Lombardia - Infrastruttura per l'Informazione Territoriale"}}, {"name": "Monte Caslè", "latitude": 45.9935154, "longitude": 9.0357763, "elevation": 1030.0, "source": "osm", "_tags": {"ele": "1030", "name": "Monte Caslè", "natural": "peak", "source": "Regione Lombardia - La banca dati territoriali CTR10000 e' prodotta da Regione Lombardia - Infrastruttura per l'Informazione Territoriale", "wikidata": "Q115683515"}}, {"name": "Monte Cucco", "latitude": 45.8067507, "longitude": 9.0134958, "elevation": 473.0, "source": "osm", "_tags": {"ele": "473", "name": "Monte Cucco", "natural": "peak", "source": "Regione Lombardia - La banca dati territoriali CTR10000 e' prodotta da Regione Lombardia - Infrastruttura per l'Informazione Territoriale"}}, {"name": "Poggio Bruciato", "latitude": 45.8162151, "longitude": 9.0098266, "elevation": 542.0, "source": "osm", "_tags": {"ele": "542", "name": "Poggio Bruciato", "natural": "peak", "source": "Regione Lombardia - La banca dati territoriali CTR10000 e' prodotta da Regione Lombardia - Infrastruttura per l'Informazione Territoriale"}}, {"name": "Monte Pinzernone", "latitude": 46.001592, "longitude": 9.0521333, "elevation": 1176.0, "source": "osm", "_tags": {"alt_name": "Monte Cecci", "ele": "1176", "name": "Monte Pinzernone", "natural": "peak", "source": "Regione Lombardia - La banca dati territoriali CTR10000 e' prodotta da Regione Lombardia - Infrastruttura per l'Informazione Territoriale"}}, {"name": "Monte Goj", "latitude": 45.7893465, "longitude": 9.10106, "elevation": 477.0, "source": "osm", "_tags": {"alt_name": "Monte Goi", "ele": "477", "name": "Monte Goj", "natural": "peak", "official_name": "Monte Tre Croci", "source:official_name": "CTR 1980-1994 Regione Lombardia"}}, {"name": "Il Monticello", "latitude": 45.9677907, "longitude": 9.0279713, "elevation": 987.0, "source": "osm", "_tags": {"ele": "987", "name": "Il Monticello", "natural": "peak", "source": "Regione Lombardia - La banca dati territoriali CTR10000 e' prodotta da Regione Lombardia - Infrastruttura per l'Informazione Territoriale"}}, {"name": "Monte Creggio", "latitude": 45.9675693, "longitude": 9.0041496, "elevation": 1184.0, "source": "osm", "_tags": {"ele": "1184", "name": "Monte Creggio", "natural": "peak", "source": "Regione Lombardia - La banca dati territoriali CTR10000 e' prodotta da Regione Lombardia - Infrastruttura per l'Informazione Territoriale"}}, {"name": "Monte San Bernardo settentrionale", "latitude": 45.8963478, "longitude": 9.1069816, "elevation": 1351.0, "source": "osm", "_tags": {"alt_name": "Monte San Bernardo", "ele": "1351", "name": "Monte San Bernardo settentrionale", "natural": "peak", "source": "Regione Lombardia - La banca dati territoriali CTR10000 e' prodotta da Regione Lombardia - Infrastruttura per l'Informazione Territoriale", "wikidata": "Q113572960", "wikimedia_commons": "Category:Monte San Bernardo (Como)"}}, {"name": "Monte Astele", "latitude": 45.8364511, "longitude": 9.1328102, "elevation": 1183.0, "source": "osm", "_tags": {"ele": "1183", "name": "Monte Astele", "name:pronunciation": "as.ˈte.ːle", "natural": "peak", "source": "Regione Lombardia - La banca dati territoriali CTR10000 e' prodotta da Regione Lombardia - Infrastruttura per l'Informazione Territoriale"}}, {"name": "Monte Boletto", "latitude": 45.8337011, "longitude": 9.1423689, "elevation": 1238.0, "source": "osm", "_tags": {"ele": "1238", "name": "Monte Boletto", "natural": "peak", "source": "Regione Lombardia - La banca dati territoriali CTR10000 e' prodotta da Regione Lombardia - Infrastruttura per l'Informazione Territoriale", "wikidata": "Q1945742", "wikimedia_commons": "Category:Monte Boletto"}}, {"name": "Ceppo di Ghidella", "latitude": 45.8539928, "longitude": 9.122315, "elevation": 535.0, "source": "osm", "_tags": {"ele": "535", "name": "Ceppo di Ghidella", "natural": "peak", "source": "Regione Lombardia - La banca dati territoriali CTR10000 e' prodotta da Regione Lombardia - Infrastruttura per l'Informazione Territoriale"}}, {"name": "Monte Comana", "latitude": 45.9189394, "longitude": 9.1159962, "elevation": 1210.0, "source": "osm", "_tags": {"ele": "1210", "name": "Monte Comana", "natural": "peak", "source": "Regione Lombardia - La banca dati territoriali CTR10000 e' prodotta da Regione Lombardia - Infrastruttura per l'Informazione Territoriale"}}, {"name": "Croce d'Ardona", "latitude": 45.8433984, "longitude": 9.1200379, "elevation": 1002.0, "source": "osm", "_tags": {"ele": "1002", "fixme": "posizione da controllare in loco, il castello dovrebbe trovarsi su una anticima del monte Croce d'Ardona, il monte dovrebbe invece essere più a sud.", "name": "Croce d'Ardona", "natural": "peak", "source": "Regione Lombardia - La banca dati territoriali CTR10000 e' prodotta da Regione Lombardia - Infrastruttura per l'Informazione Territoriale"}}, {"name": "Pizzo Tre Termini", "latitude": 45.8364752, "longitude": 9.1250105, "elevation": 1144.0, "source": "osm", "_tags": {"ele": "1144", "name": "Pizzo Tre Termini", "natural": "peak", "source": "Regione Lombardia - La banca dati territoriali CTR10000 e' prodotta da Regione Lombardia - Infrastruttura per l'Informazione Territoriale", "source:name": "segnavia della Comuinità Montana Triangolo Lariano"}}, {"name": "Monte Crocione", "latitude": 46.0060976, "longitude": 9.1959376, "elevation": 1641.0, "source": "osm", "_tags": {"ele": "1641", "name": "Monte Crocione", "natural": "peak", "source": "Regione Lombardia - La banca dati territoriali CTR10000 e' prodotta da Regione Lombardia - Infrastruttura per l'Informazione Territoriale", "wikidata": "Q108156186", "wikimedia_commons": "Category:Monte Crocione"}}, {"name": "Monte di Tremezzo", "latitude": 46.0019241, "longitude": 9.1852861, "elevation": 1699.0, "source": "osm", "_tags": {"ele": "1699", "name": "Monte di Tremezzo", "natural": "peak", "source": "Regione Lombardia - La banca dati territoriali CTR10000 e' prodotta da Regione Lombardia - Infrastruttura per l'Informazione Territoriale", "wikidata": "Q3862179", "wikipedia": "it:Monte di Tremezzo"}}, {"name": "Monte Colmenacco", "latitude": 45.9268371, "longitude": 9.1750049, "elevation": 1281.0, "source": "osm", "_tags": {"ele": "1281", "name": "Monte Colmenacco", "natural": "peak", "wikidata": "Q122811088", "wikimedia_commons": "Category:Monte Colmenacco"}}, {"name": "Monte Colmegnone", "latitude": 45.8924585, "longitude": 9.1182818, "elevation": 1378.0, "source": "osm", "_tags": {"alt_name": "Poncione di Laglio", "ele": "1378", "loc_name": "Poncione di Carate", "name": "Monte Colmegnone", "natural": "peak", "wikidata": "Q3861462", "wikimedia_commons": "Category:Monte Colmegnone", "wikipedia": "it:Monte Colmegnone"}}, {"name": "Monte Gringo", "latitude": 45.9285046, "longitude": 9.1180188, "elevation": 1079.0, "source": "osm", "_tags": {"ele": "1079", "name": "Monte Gringo", "natural": "peak", "source": "Regione Lombardia - La banca dati territoriali CTR10000 e' prodotta da Regione Lombardia - Infrastruttura per l'Informazione Territoriale"}}, {"name": "", "latitude": 45.9135394, "longitude": 9.1158897, "elevation": 1165.0, "source": "osm", "_tags": {"ele": "1165", "natural": "peak", "source": "Regione Lombardia - La banca dati territoriali CTR10000 e' prodotta da Regione Lombardia - Infrastruttura per l'Informazione Territoriale", "tourism": "viewpoint"}}, {"name": "Dosso della Merma", "latitude": 45.824685, "longitude": 9.1662269, "elevation": 944.0, "source": "osm", "_tags": {"ele": "944", "name": "Dosso della Merma", "natural": "peak", "source": "Regione Lombardia - La banca dati territoriali CTR10000 e' prodotta da Regione Lombardia - Infrastruttura per l'Informazione Territoriale"}}, {"name": "Monte Palanzone", "latitude": 45.8620942, "longitude": 9.2016605, "elevation": 1436.0, "source": "osm", "_tags": {"alt_name": "Palanzolo", "ele": "1436", "name": "Monte Palanzone", "natural": "peak", "source": "survey", "wikidata": "Q1152669", "wikimedia_commons": "Category:Palanzone", "wikipedia": "it:Palanzone"}}, {"name": "Monte Preaola", "latitude": 45.8797166, "longitude": 9.1839641, "elevation": 1413.0, "source": "osm", "_tags": {"ele": "1413", "mapillary": "758243111529734", "name": "Monte Preaola", "natural": "peak", "source:name": "CTR al tratto; segnavia della Comunità Montana Triangolo Lariano.", "wikidata": "Q131195376", "wikimedia_commons": "Category:Monte Preaola"}}, {"name": "Monte Puscio", "latitude": 45.8401991, "longitude": 9.2050255, "elevation": 1141.0, "source": "osm", "_tags": {"alt_name": "Croce di Maiano", "ele": "1141", "name": "Monte Puscio", "natural": "peak", "source": "Regione Lombardia - La banca dati territoriali CTR10000 e' prodotta da Regione Lombardia - Infrastruttura per l'Informazione Territoriale", "wikidata": "Q123504927", "wikimedia_commons": "Category:Monte Puscio"}}, {"name": "Monte di Faello", "latitude": 45.8693327, "longitude": 9.1942928, "elevation": 1335.0, "source": "osm", "_tags": {"ele": "1335", "name": "Monte di Faello", "natural": "peak", "source": "Regione Lombardia - La banca dati territoriali CTR10000 e' prodotta da Regione Lombardia - Infrastruttura per l'Informazione Territoriale"}}, {"name": "Monte di Careno", "latitude": 45.8866541, "longitude": 9.1740938, "elevation": 1226.0, "source": "osm", "_tags": {"ele": "1226", "name": "Monte di Careno", "natural": "peak", "source": "Regione Lombardia - La banca dati territoriali CTR10000 e' prodotta da Regione Lombardia - Infrastruttura per l'Informazione Territoriale"}}, {"name": "Monte di Binate", "latitude": 45.905103, "longitude": 9.1053129, "elevation": 1271.0, "source": "osm", "_tags": {"ele": "1271", "name": "Monte di Binate", "natural": "peak", "source": "Regione Lombardia - La banca dati territoriali CTR10000 e' prodotta da Regione Lombardia - Infrastruttura per l'Informazione Territoriale"}}, {"name": "Monte del Rocco", "latitude": 46.0070699, "longitude": 9.1365576, "elevation": 1303.0, "source": "osm", "_tags": {"ele": "1303", "name": "Monte del Rocco", "natural": "peak", "source": "Regione Lombardia - La banca dati territoriali CTR10000 e' prodotta da Regione Lombardia - Infrastruttura per l'Informazione Territoriale", "wikidata": "Q113672776", "wikimedia_commons": "Category:Monte del Rocco"}}, {"name": "Dosso di Prai", "latitude": 45.9966168, "longitude": 9.1107773, "elevation": 1164.0, "source": "osm", "_tags": {"ele": "1164", "name": "Dosso di Prai", "natural": "peak", "source": "Regione Lombardia - La banca dati territoriali CTR10000 e' prodotta da Regione Lombardia - Infrastruttura per l'Informazione Territoriale"}}, {"name": "Pizzo dell'Asino", "latitude": 45.8534175, "longitude": 9.1914952, "elevation": 1272.0, "source": "osm", "_tags": {"ele": "1272", "name": "Pizzo dell'Asino", "natural": "peak", "source": "Regione Lombardia - La banca dati territoriali CTR10000 e' prodotta da Regione Lombardia - Infrastruttura per l'Informazione Territoriale", "wikidata": "Q15124895"}}, {"name": "Monte Pol", "latitude": 45.889445, "longitude": 9.1720349, "elevation": 1145.0, "source": "osm", "_tags": {"ele": "1145", "loc_name": "Piza del Fuga", "name": "Monte Pol", "natural": "peak"}}, {"name": "Monte Gireglio", "latitude": 45.9531962, "longitude": 9.1048923, "elevation": 974.0, "source": "osm", "_tags": {"alt_name": "Monte Girella", "ele": "974", "name": "Monte Gireglio", "natural": "peak", "source": "Regione Lombardia - La banca dati territoriali CTR10000 e' prodotta da Regione Lombardia - Infrastruttura per l'Informazione Territoriale"}}, {"name": "Monte di Lenno", "latitude": 46.0003692, "longitude": 9.1473185, "elevation": 1588.0, "source": "osm", "_tags": {"ele": "1588", "name": "Monte di Lenno", "natural": "peak", "source": "Regione Lombardia - La banca dati territoriali CTR10000 e' prodotta da Regione Lombardia - Infrastruttura per l'Informazione Territoriale", "wikidata": "Q31641249", "wikimedia_commons": "Category:Monte di Lenno"}}, {"name": "Monte Cappon", "latitude": 45.9005992, "longitude": 9.1632412, "elevation": 704.0, "source": "osm", "_tags": {"ele": "704", "name": "Monte Cappon", "natural": "peak", "source": "Regione Lombardia - La banca dati territoriali CTR10000 e' prodotta da Regione Lombardia - Infrastruttura per l'Informazione Territoriale"}}, {"name": "Cima della Duaria", "latitude": 45.984502, "longitude": 9.1467062, "elevation": 1446.0, "source": "osm", "_tags": {"ele": "1446", "name": "Cima della Duaria", "natural": "peak", "source": "Regione Lombardia - La banca dati territoriali CTR10000 e' prodotta da Regione Lombardia - Infrastruttura per l'Informazione Territoriale", "wikidata": "Q113515812", "wikimedia_commons": "Category:Cima della Duaria"}}, {"name": "Monte Uccellera", "latitude": 45.8269527, "longitude": 9.1150244, "elevation": 1026.0, "source": "osm", "_tags": {"ele": "1026", "name": "Monte Uccellera", "natural": "peak", "source": "Regione Lombardia - La banca dati territoriali CTR10000 e' prodotta da Regione Lombardia - Infrastruttura per l'Informazione Territoriale"}}, {"name": "Monte Pasquella", "latitude": 45.9627393, "longitude": 9.1146288, "elevation": 1331.0, "source": "osm", "_tags": {"alt_name": "Pizzo Pasquella", "ele": "1331", "loc_name": "Piz Pasquela", "name": "Monte Pasquella", "natural": "peak", "source": "Regione Lombardia - La banca dati territoriali CTR10000 e' prodotta da Regione Lombardia - Infrastruttura per l'Informazione Territoriale"}}, {"name": "Monte Sertore", "latitude": 45.9705023, "longitude": 9.1136276, "elevation": 1393.0, "source": "osm", "_tags": {"ele": "1393", "name": "Monte Sertore", "natural": "peak", "source": "Regione Lombardia - La banca dati territoriali CTR10000 e' prodotta da Regione Lombardia - Infrastruttura per l'Informazione Territoriale"}}, {"name": "Dosso di Lavedo", "latitude": 45.9670382, "longitude": 9.1995868, "elevation": 329.0, "source": "osm", "_tags": {"ele": "329", "name": "Dosso di Lavedo", "natural": "peak", "source": "Regione Lombardia - La banca dati territoriali CTR10000 e' prodotta da Regione Lombardia - Infrastruttura per l'Informazione Territoriale", "wikidata": "Q18620594", "wikimedia_commons": "Category:Dosso di Lavedo"}}, {"name": "Monte di Palanzo", "latitude": 45.876257, "longitude": 9.1801768, "elevation": 1391.0, "source": "osm", "_tags": {"ele": "1391", "mapillary": "3008771646047992", "name": "Monte di Palanzo", "natural": "peak", "source": "survey", "wikidata": "Q131195531", "wikimedia_commons": "Category:Monte di Palanzo"}}, {"name": "Dosso Fagorato", "latitude": 45.8157934, "longitude": 9.1616956, "elevation": 855.0, "source": "osm", "_tags": {"alt_name": "Dosso Fragorato", "ele": "855", "mountain_pass": "no", "name": "Dosso Fagorato", "natural": "peak", "source": "survey", "source:alt_name": "CTR al tratto", "source:name": "cartelli segnavia e tabelloni dei sentieri"}}, {"name": "Monte Cornizzolo", "latitude": 45.8370658, "longitude": 9.301933, "elevation": 1240.0, "source": "osm", "_tags": {"ele": "1240", "name": "Monte Cornizzolo", "natural": "peak", "old_name": "Monte Pedale", "summit:cross": "yes", "wikidata": "Q1069732", "wikimedia_commons": "Category:Cornizzolo", "wikipedia": "it:Cornizzolo"}}, {"name": "Ceppo della Forca", "latitude": 45.8809634, "longitude": 9.3047174, "elevation": 596.0, "source": "osm", "_tags": {"ele": "596", "name": "Ceppo della Forca", "natural": "peak", "source": "Regione Lombardia - La banca dati territoriali CTR10000 e' prodotta da Regione Lombardia - Infrastruttura per l'Informazione Territoriale"}}, {"name": "Monte Doardo", "latitude": 45.9059522, "longitude": 9.2223701, "elevation": 1402.0, "source": "osm", "_tags": {"ele": "1402", "name": "Monte Doardo", "natural": "peak", "source": "Regione Lombardia - La banca dati territoriali CTR10000 e' prodotta da Regione Lombardia - Infrastruttura per l'Informazione Territoriale"}}, {"name": "I Lardei", "latitude": 45.8823536, "longitude": 9.2097564, "elevation": 1335.0, "source": "osm", "_tags": {"ele": "1335", "name": "I Lardei", "natural": "peak", "source": "Regione Lombardia - La banca dati territoriali CTR10000 e' prodotta da Regione Lombardia - Infrastruttura per l'Informazione Territoriale"}}, {"name": "Sguancia", "latitude": 45.8574425, "longitude": 9.2944836, "elevation": 941.0, "source": "osm", "_tags": {"alt_name": "Piano di Candalino", "ele": "941", "name": "Sguancia", "natural": "peak", "source": "Regione Lombardia - La banca dati territoriali CTR10000 e' prodotta da Regione Lombardia - Infrastruttura per l'Informazione Territoriale", "wikidata": "Q123501526", "wikimedia_commons": "Category:Sguancia"}}, {"name": "Monte Roncaglia", "latitude": 45.898627, "longitude": 9.2400025, "elevation": 1297.0, "source": "osm", "_tags": {"ele": "1297", "name": "Monte Roncaglia", "natural": "peak", "source": "Regione Lombardia - La banca dati territoriali CTR10000 e' prodotta da Regione Lombardia - Infrastruttura per l'Informazione Territoriale"}}, {"name": "Colma Piana", "latitude": 45.8580945, "longitude": 9.2164371, "elevation": 1182.0, "source": "osm", "_tags": {"ele": "1182", "name": "Colma Piana", "natural": "peak", "source": "Regione Lombardia - La banca dati territoriali CTR10000 e' prodotta da Regione Lombardia - Infrastruttura per l'Informazione Territoriale"}}, {"name": "Monte Cippei", "latitude": 45.8898615, "longitude": 9.2326759, "elevation": 1230.0, "source": "osm", "_tags": {"ele": "1230", "name": "Monte Cippei", "natural": "peak", "source": "Regione Lombardia - La banca dati territoriali CTR10000 e' prodotta da Regione Lombardia - Infrastruttura per l'Informazione Territoriale"}}, {"name": "Monte Fopa", "latitude": 45.931927, "longitude": 9.2199585, "elevation": 1116.0, "source": "osm", "_tags": {"ele": "1116", "name": "Monte Fopa", "natural": "peak"}}, {"name": "Monte Panigas", "latitude": 45.829642, "longitude": 9.2080681, "elevation": 901.0, "source": "osm", "_tags": {"ele": "901", "name": "Monte Panigas", "natural": "peak", "source": "Regione Lombardia - La banca dati territoriali CTR10000 e' prodotta da Regione Lombardia - Infrastruttura per l'Informazione Territoriale", "wikidata": "Q123509473", "wikimedia_commons": "Category:Monte Panigas"}}, {"name": "Monte Scioscia", "latitude": 45.8350609, "longitude": 9.2657815, "elevation": 667.0, "source": "osm", "_tags": {"alt_name": "Scioscia", "ele": "667", "name": "Monte Scioscia", "natural": "peak", "source": "Regione Lombardia - La banca dati territoriali CTR10000 e' prodotta da Regione Lombardia - Infrastruttura per l'Informazione Territoriale", "wikidata": "Q3952389", "wikimedia_commons": "Category:Monte Scioscia", "wikipedia": "it:Scioscia"}}, {"name": "Monte Alto", "latitude": 45.8272464, "longitude": 9.2569171, "elevation": 560.0, "source": "osm", "_tags": {"ele": "560", "name": "Monte Alto", "natural": "peak", "source": "Regione Lombardia - La banca dati territoriali CTR10000 e' prodotta da Regione Lombardia - Infrastruttura per l'Informazione Territoriale"}}, {"name": "Dosso Mattone / Monte Freddo", "latitude": 45.8508297, "longitude": 9.2359956, "elevation": 1050.0, "source": "osm", "_tags": {"ele": "1050", "name": "Dosso Mattone / Monte Freddo", "natural": "peak", "source": "Regione Lombardia - La banca dati territoriali CTR10000 e' prodotta da Regione Lombardia - Infrastruttura per l'Informazione Territoriale"}}, {"name": "Monte Orsera", "latitude": 45.8550428, "longitude": 9.2167262, "elevation": 1101.0, "source": "osm", "_tags": {"ele": "1101", "name": "Monte Orsera", "name:lmo": "Urséra", "natural": "peak", "source": "Regione Lombardia - La banca dati territoriali CTR10000 e' prodotta da Regione Lombardia - Infrastruttura per l'Informazione Territoriale;local knowledge"}}, {"name": "Monte Nuvolone", "latitude": 45.9499654, "longitude": 9.2321759, "elevation": 1092.0, "source": "osm", "_tags": {"ele": "1092", "name": "Monte Nuvolone", "natural": "peak", "source": "Regione Lombardia - La banca dati territoriali CTR10000 e' prodotta da Regione Lombardia - Infrastruttura per l'Informazione Territoriale", "wikidata": "Q1179066", "wikimedia_commons": "Category:Monte Nuvolone"}}, {"name": "Monte Pesora", "latitude": 45.8350138, "longitude": 9.2945613, "elevation": 1195.0, "source": "osm", "_tags": {"ele": "1195", "name": "Monte Pesora", "natural": "peak", "source": "Regione Lombardia - La banca dati territoriali CTR10000 e' prodotta da Regione Lombardia - Infrastruttura per l'Informazione Territoriale", "wikidata": "Q123510624", "wikimedia_commons": "Category:Monte Pesora"}}, {"name": "Monte Megna", "latitude": 45.8792236, "longitude": 9.2795198, "elevation": 1049.0, "source": "osm", "_tags": {"ele": "1049", "name": "Monte Megna", "natural": "peak", "source": "survey", "summit:register": "yes", "wikidata": "Q31640234", "wikimedia_commons": "Category:Monte Megna"}}, {"name": "Monte Garnasca", "latitude": 45.9609242, "longitude": 9.2567256, "elevation": 694.0, "source": "osm", "_tags": {"ele": "694", "name": "Monte Garnasca", "natural": "peak", "source": "Regione Lombardia - La banca dati territoriali CTR10000 e' prodotta da Regione Lombardia - Infrastruttura per l'Informazione Territoriale", "wikidata": "Q108155703"}}, {"name": "Monte Croce", "latitude": 45.8742688, "longitude": 9.2088983, "elevation": 1352.0, "source": "osm", "_tags": {"ele": "1352", "name": "Monte Croce", "natural": "peak", "source": "Regione Lombardia - La banca dati territoriali CTR10000 e' prodotta da Regione Lombardia - Infrastruttura per l'Informazione Territoriale"}}, {"name": "Ceppo dell'Angua", "latitude": 45.8471666, "longitude": 9.2988989, "elevation": 876.0, "source": "osm", "_tags": {"ele": "876", "loc_name": "Scalfin del diavul", "name": "Ceppo dell'Angua", "natural": "peak", "source": "gps"}}, {"name": "Monte Pianchetta", "latitude": 45.8760652, "longitude": 9.2179942, "elevation": 1242.0, "source": "osm", "_tags": {"ele": "1242", "name": "Monte Pianchetta", "natural": "peak", "source": "Regione Lombardia - La banca dati territoriali CTR10000 e' prodotta da Regione Lombardia - Infrastruttura per l'Informazione Territoriale"}}, {"name": "Dosso della Fornace", "latitude": 45.8597738, "longitude": 9.2280398, "elevation": 996.0, "source": "osm", "_tags": {"ele": "996", "name": "Dosso della Fornace", "natural": "peak", "source": "Regione Lombardia - La banca dati territoriali CTR10000 e' prodotta da Regione Lombardia - Infrastruttura per l'Informazione Territoriale"}}, {"name": "Monte Falò", "latitude": 45.8812834, "longitude": 9.2259176, "elevation": 1179.0, "source": "osm", "_tags": {"ele": "1179", "name": "Monte Falò", "natural": "peak", "source": "Regione Lombardia - La banca dati territoriali CTR10000 e' prodotta da Regione Lombardia - Infrastruttura per l'Informazione Territoriale"}}, {"name": "Dosso Deo", "latitude": 45.8689154, "longitude": 9.2735649, "elevation": 723.0, "source": "osm", "_tags": {"ele": "723", "name": "Dosso Deo", "natural": "peak", "source": "Regione Lombardia - La banca dati territoriali CTR10000 e' prodotta da Regione Lombardia - Infrastruttura per l'Informazione Territoriale"}}, {"name": "Monte Castel di Leves", "latitude": 45.9116457, "longitude": 9.2811883, "elevation": 966.0, "source": "osm", "_tags": {"ele": "966", "name": "Monte Castel di Leves", "natural": "peak", "source:name": "cartelli segnavia", "wikidata": "Q108155296", "wikimedia_commons": "Category:Monte Castel di Leves"}}, {"name": "Cima del Costone", "latitude": 45.9123666, "longitude": 9.2210002, "elevation": 1611.0, "source": "osm", "_tags": {"ele": "1611", "name": "Cima del Costone", "natural": "peak", "source": "Regione Lombardia - La banca dati territoriali CTR10000 e' prodotta da Regione Lombardia - Infrastruttura per l'Informazione Territoriale", "wikidata": "Q31641237"}}, {"name": "Monte Grionsc", "latitude": 45.9354007, "longitude": 9.2418488, "elevation": 925.0, "source": "osm", "_tags": {"ele": "925", "name": "Monte Grionsc", "natural": "peak", "source": "Regione Lombardia - La banca dati territoriali CTR10000 e' prodotta da Regione Lombardia - Infrastruttura per l'Informazione Territoriale"}}, {"name": "Monte Forcella", "latitude": 45.9233175, "longitude": 9.2377916, "elevation": 1322.0, "source": "osm", "_tags": {"ele": "1322", "name": "Monte Forcella", "natural": "peak", "source": "Regione Lombardia - La banca dati territoriali CTR10000 e' prodotta da Regione Lombardia - Infrastruttura per l'Informazione Territoriale", "wikidata": "Q108155526"}}, {"name": "Monte Corbera / Monte Dalco", "latitude": 45.9251391, "longitude": 9.2578622, "elevation": 997.0, "source": "osm", "_tags": {"ele": "997", "loc_name": "Monte Dalco", "name": "Monte Corbera / Monte Dalco", "natural": "peak", "prominence": "36"}}, {"name": "Ceppo del Mucchio", "latitude": 45.9398398, "longitude": 9.2240817, "elevation": 1081.0, "source": "osm", "_tags": {"ele": "1081", "name": "Ceppo del Mucchio", "natural": "peak", "source": "Regione Lombardia - La banca dati territoriali CTR10000 e' prodotta da Regione Lombardia - Infrastruttura per l'Informazione Territoriale"}}, {"name": "Dosso Maggiore", "latitude": 45.9488853, "longitude": 9.2532248, "elevation": 725.0, "source": "osm", "_tags": {"ele": "725", "name": "Dosso Maggiore", "natural": "peak", "source": "Regione Lombardia - La banca dati territoriali CTR10000 e' prodotta da Regione Lombardia - Infrastruttura per l'Informazione Territoriale", "wikidata": "Q108155642"}}, {"name": "Il Dosso", "latitude": 45.8958116, "longitude": 9.2089387, "elevation": 1004.0, "source": "osm", "_tags": {"ele": "1004", "name": "Il Dosso", "natural": "peak", "source": "Regione Lombardia - La banca dati territoriali CTR10000 e' prodotta da Regione Lombardia - Infrastruttura per l'Informazione Territoriale"}}, {"name": "Monte Spinei", "latitude": 45.8307196, "longitude": 9.2493256, "elevation": 588.0, "source": "osm", "_tags": {"alt_name": "Dosso della Gualdera", "ele": "588", "name": "Monte Spinei", "natural": "peak", "source": "Regione Lombardia - La banca dati territoriali CTR10000 e' prodotta da Regione Lombardia - Infrastruttura per l'Informazione Territoriale", "wikidata": "Q123503653", "wikimedia_commons": "Category:Monte Spinei"}}, {"name": "Monte Lot", "latitude": 45.9058626, "longitude": 9.2120619, "elevation": 1290.0, "source": "osm", "_tags": {"ele": "1290", "name": "Monte Lot", "natural": "peak", "source": "Regione Lombardia - La banca dati territoriali CTR10000 e' prodotta da Regione Lombardia - Infrastruttura per l'Informazione Territoriale"}}, {"name": "Croce di Pizzallo", "latitude": 45.8544357, "longitude": 9.2496865, "elevation": 974.0, "source": "osm", "_tags": {"ele": "974", "name": "Croce di Pizzallo", "natural": "peak", "source": "Regione Lombardia - La banca dati territoriali CTR10000 e' prodotta da Regione Lombardia - Infrastruttura per l'Informazione Territoriale", "wikidata": "Q123503769", "wikimedia_commons": "Category:Croce di Pizzallo"}}, {"name": "Monte Oriolo", "latitude": 45.8950197, "longitude": 9.2743378, "elevation": 1108.0, "source": "osm", "_tags": {"ele": "1108", "name": "Monte Oriolo", "natural": "peak", "source": "CTR Regione Lombardia", "wikidata": "Q31640209"}}, {"name": "Monte Torretta", "latitude": 45.8875387, "longitude": 9.2490044, "elevation": 1105.0, "source": "osm", "_tags": {"ele": "1105", "name": "Monte Torretta", "natural": "peak", "source": "Regione Lombardia - La banca dati territoriali CTR10000 e' prodotta da Regione Lombardia - Infrastruttura per l'Informazione Territoriale"}}, {"name": "Pizzo del Cich", "latitude": 45.9919948, "longitude": 9.3633694, "elevation": 1454.0, "source": "osm", "_tags": {"alt_name": "Pizzo di Cich", "ele": "1454", "name": "Pizzo del Cich", "natural": "peak", "source": "Regione Lombardia - La banca dati territoriali CTR10000 e' prodotta da Regione Lombardia - Infrastruttura per l'Informazione Territoriale", "wikidata": "Q115958496"}}, {"name": "Zucco della Colla", "latitude": 45.9937904, "longitude": 9.3839158, "elevation": 645.0, "source": "osm", "_tags": {"ele": "645", "name": "Zucco della Colla", "natural": "peak", "source": "Regione Lombardia - La banca dati territoriali CTR10000 e' prodotta da Regione Lombardia - Infrastruttura per l'Informazione Territoriale"}}, {"name": "Pizzo di Zirlaca", "latitude": 45.9982822, "longitude": 9.3545567, "elevation": 1408.0, "source": "osm", "_tags": {"alt_name": "Cima di Zirlaca", "ele": "1408", "name": "Pizzo di Zirlaca", "natural": "peak", "source": "Regione Lombardia - La banca dati territoriali CTR10000 e' prodotta da Regione Lombardia - Infrastruttura per l'Informazione Territoriale", "wikidata": "Q115958492"}}, {"name": "Pizzo Valansasca", "latitude": 45.9764749, "longitude": 9.3782772, "elevation": 1513.0, "source": "osm", "_tags": {"ele": "1513", "name": "Pizzo Valansasca", "natural": "peak", "source": "Regione Lombardia - La banca dati territoriali CTR10000 e' prodotta da Regione Lombardia - Infrastruttura per l'Informazione Territoriale", "wikidata": "Q115959276"}}, {"name": "Dosso della Chierica", "latitude": 45.9862202, "longitude": 9.3594211, "elevation": 1253.0, "source": "osm", "_tags": {"ele": "1253", "name": "Dosso della Chierica", "natural": "peak", "source": "Regione Lombardia - La banca dati territoriali CTR10000 e' prodotta da Regione Lombardia - Infrastruttura per l'Informazione Territoriale"}}, {"name": "Monte Fopp", "latitude": 45.9885052, "longitude": 9.3108708, "elevation": 1090.0, "source": "osm", "_tags": {"alt_name": "Foppe", "ele": "1090", "name": "Monte Fopp", "natural": "peak", "source": "Regione Lombardia - La banca dati territoriali CTR10000 e' prodotta da Regione Lombardia - Infrastruttura per l'Informazione Territoriale", "wikidata": "Q56104679"}}, {"name": "Sass dell'Ave Maria", "latitude": 45.9722776, "longitude": 9.3719452, "elevation": 1507.0, "source": "osm", "_tags": {"ele": "1507", "name": "Sass dell'Ave Maria", "natural": "peak", "place": "locality", "source": "Regione Lombardia - La banca dati territoriali CTR10000 e' prodotta da Regione Lombardia - Infrastruttura per l'Informazione Territoriale"}}, {"name": "", "latitude": 45.9717733, "longitude": 9.385026, "elevation": 1995.0, "source": "osm", "_tags": {"ele": "1995", "natural": "peak", "source": "Regione Lombardia - La banca dati territoriali CTR10000 e' prodotta da Regione Lombardia - Infrastruttura per l'Informazione Territoriale"}}, {"name": "Monte Pilastro", "latitude": 45.9723365, "longitude": 9.3559408, "elevation": 1827.0, "source": "osm", "_tags": {"ele": "1827", "name": "Monte Pilastro", "natural": "peak", "source": "Regione Lombardia - La banca dati territoriali CTR10000 e' prodotta da Regione Lombardia - Infrastruttura per l'Informazione Territoriale", "wikidata": "Q18005278", "wikipedia": "it:Pilastro (monte)"}}, {"name": "Monte Croce", "latitude": 45.9739722, "longitude": 9.3522834, "elevation": 1780.0, "source": "osm", "_tags": {"ele": "1780", "man_made": "cross", "name": "Monte Croce", "natural": "peak", "source": "PCN ortofoto a colori 2006; CTR al tratto"}}, {"name": "Monte Saetta", "latitude": 45.9763224, "longitude": 9.3470435, "elevation": 1627.0, "source": "osm", "_tags": {"ele": "1627", "name": "Monte Saetta", "natural": "peak", "source": "Regione Lombardia - La banca dati territoriali CTR10000 e' prodotta da Regione Lombardia - Infrastruttura per l'Informazione Territoriale", "wikidata": "Q115957819"}}, {"name": "Monte Parolo", "latitude": 45.978038, "longitude": 9.3221655, "elevation": 1203.0, "source": "osm", "_tags": {"ele": "1203", "name": "Monte Parolo", "natural": "peak", "source": "Regione Lombardia - La banca dati territoriali CTR10000 e' prodotta da Regione Lombardia - Infrastruttura per l'Informazione Territoriale", "wikidata": "Q108154183"}}, {"name": "Sasso di Petua", "latitude": 45.9800909, "longitude": 9.3404284, "elevation": 1404.0, "source": "osm", "_tags": {"ele": "1404", "name": "Sasso di Petua", "natural": "peak", "source": "Regione Lombardia - La banca dati territoriali CTR10000 e' prodotta da Regione Lombardia - Infrastruttura per l'Informazione Territoriale"}}, {"name": "Sasso del Buco", "latitude": 45.9997045, "longitude": 9.325856, "elevation": 934.0, "source": "osm", "_tags": {"ele": "934", "name": "Sasso del Buco", "natural": "peak", "source": "Regione Lombardia - La banca dati territoriali CTR10000 e' prodotta da Regione Lombardia - Infrastruttura per l'Informazione Territoriale"}}, {"name": "Sasso dei Dardi", "latitude": 45.9819402, "longitude": 9.3665987, "elevation": 1339.0, "source": "osm", "_tags": {"ele": "1339", "name": "Sasso dei Dardi", "natural": "peak", "source": "Regione Lombardia - La banca dati territoriali CTR10000 e' prodotta da Regione Lombardia - Infrastruttura per l'Informazione Territoriale", "wikidata": "Q108158990"}}, {"name": "Cimone", "latitude": 45.9820453, "longitude": 9.3646984, "elevation": 1496.0, "source": "osm", "_tags": {"ele": "1496", "name": "Cimone", "natural": "peak", "source": "Regione Lombardia - La banca dati territoriali CTR10000 e' prodotta da Regione Lombardia - Infrastruttura per l'Informazione Territoriale"}}, {"name": "Zucco della Pecora", "latitude": 45.9670379, "longitude": 9.3180279, "elevation": 735.0, "source": "osm", "_tags": {"ele": "735", "name": "Zucco della Pecora", "name:it": "Zucco della Pecora", "name:lmo": "Sas Beret", "natural": "peak", "source": "Regione Lombardia - La banca dati territoriali CTR10000 e' prodotta da Regione Lombardia - Infrastruttura per l'Informazione Territoriale"}}, {"name": "Monte Cucco", "latitude": 45.9631999, "longitude": 9.3297361, "elevation": 1432.0, "source": "osm", "_tags": {"ele": "1432", "man_made": "cross", "name": "Monte Cucco", "natural": "peak", "source": "gps", "wikidata": "Q107641868"}}, {"name": "Sasso del Monte Cucco", "latitude": 45.9695368, "longitude": 9.3287027, "elevation": 1347.0, "source": "osm", "_tags": {"ele": "1347", "name": "Sasso del Monte Cucco", "natural": "peak", "source": "Regione Lombardia - La banca dati territoriali CTR10000 e' prodotta da Regione Lombardia - Infrastruttura per l'Informazione Territoriale", "wikidata": "Q108154930"}}, {"name": "La Conca", "latitude": 45.9678719, "longitude": 9.3438462, "elevation": 1468.0, "source": "osm", "_tags": {"ele": "1468", "name": "La Conca", "natural": "peak", "source": "Regione Lombardia - La banca dati territoriali CTR10000 e' prodotta da Regione Lombardia - Infrastruttura per l'Informazione Territoriale", "wikidata": "Q108159369"}}, {"name": "Il Pizzo", "latitude": 45.9752801, "longitude": 9.3840785, "elevation": 1829.0, "source": "osm", "_tags": {"ele": "1829", "name": "Il Pizzo", "natural": "peak", "source": "Regione Lombardia - La banca dati territoriali CTR10000 e' prodotta da Regione Lombardia - Infrastruttura per l'Informazione Territoriale", "wikidata": "Q115959275"}}, {"name": "Zucco di Meriggio", "latitude": 45.9728468, "longitude": 9.4034842, "elevation": 1206.0, "source": "osm", "_tags": {"ele": "1206", "name": "Zucco di Meriggio", "natural": "peak", "source": "Regione Lombardia - La banca dati territoriali CTR10000 e' prodotta da Regione Lombardia - Infrastruttura per l'Informazione Territoriale"}}, {"name": "Pizzo della Pieve", "latitude": 45.9618713, "longitude": 9.39894, "elevation": 2257.0, "source": "osm", "_tags": {"ele": "2257", "name": "Pizzo della Pieve", "natural": "peak", "source": "Regione Lombardia - La banca dati territoriali CTR10000 e' prodotta da Regione Lombardia - Infrastruttura per l'Informazione Territoriale", "wikidata": "Q56102998"}}, {"name": "Cima del Palone", "latitude": 45.9672349, "longitude": 9.3909999, "elevation": 2089.0, "source": "osm", "_tags": {"ele": "2089", "name": "Cima del Palone", "natural": "peak", "source": "Regione Lombardia - La banca dati territoriali CTR10000 e' prodotta da Regione Lombardia - Infrastruttura per l'Informazione Territoriale", "wikidata": "Q56103059"}}, {"name": "Pizzo di Strecc", "latitude": 45.977869, "longitude": 9.3879185, "elevation": 1500.0, "source": "osm", "_tags": {"ele": "1500", "name": "Pizzo di Strecc", "natural": "peak", "source": "Regione Lombardia - La banca dati territoriali CTR10000 e' prodotta da Regione Lombardia - Infrastruttura per l'Informazione Territoriale"}}, {"name": "Zucco degli Eghen", "latitude": 45.9799532, "longitude": 9.386405, "elevation": 1384.0, "source": "osm", "_tags": {"ele": "1384", "name": "Zucco degli Eghen", "natural": "peak", "source": "Regione Lombardia - La banca dati territoriali CTR10000 e' prodotta da Regione Lombardia - Infrastruttura per l'Informazione Territoriale"}}, {"name": "Monte La Porta", "latitude": 46.0025311, "longitude": 9.352842, "elevation": 1344.0, "source": "osm", "_tags": {"ele": "1344", "name": "Monte La Porta", "natural": "peak", "source": "Regione Lombardia - La banca dati territoriali CTR10000 e' prodotta da Regione Lombardia - Infrastruttura per l'Informazione Territoriale"}}, {"name": "Zuc di Pez", "latitude": 45.9382077, "longitude": 9.3314669, "elevation": 883.0, "source": "osm", "_tags": {"ele": "883", "name": "Zuc di Pez", "natural": "peak", "source": "Regione Lombardia - La banca dati territoriali CTR10000 e' prodotta da Regione Lombardia - Infrastruttura per l'Informazione Territoriale", "wikidata": "Q108155144"}}, {"name": "Zucco di Tura", "latitude": 45.9386614, "longitude": 9.3400012, "elevation": 1046.0, "source": "osm", "_tags": {"ele": "1046", "name": "Zucco di Tura", "natural": "peak", "source": "Regione Lombardia - La banca dati territoriali CTR10000 e' prodotta da Regione Lombardia - Infrastruttura per l'Informazione Territoriale"}}, {"name": "Cima dei Pianchini", "latitude": 45.9510652, "longitude": 9.3389001, "elevation": 1397.0, "source": "osm", "_tags": {"ele": "1397", "name": "Cima dei Pianchini", "natural": "peak", "source": "Regione Lombardia - La banca dati territoriali CTR10000 e' prodotta da Regione Lombardia - Infrastruttura per l'Informazione Territoriale", "wikidata": "Q115958390"}}, {"name": "Monte Palagia", "latitude": 45.9584532, "longitude": 9.3373241, "elevation": 1549.0, "source": "osm", "_tags": {"alt_name": "Monte Pelagia", "alt_name_1": "Cima Palagia", "ele": "1549", "name": "Monte Palagia", "natural": "peak", "source:alt_name_1": "Regione Lombardia - La banca dati territoriali CTR10000 e' prodotta da Regione Lombardia - Infrastruttura per l'Informazione Territoriale", "wikidata": "Q56103144", "wikipedia": "it:Monte Palagia"}}, {"name": "Cima di Eghen", "latitude": 45.9620873, "longitude": 9.3449583, "elevation": 1557.0, "source": "osm", "_tags": {"alt_name": "Cima degli Eghen", "ele": "1557", "name": "Cima di Eghen", "natural": "peak", "source": "Regione Lombardia - La banca dati territoriali CTR10000 e' prodotta da Regione Lombardia - Infrastruttura per l'Informazione Territoriale", "wikidata": "Q107641828", "wikimedia_commons": "Category:Cima di Eghen", "wikipedia": "it:Cima di Eghen"}}, {"name": "Zucco di Savia", "latitude": 45.9515967, "longitude": 9.3506337, "elevation": 1073.0, "source": "osm", "_tags": {"ele": "1073", "name": "Zucco di Savia", "natural": "peak", "source": "Regione Lombardia - La banca dati territoriali CTR10000 e' prodotta da Regione Lombardia - Infrastruttura per l'Informazione Territoriale"}}, {"name": "Monte della Tagliata", "latitude": 45.9521329, "longitude": 9.3395243, "elevation": 1397.0, "source": "osm", "_tags": {"ele": "1397", "name": "Monte della Tagliata", "natural": "peak", "source": "Regione Lombardia - La banca dati territoriali CTR10000 e' prodotta da Regione Lombardia - Infrastruttura per l'Informazione Territoriale", "wikidata": "Q127240874", "wikipedia": "fr:Monte La Tagliata"}}, {"name": "Zucco di Belloeuria", "latitude": 45.9405874, "longitude": 9.3401643, "elevation": 1153.0, "source": "osm", "_tags": {"ele": "1153", "name": "Zucco di Belloeuria", "natural": "peak", "source": "Regione Lombardia - La banca dati territoriali CTR10000 e' prodotta da Regione Lombardia - Infrastruttura per l'Informazione Territoriale", "wikidata": "Q115959293"}}, {"name": "Zucco Morterolo", "latitude": 45.9416784, "longitude": 9.3394046, "elevation": 1169.0, "source": "osm", "_tags": {"ele": "1169", "name": "Zucco Morterolo", "natural": "peak", "source": "Regione Lombardia - La banca dati territoriali CTR10000 e' prodotta da Regione Lombardia - Infrastruttura per l'Informazione Territoriale", "wikidata": "Q115958365"}}, {"name": "", "latitude": 45.9452622, "longitude": 9.3500857, "elevation": 838.0, "source": "osm", "_tags": {"ele": "838", "natural": "peak", "source": "Regione Lombardia - La banca dati territoriali CTR10000 e' prodotta da Regione Lombardia - Infrastruttura per l'Informazione Territoriale"}}, {"name": "Zucco Sileggio", "latitude": 45.9455116, "longitude": 9.3378694, "elevation": 1373.0, "source": "osm", "_tags": {"ele": "1373", "name": "Zucco Sileggio", "natural": "peak", "wikidata": "Q50751314"}}, {"name": "Porta di Canal Grande", "latitude": 45.9617835, "longitude": 9.3481849, "elevation": 1536.0, "source": "osm", "_tags": {"ele": "1536", "name": "Porta di Canal Grande", "natural": "peak", "source": "Regione Lombardia - La banca dati territoriali CTR10000 e' prodotta da Regione Lombardia - Infrastruttura per l'Informazione Territoriale", "wikidata": "Q115959320"}}, {"name": "Zuccello di Costa Fontana", "latitude": 45.9526375, "longitude": 9.3589064, "elevation": 1376.0, "source": "osm", "_tags": {"ele": "1376", "name": "Zuccello di Costa Fontana", "natural": "peak", "source": "Regione Lombardia - La banca dati territoriali CTR10000 e' prodotta da Regione Lombardia - Infrastruttura per l'Informazione Territoriale", "wikidata": "Q115958317"}}, {"name": "Zuc del Cornel", "latitude": 45.9562106, "longitude": 9.3560439, "elevation": 1170.0, "source": "osm", "_tags": {"ele": "1170", "name": "Zuc del Cornel", "natural": "peak", "source": "Regione Lombardia - La banca dati territoriali CTR10000 e' prodotta da Regione Lombardia - Infrastruttura per l'Informazione Territoriale", "wikidata": "Q115958400"}}, {"name": "Le Colonne", "latitude": 45.9591408, "longitude": 9.3643782, "elevation": 1465.0, "source": "osm", "_tags": {"ele": "1465", "name": "Le Colonne", "natural": "peak", "source": "Regione Lombardia - La banca dati territoriali CTR10000 e' prodotta da Regione Lombardia - Infrastruttura per l'Informazione Territoriale"}}, {"name": "Zucchello dei Grottoni", "latitude": 45.9562225, "longitude": 9.3664737, "elevation": 1583.0, "source": "osm", "_tags": {"ele": "1583", "name": "Zucchello dei Grottoni", "natural": "peak", "source": "Regione Lombardia - La banca dati territoriali CTR10000 e' prodotta da Regione Lombardia - Infrastruttura per l'Informazione Territoriale", "wikidata": "Q115958629"}}, {"name": "Zuc di Sella", "latitude": 45.9431255, "longitude": 9.3669725, "elevation": 1448.0, "source": "osm", "_tags": {"ele": "1448", "name": "Zuc di Sella", "natural": "peak", "source": "Regione Lombardia - La banca dati territoriali CTR10000 e' prodotta da Regione Lombardia - Infrastruttura per l'Informazione Territoriale", "wikidata": "Q115958636"}}, {"name": "Zucco dei Lares", "latitude": 45.9595726, "longitude": 9.370014, "elevation": 1781.0, "source": "osm", "_tags": {"ele": "1781", "name": "Zucco dei Lares", "natural": "peak", "source": "Regione Lombardia - La banca dati territoriali CTR10000 e' prodotta da Regione Lombardia - Infrastruttura per l'Informazione Territoriale"}}, {"name": "Sasso Cavallo", "latitude": 45.9462768, "longitude": 9.3706531, "elevation": 1923.0, "source": "osm", "_tags": {"ele": "1923", "name": "Sasso Cavallo", "natural": "peak", "source": "Regione Lombardia - La banca dati territoriali CTR10000 e' prodotta da Regione Lombardia - Infrastruttura per l'Informazione Territoriale", "summit:register": "no", "wikidata": "Q56103093", "wikimedia_commons": "Category:Sasso Cavallo", "wikipedia": "it:Sasso Cavallo"}}, {"name": "Sasso dei Carbonari", "latitude": 45.9457887, "longitude": 9.3821454, "elevation": 2157.0, "source": "osm", "_tags": {"ele": "2157", "name": "Sasso dei Carbonari", "natural": "peak", "source": "Regione Lombardia - La banca dati territoriali CTR10000 e' prodotta da Regione Lombardia - Infrastruttura per l'Informazione Territoriale", "wikidata": "Q108043070"}}, {"name": "Il Zuccone", "latitude": 45.947367, "longitude": 9.3717985, "elevation": 1884.0, "source": "osm", "_tags": {"ele": "1884", "name": "Il Zuccone", "natural": "peak", "source": "Regione Lombardia - La banca dati territoriali CTR10000 e' prodotta da Regione Lombardia - Infrastruttura per l'Informazione Territoriale"}}, {"name": "Zucco dei Chignoli", "latitude": 45.9428965, "longitude": 9.3900347, "elevation": 2163.0, "source": "osm", "_tags": {"ele": "2163", "name": "Zucco dei Chignoli", "natural": "peak", "wikidata": "Q123509938", "wikimedia_commons": "Category:Zucco dei Chignoli"}}, {"name": "Cima di Piancaformia", "latitude": 45.9614613, "longitude": 9.3759421, "elevation": 2106.0, "source": "osm", "_tags": {"ele": "2106", "name": "Cima di Piancaformia", "natural": "peak", "source": "Regione Lombardia - La banca dati territoriali CTR10000 e' prodotta da Regione Lombardia - Infrastruttura per l'Informazione Territoriale", "summit:register": "no", "wikidata": "Q108159136"}}, {"name": "Torrioni di Parasciœul Alti", "latitude": 45.9332104, "longitude": 9.3745078, "elevation": 1321.0, "source": "osm", "_tags": {"ele": "1321", "name": "Torrioni di Parasciœul Alti", "natural": "peak", "source": "Regione Lombardia - La banca dati territoriali CTR10000 e' prodotta da Regione Lombardia - Infrastruttura per l'Informazione Territoriale"}}, {"name": "Il Zuccone", "latitude": 45.9307858, "longitude": 9.3670553, "elevation": 1110.0, "source": "osm", "_tags": {"ele": "1110", "name": "Il Zuccone", "natural": "peak", "source": "Regione Lombardia - La banca dati territoriali CTR10000 e' prodotta da Regione Lombardia - Infrastruttura per l'Informazione Territoriale"}}, {"name": "Zucco Pissavacca", "latitude": 45.9394474, "longitude": 9.3603949, "elevation": 1241.0, "source": "osm", "_tags": {"ele": "1241", "name": "Zucco Pissavacca", "natural": "peak", "source": "Regione Lombardia - La banca dati territoriali CTR10000 e' prodotta da Regione Lombardia - Infrastruttura per l'Informazione Territoriale"}}, {"name": "Torrione Costanza", "latitude": 45.9196358, "longitude": 9.3780836, "elevation": 1723.0, "source": "osm", "_tags": {"ele": "1723", "name": "Torrione Costanza", "natural": "peak", "source": "Regione Lombardia - La banca dati territoriali CTR10000 e' prodotta da Regione Lombardia - Infrastruttura per l'Informazione Territoriale"}}, {"name": "Torrioni di Parasciœul Bassi", "latitude": 45.934955, "longitude": 9.3726328, "elevation": 1286.0, "source": "osm", "_tags": {"ele": "1286", "name": "Torrioni di Parasciœul Bassi", "natural": "peak", "source": "Regione Lombardia - La banca dati territoriali CTR10000 e' prodotta da Regione Lombardia - Infrastruttura per l'Informazione Territoriale"}}, {"name": "L'Aser", "latitude": 45.9384859, "longitude": 9.3751116, "elevation": 1349.0, "source": "osm", "_tags": {"ele": "1349", "name": "L'Aser", "natural": "peak", "source": "Regione Lombardia - La banca dati territoriali CTR10000 e' prodotta da Regione Lombardia - Infrastruttura per l'Informazione Territoriale", "wikidata": "Q115958648"}}, {"name": "Zucco Pertusio", "latitude": 45.9209548, "longitude": 9.3637334, "elevation": 1671.0, "source": "osm", "_tags": {"ele": "1671", "name": "Zucco Pertusio", "natural": "peak", "source": "Regione Lombardia - La banca dati territoriali CTR10000 e' prodotta da Regione Lombardia - Infrastruttura per l'Informazione Territoriale", "wikidata": "Q125564299", "wikimedia_commons": "Category:Zucco Pertusio"}}, {"name": "Piramide Casati", "latitude": 45.9218367, "longitude": 9.382038, "elevation": 1940.0, "source": "osm", "_tags": {"ele": "1940", "name": "Piramide Casati", "natural": "peak", "source": "Regione Lombardia - La banca dati territoriali CTR10000 e' prodotta da Regione Lombardia - Infrastruttura per l'Informazione Territoriale", "wikidata": "Q115944685"}}, {"name": "Zucco di Portorella", "latitude": 45.9189178, "longitude": 9.3584596, "elevation": 1531.0, "source": "osm", "_tags": {"ele": "1531", "name": "Zucco di Portorella", "natural": "peak", "wikidata": "Q133272237"}}, {"name": "Torrione Palma", "latitude": 45.9216826, "longitude": 9.3830339, "elevation": 1927.0, "source": "osm", "_tags": {"ele": "1927", "name": "Torrione Palma", "natural": "peak", "source": "Regione Lombardia - La banca dati territoriali CTR10000 e' prodotta da Regione Lombardia - Infrastruttura per l'Informazione Territoriale", "wikidata": "Q131841583"}}, {"name": "Guglia Angelina", "latitude": 45.9208676, "longitude": 9.3851107, "elevation": 1853.0, "source": "osm", "_tags": {"ele": "1853", "name": "Guglia Angelina", "natural": "peak", "source": "Regione Lombardia - La banca dati territoriali CTR10000 e' prodotta da Regione Lombardia - Infrastruttura per l'Informazione Territoriale", "wikidata": "Q131841600"}}, {"name": "Zucco di Lareson", "latitude": 45.9342421, "longitude": 9.3847433, "elevation": 1796.0, "source": "osm", "_tags": {"ele": "1796", "name": "Zucco di Lareson", "natural": "peak", "note": "Toponimo corretto dall'errato \"Larenson\"\nL'errore è stato introdotto nelle levate 1:10.000 del 1983/84 sulle carte CTR della Regione Lombardia. Nel complesso fu una pessima cartografia, inaffidabile e zeppa di errori più o meno gravi.", "source": "Regione Lombardia - La banca dati territoriali CTR10000 e' prodotta da Regione Lombardia - Infrastruttura per l'Informazione Territoriale", "wikidata": "Q115958646"}}, {"name": "Zucco di Campione", "latitude": 45.9252767, "longitude": 9.3886239, "elevation": 2045.0, "source": "osm", "_tags": {"ele": "2045", "name": "Zucco di Campione", "natural": "peak", "source": "Regione Lombardia - La banca dati territoriali CTR10000 e' prodotta da Regione Lombardia - Infrastruttura per l'Informazione Territoriale"}}, {"name": "", "latitude": 45.9301491, "longitude": 9.3841103, "elevation": 1608.0, "source": "osm", "_tags": {"ele": "1608", "fixme": "Il toponimo \"Parasciœulin\" (e non \"Parascioeulin\") si riferisce alla fiancata boscata sospesa (quindi una Località) e NON a una roccia o cima particolare", "natural": "peak", "source": "Regione Lombardia - La banca dati territoriali CTR10000 e' prodotta da Regione Lombardia - Infrastruttura per l'Informazione Territoriale"}}, {"name": "Grigna Meridionale", "latitude": 45.9218962, "longitude": 9.3907166, "elevation": 2177.0, "source": "osm", "_tags": {"alt_name": "Monte Grignetta", "ele": "2177", "loc_name": "Grignetta", "name": "Grigna Meridionale", "natural": "peak", "source": "Regione Lombardia - La banca dati territoriali CTR10000 e' prodotta da Regione Lombardia - Infrastruttura per l'Informazione Territoriale", "summit:cross": "yes", "summit:register": "no", "wikidata": "Q3776753", "wikimedia_commons": "Category:Grigna Meridionale", "wikipedia": "it:Grignetta"}}, {"name": "Torrione Fiorelli", "latitude": 45.9178201, "longitude": 9.4032146, "elevation": 1667.0, "source": "osm", "_tags": {"ele": "1667", "name": "Torrione Fiorelli", "natural": "peak", "source": "Regione Lombardia - La banca dati territoriali CTR10000 e' prodotta da Regione Lombardia - Infrastruttura per l'Informazione Territoriale", "wikidata": "Q115942866"}}, {"name": "Torrione Magnaghi Centrale", "latitude": 45.9210323, "longitude": 9.3952067, "elevation": 2045.0, "source": "osm", "_tags": {"ele": "2045", "name": "Torrione Magnaghi Centrale", "natural": "peak"}}, {"name": "Zucco della Rocca", "latitude": 45.9107158, "longitude": 9.3516096, "elevation": 855.0, "source": "osm", "_tags": {"ele": "855", "mapillary": "335970204961734", "name": "Zucco della Rocca", "natural": "peak", "source": "Regione Lombardia - La banca dati territoriali CTR10000 e' prodotta da Regione Lombardia - Infrastruttura per l'Informazione Territoriale", "summit:register": "no", "tourism": "viewpoint", "wheelchair": "no"}},