[{"name": "Črni vrh", "latitude": 46.485617, "longitude": 15.2332048, "elevation": 1543.0, "source": "osm", "_tags": {"ele": "1543", "name": "Črni vrh", "name:de": "Schwarzkogel", "natural": "peak", "prominence": "945", "wikidata": "Q341650", "wikipedia": "sl:Črni vrh"}}, {"name": "Hochlantsch", "latitude": 47.3629697, "longitude": 15.4240327, "elevation": 1720.0, "source": "osm", "_tags": {"ele": "1720", "name": "Hochlantsch", "natural": "peak", "prominence": "634", "summit:cross": "yes", "summit:register": "yes", "wikidata": "Q21871837", "wikimedia_commons": "Category:Hochlantsch", "wikipedia": "de:Hochlantsch"}}, {"name": "Großer Speikkogel", "latitude": 46.7869197, "longitude": 14.9719475, "elevation": 2140.0, "source": "osm", "_tags": {"ele": "2140", "massif": "Koralpe", "name": "Großer Speikkogel", "natural": "peak", "prominence": "971", "summit:cross": "yes", "summit:register": "yes", "wikidata": "Q1549009", "wikipedia": "de:Großer Speikkogel"}}, {"name": "Speikkogel", "latitude": 47.2270899, "longitude": 15.0484917, "elevation": 1988.0, "source": "osm", "_tags": {"ele": "1988", "name": "Speikkogel", "natural": "peak", "note": "laut Laserscan Geländemodell auf https://gis.stmk.gv.at liegt das Gipfelkreuz auf 1986,5 m und der höchste Geländepunkt ist 18 m nordöstlich auf 1987,8 m", "summit:cross": "yes", "summit:register": "yes", "wikidata": "Q1768757", "wikimedia_commons": "Category:Speikkogel (Gleinalpe)", "wikipedia": "de:Speikkogel (Gleinalpe)"}}, {"name": "Žavcarjev vrh", "latitude": 46.600934, "longitude": 15.523213, "elevation": 915.0, "source": "osm", "_tags": {"ele": "915", "name": "Žavcarjev vrh", "natural": "peak"}}, {"name": "Bellevue", "latitude": 46.5158827, "longitude": 15.5794708, "elevation": 1040.0, "source": "osm", "_tags": {"created_by": "Potlatch 0.4c", "ele": "1040", "name": "Bellevue", "natural": "peak"}}, {"name": "Reški vrh", "latitude": 46.5048889, "longitude": 15.54295, "elevation": 1142.0, "source": "osm", "_tags": {"created_by": "Potlatch 0.4c", "ele": "1142", "name": "Reški vrh", "natural": "peak"}}, {"name": "Kerscheck", "latitude": 47.0427878, "longitude": 15.5492997, "elevation": 509.0, "source": "osm", "_tags": {"ele": "509", "name": "Kerscheck", "natural": "peak", "source": "local knowledge;historical maps;BEV", "wikidata": "Q21868362"}}, {"name": "Schöckl", "latitude": 47.1976213, "longitude": 15.4625265, "elevation": 1445.0, "source": "osm", "_tags": {"ele": "1445", "name": "Schöckl", "natural": "peak", "note": "Achtung: Der Gipfel (höchster Punkt) ist nicht beim Gipfelkreuz, sondern etwas östlich", "summit:cross": "no", "wikidata": "Q1750156", "wikipedia": "de:Schöckl"}}, {"name": "Sv. Urban", "latitude": 46.6037379, "longitude": 15.6054217, "elevation": 597.0, "source": "osm", "_tags": {"ele": "597", "name": "Sv. Urban", "natural": "peak", "wikidata": "Q20524502", "wikipedia": "sl:Sveti Urban (hrib)"}}, {"name": "Mulejev vrh", "latitude": 46.4712854, "longitude": 15.3130124, "elevation": 1533.0, "source": "osm", "_tags": {"ele": "1533", "name": "Mulejev vrh", "natural": "peak"}}, {"name": "Ostruščica", "latitude": 46.4585083, "longitude": 15.323525, "elevation": 1498.0, "source": "osm", "_tags": {"created_by": "JOSM", "ele": "1498", "name": "Ostruščica", "natural": "peak"}}, {"name": "Rogla", "latitude": 46.456485, "longitude": 15.345948, "elevation": 1517.0, "source": "osm", "_tags": {"ele": "1517", "name": "Rogla", "natural": "peak", "note": "PD Konjice, 1955", "wikidata": "Q128857", "wikipedia": "en:Rogla", "wikipedia:en": "Rogla"}}, {"name": "Kraguljišče", "latitude": 46.4478139, "longitude": 15.3158222, "elevation": 1454.0, "source": "osm", "_tags": {"created_by": "JOSM", "ele": "1454", "name": "Kraguljišče", "natural": "peak"}}, {"name": "Pesek", "latitude": 46.4685139, "longitude": 15.3416194, "elevation": 1423.0, "source": "osm", "_tags": {"created_by": "JOSM", "ele": "1423", "name": "Pesek", "natural": "peak"}}, {"name": "Mariborski razglednik (Cigelnica)", "latitude": 46.5119139, "longitude": 15.5652639, "elevation": 1147.0, "source": "osm", "_tags": {"created_by": "JOSM", "ele": "1147", "name": "Mariborski razglednik (Cigelnica)", "natural": "peak"}}, {"name": "Sedovec", "latitude": 46.4963513, "longitude": 15.5348819, "elevation": 1231.0, "source": "osm", "_tags": {"ele": "1231", "name": "Sedovec", "natural": "peak"}}, {"name": "Ledinekov kogel", "latitude": 46.5066667, "longitude": 15.5548778, "elevation": 1182.0, "source": "osm", "_tags": {"created_by": "Potlatch 0.4c", "ele": "1182", "name": "Ledinekov kogel", "natural": "peak"}}, {"name": "Žigartov vrh", "latitude": 46.4945769, "longitude": 15.4870976, "elevation": 1346.0, "source": "osm", "_tags": {"ele": "1346", "name": "Žigartov vrh", "natural": "peak", "wikidata": "Q12807672", "wikipedia": "sl:Žigartov vrh"}}, {"name": "Klopni vrh", "latitude": 46.4980761, "longitude": 15.3921011, "elevation": 1340.0, "source": "osm", "_tags": {"ele": "1340", "name": "Klopni vrh", "natural": "peak"}}, {"name": "Bei den drei Pfarren", "latitude": 47.3430318, "longitude": 15.2425158, "elevation": 1428.0, "source": "osm", "_tags": {"ele": "1428", "name": "Bei den drei Pfarren", "natural": "peak", "wikidata": "Q121052972"}}, {"name": "Fürstenstand", "latitude": 47.0904032, "longitude": 15.3851647, "elevation": 758.0, "source": "osm", "_tags": {"alt_name": "Plabutsch", "description": "Dieser Gipfel heißt Fürstenstand. Der gesamte ca. 10 km lange Höhenzug heißt Plabutsch", "ele": "758", "ele:source": "Digitales Geländemodell auf https://gis.stmk.gv.at", "name": "Fürstenstand", "natural": "peak", "old_name": "Bauernkogel", "wikidata": "Q21870834", "wikipedia": "de:Fürstenstand (Plabutsch)"}}, {"name": "", "latitude": 47.2654225, "longitude": 15.5701905, "elevation": 1080.0, "source": "osm", "_tags": {"ele": "1080", "natural": "peak"}}, {"name": "Tojzlov vrh", "latitude": 46.6046613, "longitude": 15.559882, "elevation": 703.0, "source": "osm", "_tags": {"description": "PK-037", "ele": "703", "name": "Tojzlov vrh", "natural": "peak"}}, {"name": "", "latitude": 46.9999369, "longitude": 14.9045307, "elevation": 1696.0, "source": "osm", "_tags": {"ele": "1696", "natural": "peak"}}, {"name": "Veliki vrh", "latitude": 46.4432978, "longitude": 15.4481831, "elevation": 1344.0, "source": "osm", "_tags": {"ele": "1344", "name": "Veliki vrh", "natural": "peak", "wikidata": "Q31528197"}}, {"name": "Kulm", "latitude": 47.4082964, "longitude": 15.0178127, "elevation": 887.0, "source": "osm", "_tags": {"ele": "887", "name": "Kulm", "natural": "peak"}}, {"name": "", "latitude": 46.6522999, "longitude": 15.3805623, "elevation": 751.0, "source": "osm", "_tags": {"ele": "751", "natural": "peak"}}, {"name": "Wildoner Schloßberg", "latitude": 46.8844996, "longitude": 15.513137, "elevation": 450.0, "source": "osm", "_tags": {"ele": "450", "name": "Wildoner Schloßberg", "natural": "peak", "wikimedia_commons": "Category:Wildoner Schloßberg"}}, {"name": "Klauen", "latitude": 47.419861, "longitude": 14.890417, "elevation": 1849.0, "source": "osm", "_tags": {"ele": "1849", "name": "Klauen", "natural": "peak"}}, {"name": "Mala kopa", "latitude": 46.513576, "longitude": 15.188384, "elevation": 1524.0, "source": "osm", "_tags": {"ele": "1524", "name": "Mala kopa", "natural": "peak", "wikidata": "Q31529402"}}, {"name": "Piramida", "latitude": 46.5680831, "longitude": 15.6523331, "elevation": 386.0, "source": "osm", "_tags": {"ele": "386", "name": "Piramida", "name:de": "Pyramiedenkogel", "natural": "peak", "tourism": "viewpoint", "wheelchair": "limited", "wikidata": "Q7263230", "wikipedia": "sl:Piramida, Maribor"}}, {"name": "Brestrniški vrh", "latitude": 46.5758246, "longitude": 15.5948806, "elevation": 489.0, "source": "osm", "_tags": {"ele": "489", "name": "Brestrniški vrh", "natural": "peak"}}, {"name": "Hohe Rannach", "latitude": 47.1731023, "longitude": 15.4004901, "elevation": 1018.0, "source": "osm", "_tags": {"ele": "1018", "name": "Hohe Rannach", "natural": "peak", "source": "survey", "summit:cross": "yes", "summit:register": "yes", "wikidata": "Q21868014", "wikimedia_commons": "Category:Hohe Rannach", "wikipedia": "de:Hohe Rannach"}}, {"name": "Hochglaserer", "latitude": 47.2113587, "longitude": 15.372648, "elevation": 910.0, "source": "osm", "_tags": {"ele": "910", "massif": "Tanneben", "name": "Hochglaserer", "natural": "peak", "wikidata": "Q21879185"}}, {"name": "Zwölferkogel", "latitude": 47.1805351, "longitude": 15.4461081, "elevation": 1192.0, "source": "osm", "_tags": {"ele": "1192", "name": "Zwölferkogel", "natural": "peak", "wikidata": "Q21879210"}}, {"name": "Erhardhöhe", "latitude": 47.1653817, "longitude": 15.4451719, "elevation": 1049.0, "source": "osm", "_tags": {"ele": "1049", "name": "Erhardhöhe", "natural": "peak", "wikidata": "Q21873998"}}, {"name": "Hohenberg", "latitude": 47.1658187, "longitude": 15.4545062, "elevation": 1048.0, "source": "osm", "_tags": {"ele": "1048", "name": "Hohenberg", "natural": "peak", "summit:cross": "yes", "wikidata": "Q21879220"}}, {"name": "Schloßberg", "latitude": 47.0765398, "longitude": 15.4376074, "elevation": 474.0, "source": "osm", "_tags": {"ele": "474", "heritage": "2", "heritage:operator": "bda", "name": "Schloßberg", "name:de": "Schloßberg", "name:en": "Schlossberg", "name:ru": "Замок Шлоссберг", "name:zh": "城堡山", "natural": "peak", "ref:at:bda": "72142", "source:ele": "Laserscan Geländemodell (Raster 1 m) auf https://gis.stmk.gv.at/", "wikidata": "Q264176", "wikimedia_commons": "Category:Schloßberg, Graz", "wikipedia": "de:Grazer Schloßberg"}}, {"name": "Weißegg", "latitude": 47.1477447, "longitude": 15.3700244, "elevation": 567.0, "source": "osm", "_tags": {"ele": "567", "name": "Weißegg", "natural": "peak", "summit:cross": "no", "wikidata": "Q21879238"}}, {"name": "Marxenkogel", "latitude": 47.1509679, "longitude": 15.3996144, "elevation": 811.0, "source": "osm", "_tags": {"ele": "811", "name": "Marxenkogel", "natural": "peak", "source": "basemap.at", "wikidata": "Q21879236"}}, {"name": "Rannachbauerkogel", "latitude": 47.1552748, "longitude": 15.3991597, "elevation": 842.0, "source": "osm", "_tags": {"ele": "842", "name": "Rannachbauerkogel", "natural": "peak", "source": "basemap.at", "wikidata": "Q21879237"}}, {"name": "Schöberlkogel", "latitude": 47.1596716, "longitude": 15.4021786, "elevation": 863.0, "source": "osm", "_tags": {"ele": "863", "name": "Schöberlkogel", "natural": "peak", "wikidata": "Q21879222"}}, {"name": "Geierkogel", "latitude": 47.165638, "longitude": 15.4012055, "elevation": 946.0, "source": "osm", "_tags": {"ele": "946", "name": "Geierkogel", "natural": "peak", "source": "basemap.at", "wikidata": "Q21879223"}}, {"name": "Schartnerkogel", "latitude": 47.1981084, "longitude": 15.3044923, "elevation": 931.0, "source": "osm", "_tags": {"ele": "931", "name": "Schartnerkogel", "natural": "peak", "summit:cross": "yes", "summit:register": "yes", "wikidata": "Q96885988", "wikimedia_commons": "Category:Schartnerkogel"}}, {"name": "Gamskogel", "latitude": 47.1860638, "longitude": 15.3032631, "elevation": 859.0, "source": "osm", "_tags": {"ele": "859", "historic": "wayside_cross", "name": "Gamskogel", "natural": "peak", "summit:cross": "yes", "summit:register": "yes", "wikidata": "Q67655580", "wikimedia_commons": "Category:Gamskogel (Grazer Bergland)"}}, {"name": "Niesenbacherkogel", "latitude": 47.196258, "longitude": 15.2892822, "elevation": 919.0, "source": "osm", "_tags": {"ele": "919", "name": "Niesenbacherkogel", "natural": "peak", "summit:cross": "yes", "summit:register": "no"}}, {"name": "Burgstaller Höhe", "latitude": 47.2282701, "longitude": 15.5103254, "elevation": 1218.0, "source": "osm", "_tags": {"ele": "1218", "name": "Burgstaller Höhe", "natural": "peak", "summit:register": "yes", "wikidata": "Q21873721"}}, {"name": "Röthelstein", "latitude": 47.3265103, "longitude": 15.3862417, "elevation": 1263.0, "source": "osm", "_tags": {"ele": "1263", "name": "Röthelstein", "natural": "peak", "note": "Sehr kleines \"Gipfelkreuz\"", "wikidata": "Q21878163", "wikimedia_commons": "Category:Röthelstein (Grazer Bergland)", "wikipedia": "de:Röthelstein (Berg)"}}, {"name": "Schiffall", "latitude": 47.3121785, "longitude": 15.3398387, "elevation": 1221.0, "source": "osm", "_tags": {"alt_name": "Schifffall", "ele": "1221", "name": "Schiffall", "natural": "peak", "summit:cross": "no", "summit:register": "yes", "wikidata": "Q21000119", "wikipedia": "de:Schiffall"}}, {"name": "Kreuzkogel", "latitude": 47.314303, "longitude": 15.3445883, "elevation": 1181.0, "source": "osm", "_tags": {"ele": "1181", "name": "Kreuzkogel", "natural": "peak", "subject:wikidata": "Q1683298", "subject:wikipedia": "de:Kreuzkogel", "summit:cross": "yes", "summit:register": "yes"}}, {"name": "Rote Wand", "latitude": 47.3333424, "longitude": 15.406641, "elevation": 1505.0, "source": "osm", "_tags": {"ele": "1505", "name": "Rote Wand", "natural": "peak", "summit:cross": "yes", "summit:register": "yes", "wikidata": "Q21865249", "wikimedia_commons": "Category:Rote Wand (Grazer Bergland)", "wikipedia": "de:Rote Wand (Grazer Bergland)"}}, {"name": "Schweineck", "latitude": 47.3477156, "longitude": 15.4446798, "elevation": 1457.0, "source": "osm", "_tags": {"ele": "1457", "name": "Schweineck", "natural": "peak", "wikidata": "Q21878113"}}, {"name": "Osser", "latitude": 47.3442419, "longitude": 15.5010159, "elevation": 1548.0, "source": "osm", "_tags": {"ele": "1548", "name": "Osser", "natural": "peak", "summit:cross": "yes", "summit:register": "yes", "wikidata": "Q21864723"}}, {"name": "Gerlerkogel", "latitude": 47.3332736, "longitude": 15.4653714, "elevation": 1324.0, "source": "osm", "_tags": {"ele": "1324", "man_made": "survey_point", "name": "Gerlerkogel", "natural": "peak", "wikidata": "Q21878141"}}, {"name": "Wildkogel", "latitude": 47.3250908, "longitude": 15.4565819, "elevation": 1288.0, "source": "osm", "_tags": {"ele": "1288", "name": "Wildkogel", "natural": "peak"}}, {"name": "Harterkogel", "latitude": 47.344726, "longitude": 15.3786744, "elevation": 972.0, "source": "osm", "_tags": {"ele": "972", "name": "Harterkogel", "natural": "peak"}}, {"name": "Ranerwand", "latitude": 47.3557202, "longitude": 15.3928592, "elevation": 1308.0, "source": "osm", "_tags": {"ele": "1308", "name": "Ranerwand", "natural": "peak"}}, {"name": "Pleschkogel", "latitude": 47.1445193, "longitude": 15.2321009, "elevation": 1061.0, "source": "osm", "_tags": {"ele": "1061", "name": "Pleschkogel", "natural": "peak", "wikidata": "Q75988128"}}, {"name": "Heiggerkogel", "latitude": 47.1594822, "longitude": 15.2384271, "elevation": 1098.0, "source": "osm", "_tags": {"ele": "1098", "name": "Heiggerkogel", "natural": "peak", "wikidata": "Q106303600"}}, {"name": "Mühlbacher Kogel", "latitude": 47.1775274, "longitude": 15.2529217, "elevation": 1050.0, "source": "osm", "_tags": {"ele": "1050", "name": "Mühlbacher Kogel", "natural": "peak", "summit:cross": "yes", "wikidata": "Q131444351"}}, {"name": "Hochstein", "latitude": 47.1579624, "longitude": 15.2670234, "elevation": 925.0, "source": "osm", "_tags": {"ele": "925", "name": "Hochstein", "natural": "peak", "summit:cross": "yes", "wikidata": "Q105676334"}}, {"name": "Stainzer Kogel", "latitude": 46.8899782, "longitude": 15.2224107, "elevation": 675.0, "source": "osm", "_tags": {"ele": "675", "name": "Stainzer Kogel", "natural": "peak", "summit:cross": "yes", "summit:register": "yes"}}, {"name": "Hausberg", "latitude": 47.141238, "longitude": 15.3373529, "elevation": null, "source": "osm", "_tags": {"name": "Hausberg", "natural": "peak", "wikimedia_commons": "Category:Hausberg (Gratkorn)"}}, {"name": "Fensteralm", "latitude": 47.2802064, "longitude": 15.1530825, "elevation": 1642.0, "source": "osm", "_tags": {"ele": "1642", "man_made": "cross", "name": "Fensteralm", "natural": "peak", "source": "survey", "summit:cross": "yes"}}, {"name": "Eiblkogel", "latitude": 47.2613516, "longitude": 15.0980857, "elevation": 1831.0, "source": "osm", "_tags": {"ele": "1831", "name": "Eiblkogel", "natural": "peak", "source": "survey;basemap.at Orthofoto", "wikidata": "Q21878276", "wikimedia_commons": "Category:Eiblkogel"}}, {"name": "Lärchkogel", "latitude": 47.2411106, "longitude": 15.0659218, "elevation": 1894.0, "source": "osm", "_tags": {"ele": "1894", "name": "Lärchkogel", "natural": "peak", "summit:cross": "yes", "summit:register": "yes", "wikidata": "Q74582917", "wikimedia_commons": "Category:Lärchkogel"}}, {"name": "Ochsenkogel", "latitude": 47.2132613, "longitude": 15.0818951, "elevation": 1572.0, "source": "osm", "_tags": {"ele": "1572", "name": "Ochsenkogel", "natural": "peak", "wikidata": "Q21864686"}}, {"name": "Roßbachkogel", "latitude": 47.2045787, "longitude": 15.0431988, "elevation": 1848.0, "source": "osm", "_tags": {"alt_name": "Roßbach-Pussor-Kogel", "ele": "1848", "name": "Roßbachkogel", "natural": "peak", "summit:cross": "yes", "summit:register": "yes", "wikidata": "Q66194853", "wikimedia_commons": "Category:Roßbachkogel", "wikipedia": "de:Roßbachkogel"}}, {"name": "Kleiner Speikkogel", "latitude": 46.7834704, "longitude": 14.978816, "elevation": 2116.0, "source": "osm", "_tags": {"ele": "2116", "massif": "Koralpe", "name": "Kleiner Speikkogel", "natural": "peak", "source:ele": "Laserscan Höhenmodelle auf https://gis.stmk.gv.at"}}, {"name": "Krakaberg", "latitude": 46.7799324, "longitude": 14.9699124, "elevation": 2070.0, "source": "osm", "_tags": {"ele": "2070", "massif": "Koralpe", "name": "Krakaberg", "natural": "peak"}}, {"name": "Krennkogel", "latitude": 46.7711739, "longitude": 14.9954041, "elevation": 1911.0, "source": "osm", "_tags": {"ele": "1911", "name": "Krennkogel", "natural": "peak"}}, {"name": "Kugelberg", "latitude": 47.2108657, "longitude": 15.3317157, "elevation": 633.0, "source": "osm", "_tags": {"alt_name": "Kugelstein", "ele": "633", "name": "Kugelberg", "natural": "peak", "source": "BEV"}}, {"name": "Eggenberg", "latitude": 47.1559564, "longitude": 15.337897, "elevation": 707.0, "source": "osm", "_tags": {"ele": "707", "name": "Eggenberg", "natural": "peak", "summit:cross": "yes", "summit:register": "yes", "wikidata": "Q15110133", "wikimedia_commons": "Category:Eggenberg (Grazer Bergland)", "wikipedia": "de:Eggenberg (Grazer Bergland)"}}, {"name": "Gsollerkogel", "latitude": 47.1502375, "longitude": 15.3162512, "elevation": 678.0, "source": "osm", "_tags": {"ele": "678", "name": "Gsollerkogel", "natural": "peak", "wikidata": "Q97478149", "wikimedia_commons": "Category:Gsollerkogel"}}, {"name": "Pfaffenkogel", "latitude": 47.1653834, "longitude": 15.3094183, "elevation": 734.0, "source": "osm", "_tags": {"ele": "734", "name": "Pfaffenkogel", "natural": "peak", "summit:cross": "yes", "wikidata": "Q97767870", "wikimedia_commons": "Category:Pfaffenkogel (Grazer Bergland)", "wikipedia": "de:Pfaffenkogel (Grazer Bergland)"}}, {"name": "Generalkogel", "latitude": 47.0981693, "longitude": 15.3246859, "elevation": 713.0, "source": "osm", "_tags": {"alt_name": "Generalinkogel;Generalinnenkogel", "ele": "713", "name": "Generalkogel", "natural": "peak", "old_name": "Brennkogel", "summit:cross": "yes", "summit:register": "yes", "wikidata": "Q20190851", "wikimedia_commons": "Category:Generalkogel", "wikipedia": "de:Generalkogel"}}, {"name": "Frauenkogel", "latitude": 47.1065607, "longitude": 15.3499492, "elevation": 683.0, "source": "osm", "_tags": {"ele": "683", "name": "Frauenkogel", "natural": "peak", "wikidata": "Q21870775"}}, {"name": "Haneggkogel", "latitude": 47.2543829, "longitude": 15.277618, "elevation": 1089.0, "source": "osm", "_tags": {"ele": "1089", "name": "Haneggkogel", "natural": "peak", "summit:cross": "yes", "summit:register": "yes", "wikidata": "Q21871560"}}, {"name": "Gschwendtberg", "latitude": 47.2839196, "longitude": 15.3408743, "elevation": 993.0, "source": "osm", "_tags": {"alt_name": "Gschwendt", "ele": "993", "name": "Gschwendtberg", "natural": "peak", "summit:cross": "yes", "summit:register": "yes"}}, {"name": "Hochtrötsch", "latitude": 47.2602583, "longitude": 15.369424, "elevation": 1239.0, "source": "osm", "_tags": {"ele": "1239", "name": "Hochtrötsch", "natural": "peak", "summit:cross": "yes", "summit:register": "yes", "wikidata": "Q21871887", "wikimedia_commons": "Category:Hochtrötsch", "wikipedia": "de:Hochtrötsch"}}, {"name": "Rinnweberkogel", "latitude": 47.2541417, "longitude": 15.3580513, "elevation": 1041.0, "source": "osm", "_tags": {"ele": "1041", "name": "Rinnweberkogel", "natural": "peak"}}, {"name": "Schwarzkogel", "latitude": 47.2489954, "longitude": 15.3801496, "elevation": 906.0, "source": "osm", "_tags": {"ele": "906", "name": "Schwarzkogel", "natural": "peak", "source": "basemap.at", "wikidata": "Q21879158"}}, {"name": "Fragnerberg", "latitude": 47.2513259, "longitude": 15.3910179, "elevation": 1109.0, "source": "osm", "_tags": {"ele": "1109", "name": "Fragnerberg", "natural": "peak", "source": "basemap.at", "wikidata": "Q21878290"}}, {"name": "Eichberg", "latitude": 47.2328284, "longitude": 15.3901744, "elevation": 891.0, "source": "osm", "_tags": {"ele": "891", "name": "Eichberg", "natural": "peak", "summit:cross": "yes", "summit:register": "no", "wikidata": "Q101010774", "wikimedia_commons": "Category:Eichberg (Grazer Bergland)"}}, {"name": "Krienzerkogel", "latitude": 47.2181821, "longitude": 15.3826209, "elevation": 914.0, "source": "osm", "_tags": {"ele": "914", "massif": "Tanneben", "name": "Krienzerkogel", "natural": "peak", "wikidata": "Q21879184"}}, {"name": "Florianiberg", "latitude": 47.0203682, "longitude": 15.3896477, "elevation": 527.0, "source": "osm", "_tags": {"ele": "527", "name": "Florianiberg", "natural": "peak", "wikidata": "Q66375419", "wikimedia_commons": "Category:Florianiberg", "wikipedia": "de:Florianiberg (Plabutsch)"}}, {"name": "Reinerkogel", "latitude": 47.0944572, "longitude": 15.4334223, "elevation": 501.0, "source": "osm", "_tags": {"ele": "501", "name": "Reinerkogel", "natural": "peak", "source:ele": "Laserscan Geländemodell (Raster 1 m) auf https://gis.stmk.gv.at/", "wikidata": "Q21879263", "wikimedia_commons": "Category:Reinerkogel", "wikipedia": "de:Reinerkogel"}}, {"name": "Grossofen", "latitude": 46.935291, "longitude": 15.0425015, "elevation": 1473.0, "source": "osm", "_tags": {"ele": "1473", "name": "Grossofen", "natural": "peak", "source": "GPS", "tourism": "viewpoint", "wheelchair": "no", "wikidata": "Q122958258"}}, {"name": "Buchkogel", "latitude": 46.8714455, "longitude": 15.5075527, "elevation": 550.0, "source": "osm", "_tags": {"ele": "550", "name": "Buchkogel", "natural": "peak", "wikidata": "Q998579", "wikimedia_commons": "Category:Wildoner Berg", "wikipedia": "de:Buchkogel (Südsteiermark)"}}, {"name": "Kuketz", "latitude": 46.8861091, "longitude": 15.4620463, "elevation": 399.0, "source": "osm", "_tags": {"ele": "399", "name": "Kuketz", "natural": "peak"}}, {"name": "Hühnerkogel / Košenjak", "latitude": 46.6451611, "longitude": 15.0300656, "elevation": 1522.0, "source": "osm", "_tags": {"ele": "1522", "name": "Hühnerkogel / Košenjak", "name:de": "Hühnerkogel", "name:sl": "Košenjak", "natural": "peak"}}, {"name": "Jankitzkogel", "latitude": 46.652801, "longitude": 15.018044, "elevation": 1473.0, "source": "osm", "_tags": {"ele": "1473", "name": "Jankitzkogel", "natural": "peak", "source": "aerial imagery"}}, {"name": "Jantschkifels", "latitude": 46.651854, "longitude": 15.0631276, "elevation": 1368.0, "source": "osm", "_tags": {"ele": "1368", "massif": "Koralpe", "name": "Jantschkifels", "natural": "peak", "wikidata": "Q27454834"}}, {"name": "Kulm", "latitude": 47.2254035, "longitude": 15.7589218, "elevation": 975.0, "source": "osm", "_tags": {"ele": "975", "name": "Kulm", "natural": "peak", "wikidata": "Q1791517", "wikipedia": "de:Kulm (Oststeiermark)"}}, {"name": "", "latitude": 46.5238894, "longitude": 15.6178046, "elevation": null, "source": "osm", "_tags": {"natural": "peak"}}, {"name": "", "latitude": 46.5745382, "longitude": 15.5981561, "elevation": null, "source": "osm", "_tags": {"natural": "peak"}}, {"name": "Möstlkogel", "latitude": 47.2148277, "longitude": 15.3680818, "elevation": 901.0, "source": "osm", "_tags": {"ele": "901", "massif": "Tanneben", "name": "Möstlkogel", "natural": "peak", "wikidata": "Q21879187"}}, {"name": "", "latitude": 47.3280346, "longitude": 15.0147077, "elevation": 811.0, "source": "osm", "_tags": {"ele": "811", "natural": "peak"}}, {"name": "Frauenkogel", "latitude": 47.0922051, "longitude": 15.3707111, "elevation": 561.0, "source": "osm", "_tags": {"ele": "561", "name": "Frauenkogel", "natural": "peak", "wikidata": "Q21879268", "wikipedia": "de:Frauenkogel (Gösting)"}}, {"name": "Janževski vrh", "latitude": 46.5688452, "longitude": 15.3041385, "elevation": 915.0, "source": "osm", "_tags": {"ele": "915", "name": "Janževski vrh", "natural": "peak", "wikidata": "Q92412784", "wikipedia": "sl:Janževski vrh (hrib)"}}, {"name": "Wölkerkogel", "latitude": 47.0803298, "longitude": 14.9245812, "elevation": 1706.0, "source": "osm", "_tags": {"ele": "1706", "massif": "Lavanttaler Alpen", "name": "Wölkerkogel", "natural": "peak", "wikidata": "Q21864073", "wikimedia_commons": "Category:Wölkerkogel", "wikipedia": "de:Wölkerkogel"}}, {"name": "Buchdruckerberg", "latitude": 47.0372476, "longitude": 15.5353754, "elevation": 490.0, "source": "osm", "_tags": {"alt_name": "Dürwagersberg", "ele": "490", "name": "Buchdruckerberg", "natural": "peak", "source": "local knowledge;Digitaler Atlas Steiermark", "wikidata": "Q21879289"}}, {"name": "Buchkogel", "latitude": 46.9717083, "longitude": 15.5121536, "elevation": 391.0, "source": "osm", "_tags": {"ele": "391", "name": "Buchkogel", "natural": "peak", "summit:cross": "yes"}}, {"name": "Hühnerberg", "latitude": 46.9851335, "longitude": 15.5360626, "elevation": 484.0, "source": "osm", "_tags": {"ele": "484", "name": "Hühnerberg", "natural": "peak", "summit:cross": "yes", "summit:register": "yes", "wikidata": "Q130430406"}}, {"name": "Zachenkreuz", "latitude": 47.3654286, "longitude": 15.4448433, "elevation": 1601.0, "source": "osm", "_tags": {"ele": "1601", "historic": "wayside_cross", "name": "Zachenkreuz", "natural": "peak"}}, {"name": "Mali Črni vrh", "latitude": 46.4959124, "longitude": 15.2539078, "elevation": 1536.0, "source": "osm", "_tags": {"ele": "1536", "name": "Mali Črni vrh", "natural": "peak"}}, {"name": "Eorykogel", "latitude": 46.6522227, "longitude": 15.5109696, "elevation": null, "source": "osm", "_tags": {"name": "Eorykogel", "natural": "peak"}}, {"name": "Hauenstein", "latitude": 47.1250366, "longitude": 15.488363, "elevation": 650.0, "source": "osm", "_tags": {"ele": "650", "name": "Hauenstein", "natural": "peak", "wikidata": "Q21879242", "wikimedia_commons": "Category:Hauenstein (Grazer Bergland)", "wikipedia": "de:Hauenstein (Grazer Bergland)"}}, {"name": "Jezerski vrh", "latitude": 46.4938123, "longitude": 15.2644016, "elevation": 1537.0, "source": "osm", "_tags": {"alt_name": "Ribniški vrh", "ele": "1537", "name": "Jezerski vrh", "natural": "peak", "wikidata": "Q10955577", "wikipedia": "sl:Jezerski vrh, Pohorje"}}, {"name": "Kremžarjev vrh", "latitude": 46.5296705, "longitude": 15.1341833, "elevation": 1164.0, "source": "osm", "_tags": {"ele": "1164", "name": "Kremžarjev vrh", "natural": "peak", "wikidata": "Q31529684"}}, {"name": "Schrottalm", "latitude": 47.2963749, "longitude": 15.2003492, "elevation": 1398.0, "source": "osm", "_tags": {"ele": "1398", "name": "Schrottalm", "natural": "peak"}}, {"name": "Wetterkogel", "latitude": 47.3345407, "longitude": 15.2084264, "elevation": 1643.0, "source": "osm", "_tags": {"ele": "1643", "name": "Wetterkogel", "natural": "peak", "wikidata": "Q120869701"}}, {"name": "Leitnerkogel", "latitude": 47.296731, "longitude": 15.2140226, "elevation": 1364.0, "source": "osm", "_tags": {"ele": "1364", "name": "Leitnerkogel", "natural": "peak"}}, {"name": "Großer Frauenkogel", "latitude": 46.7826398, "longitude": 14.9994885, "elevation": 1967.0, "source": "osm", "_tags": {"ele": "1967", "name": "Großer Frauenkogel", "natural": "peak"}}, {"name": "Moschkogel", "latitude": 46.8232106, "longitude": 14.992474, "elevation": 1916.0, "source": "osm", "_tags": {"ele": "1916", "massif": "Koralpe", "name": "Moschkogel", "natural": "peak", "summit:cross": "yes", "summit:register": "yes"}}, {"name": "Brandhöhe", "latitude": 46.8275027, "longitude": 14.9954292, "elevation": 1886.0, "source": "osm", "_tags": {"ele": "1886", "massif": "Koralpe", "name": "Brandhöhe", "natural": "peak"}}, {"name": "Handalm", "latitude": 46.8467076, "longitude": 15.0207826, "elevation": 1853.0, "source": "osm", "_tags": {"ele": "1853", "name": "Handalm", "natural": "peak", "wikidata": "Q14537599", "wikipedia": "de:Handalm"}}, {"name": "Weberkogel", "latitude": 46.8580547, "longitude": 15.0088681, "elevation": 1805.0, "source": "osm", "_tags": {"ele": "1805", "name": "Weberkogel", "natural": "peak", "wikidata": "Q21878988"}}, {"name": "Hühnerstütze", "latitude": 46.80622, "longitude": 14.9817608, "elevation": 1989.0, "source": "osm", "_tags": {"ele": "1989", "name": "Hühnerstütze", "natural": "peak"}}, {"name": "Hundsberg", "latitude": 47.2675259, "longitude": 15.5169186, "elevation": 741.0, "source": "osm", "_tags": {"ele": "741", "name": "Hundsberg", "natural": "peak"}}, {"name": "Buchkogel", "latitude": 47.3282786, "longitude": 15.5081969, "elevation": 1330.0, "source": "osm", "_tags": {"ele": "1330", "name": "Buchkogel", "natural": "peak", "wikidata": "Q21878157"}}, {"name": "Seespitz", "latitude": 46.7889581, "longitude": 14.9787227, "elevation": 2066.0, "source": "osm", "_tags": {"ele": "2066", "name": "Seespitz", "natural": "peak", "summit:cross": "yes", "summit:register": "yes"}}, {"name": "Glitzfelsen", "latitude": 46.7805823, "longitude": 15.0260259, "elevation": 1828.0, "source": "osm", "_tags": {"ele": "1828", "name": "Glitzfelsen", "natural": "peak"}}, {"name": "Steinmandl", "latitude": 46.8089619, "longitude": 14.9979715, "elevation": 1835.0, "source": "osm", "_tags": {"alt_name": "Steinernes Mandl", "ele": "1835", "name": "Steinmandl", "natural": "peak"}}, {"name": "Platte", "latitude": 47.1126137, "longitude": 15.4696536, "elevation": 651.0, "source": "osm", "_tags": {"ele": "651", "name": "Platte", "natural": "peak", "summit:cross": "no", "summit:register": "yes", "wikidata": "Q21864852", "wikimedia_commons": "Category:Platte (Graz)", "wikipedia": "de:Platte (Graz)"}}, {"name": "Sršenov vrh", "latitude": 46.6195197, "longitude": 15.3724985, "elevation": 965.0, "source": "osm", "_tags": {"ele": "965", "name": "Sršenov vrh", "natural": "peak"}}, {"name": "Kreuzkogel", "latitude": 46.7890377, "longitude": 15.5134691, "elevation": 496.0, "source": "osm", "_tags": {"ele": "496", "name": "Kreuzkogel", "natural": "peak", "wikidata": "Q56760934", "wikimedia_commons": "Category:Kreuzkogel (Sausal)", "wikipedia": "de:Kreuzkogel (Sausal)"}}, {"name": "Lenzmoarkogel", "latitude": 47.2316329, "longitude": 15.0378935, "elevation": 1991.0, "source": "osm", "_tags": {"ele": "1991", "name": "Lenzmoarkogel", "natural": "peak", "summit:cross": "yes", "summit:register": "yes", "wikidata": "Q1288358", "wikimedia_commons": "Category:Lenzmoarkogel", "wikipedia": "de:Lenzmoarkogel"}}, {"name": "Aiblerkogel", "latitude": 46.6831755, "longitude": 15.2116247, "elevation": 545.0, "source": "osm", "_tags": {"ele": "545", "name": "Aiblerkogel", "natural": "peak"}}, {"name": "Steinplan", "latitude": 47.1632711, "longitude": 14.9050291, "elevation": 1670.0, "source": "osm", "_tags": {"ele": "1670", "name": "Steinplan", "natural": "peak", "summit:cross": "yes", "wikidata": "Q21863274"}}, {"name": "Glashüttenkogel", "latitude": 46.8387707, "longitude": 15.0436027, "elevation": 1758.0, "source": "osm", "_tags": {"ele": "1758", "name": "Glashüttenkogel", "natural": "peak"}}, {"name": "Moserkogel", "latitude": 46.8427414, "longitude": 15.0331185, "elevation": 1745.0, "source": "osm", "_tags": {"ele": "1745", "name": "Moserkogel", "natural": "peak"}}, {"name": "Bärofen", "latitude": 46.889554, "longitude": 14.9929987, "elevation": 1720.0, "source": "osm", "_tags": {"ele": "1720", "name": "Bärofen", "natural": "peak", "summit:cross": "yes", "summit:register": "yes"}}, {"name": "Hochschlag", "latitude": 47.4029357, "longitude": 15.504695, "elevation": 1580.0, "source": "osm", "_tags": {"ele": "1580", "name": "Hochschlag", "natural": "peak", "summit:cross": "yes", "summit:register": "yes", "wikidata": "Q21871863"}}, {"name": "", "latitude": 46.6021741, "longitude": 15.5734668, "elevation": null, "source": "osm", "_tags": {"natural": "peak"}}, {"name": "Harterberg", "latitude": 47.2866031, "longitude": 15.3894912, "elevation": 1036.0, "source": "osm", "_tags": {"ele": "1036", "name": "Harterberg", "natural": "peak", "summit:cross": "yes", "summit:register": "yes"}}, {"name": "", "latitude": 46.5831471, "longitude": 15.6049758, "elevation": 515.0, "source": "osm", "_tags": {"ele": "515", "natural": "peak"}}, {"name": "Lucijin breg", "latitude": 46.5865121, "longitude": 15.6051489, "elevation": 525.0, "source": "osm", "_tags": {"ele": "525", "name": "Lucijin breg", "natural": "peak"}}, {"name": "", "latitude": 46.5471905, "longitude": 15.5420748, "elevation": null, "source": "osm", "_tags": {"natural": "peak"}}, {"name": "Rennfeld", "latitude": 47.4043184, "longitude": 15.3592698, "elevation": 1629.0, "source": "osm", "_tags": {"ele": "1629", "image": "https://de.wikipedia.org/wiki/Datei:Rennfeld_Gipfel_Panorama.png", "name": "Rennfeld", "natural": "peak", "prominence": "628", "summit:cross": "yes", "summit:register": "yes", "tourism": "viewpoint", "wheelchair": "no", "wikidata": "Q2144075", "wikimedia_commons": "Category:Rennfeld", "wikipedia": "de:Rennfeld"}}, {"name": "Madereck", "latitude": 47.4195948, "longitude": 15.2220461, "elevation": 1053.0, "source": "osm", "_tags": {"ele": "1053", "name": "Madereck", "natural": "peak", "summit:cross": "yes", "summit:register": "yes", "wikidata": "Q15057615", "wikipedia": "de:Madereck"}}, {"name": "Wartenstein", "latitude": 47.0036742, "longitude": 15.1810276, "elevation": 804.0, "source": "osm", "_tags": {"ele": "804", "name": "Wartenstein", "natural": "peak", "summit:cross": "yes", "wikidata": "Q21863858"}}, {"name": "Kopnikov vrh", "latitude": 46.5262169, "longitude": 15.1856357, "elevation": 1220.0, "source": "osm", "_tags": {"alt_name": "Progatov vrh", "ele": "1220", "name": "Kopnikov vrh", "natural": "peak"}}, {"name": "Lindkogel", "latitude": 47.3269041, "longitude": 15.6675048, "elevation": 955.0, "source": "osm", "_tags": {"ele": "955", "name": "Lindkogel", "natural": "peak"}}, {"name": "Königskogel", "latitude": 47.3417153, "longitude": 15.6360789, "elevation": 1246.0, "source": "osm", "_tags": {"ele": "1246", "name": "Königskogel", "natural": "peak", "summit:cross": "yes", "summit:register": "yes", "wikidata": "Q21878130"}}, {"name": "", "latitude": 47.3379273, "longitude": 15.6444853, "elevation": 1225.0, "source": "osm", "_tags": {"ele": "1225", "natural": "peak"}}, {"name": "Rabenwaldkogel", "latitude": 47.301674, "longitude": 15.7366172, "elevation": 1280.0, "source": "osm", "_tags": {"ele": "1280", "name": "Rabenwaldkogel", "natural": "peak", "source": "gis.steiermark.gv.at", "summit:cross": "yes", "summit:register": "yes", "wikidata": "Q2125013", "wikimedia_commons": "Category:Rabenwaldkogel", "wikipedia": "de:Rabenwaldkogel"}}, {"name": "Zetz", "latitude": 47.296703, "longitude": 15.6320982, "elevation": 1274.0, "source": "osm", "_tags": {"ele": "1274", "name": "Zetz", "natural": "peak", "summit:cross": "yes", "summit:register": "yes", "wikidata": "Q21881783"}}, {"name": "Hoher Zetz", "latitude": 47.2809349, "longitude": 15.6493746, "elevation": 1264.0, "source": "osm", "_tags": {"ele": "1264", "name": "Hoher Zetz", "natural": "peak", "summit:cross": "yes", "summit:register": "yes", "wikidata": "Q21868057"}}, {"name": "", "latitude": 47.2900826, "longitude": 15.6401636, "elevation": 1252.0, "source": "osm", "_tags": {"ele": "1252", "natural": "peak", "source:ele": "Laserscan"}}, {"name": "Schwarzkogel", "latitude": 47.3272168, "longitude": 15.5531179, "elevation": 1371.0, "source": "osm", "_tags": {"ele": "1371", "name": "Schwarzkogel", "natural": "peak"}}, {"name": "Saukogel", "latitude": 47.3434747, "longitude": 15.5517339, "elevation": 1437.0, "source": "osm", "_tags": {"ele": "1437", "name": "Saukogel", "natural": "peak"}}, {"name": "Zechnerschlag / Rohregg", "latitude": 47.3696137, "longitude": 15.5357021, "elevation": 1434.0, "source": "osm", "_tags": {"ele": "1434", "name": "Zechnerschlag / Rohregg", "natural": "peak"}}, {"name": "Flaterberg", "latitude": 47.3260226, "longitude": 15.0417963, "elevation": 838.0, "source": "osm", "_tags": {"ele": "838", "fixme": "genaue Lage", "name": "Flaterberg", "natural": "peak"}}, {"name": "Schinninger", "latitude": 47.3306334, "longitude": 15.0685381, "elevation": 974.0, "source": "osm", "_tags": {"ele": "974", "name": "Schinninger", "natural": "peak", "wikidata": "Q21865482"}}, {"name": "", "latitude": 47.3393082, "longitude": 15.0611724, "elevation": 866.0, "source": "osm", "_tags": {"ele": "866", "natural": "peak"}}, {"name": "Sonnberg", "latitude": 47.3467069, "longitude": 15.0712604, "elevation": 728.0, "source": "osm", "_tags": {"ele": "728", "fixme": "check", "name": "Sonnberg", "natural": "peak", "source": "basemap.at"}}, {"name": "Prettachberg", "latitude": 47.346484, "longitude": 15.0918888, "elevation": 904.0, "source": "osm", "_tags": {"ele": "904", "name": "Prettachberg", "natural": "peak"}}, {"name": "Sattlerkögerl", "latitude": 47.3438346, "longitude": 15.1090817, "elevation": null, "source": "osm", "_tags": {"name": "Sattlerkögerl", "natural": "peak"}}, {"name": "Hochtratten", "latitude": 47.3455577, "longitude": 15.1218923, "elevation": 1118.0, "source": "osm", "_tags": {"ele": "1118", "name": "Hochtratten", "natural": "peak", "wikidata": "Q21871885"}}, {"name": "Pfeiferkögerl", "latitude": 47.3396796, "longitude": 15.1292472, "elevation": 1003.0, "source": "osm", "_tags": {"ele": "1003", "name": "Pfeiferkögerl", "natural": "peak"}}, {"name": "Luchskogel", "latitude": 47.3267453, "longitude": 15.144272, "elevation": 1227.0, "source": "osm", "_tags": {"ele": "1227", "name": "Luchskogel", "natural": "peak"}}, {"name": "Hollerbrandhöhe", "latitude": 47.3198472, "longitude": 15.15153, "elevation": 1291.0, "source": "osm", "_tags": {"ele": "1291", "name": "Hollerbrandhöhe", "natural": "peak"}}, {"name": "Eggerkogel", "latitude": 47.3174103, "longitude": 15.1392025, "elevation": 1229.0, "source": "osm", "_tags": {"ele": "1229", "name": "Eggerkogel", "natural": "peak"}}, {"name": "Sonntagskogel", "latitude": 47.3229433, "longitude": 15.1667669, "elevation": 1485.0, "source": "osm", "_tags": {"ele": "1485", "name": "Sonntagskogel", "natural": "peak", "note": "My GPS device showed ele=1489", "source": "basemap.at;survey"}}, {"name": "Schrakogel", "latitude": 47.3080333, "longitude": 15.0247291, "elevation": 1155.0, "source": "osm", "_tags": {"ele": "1155", "name": "Schrakogel", "natural": "peak", "summit:cross": "yes", "summit:register": "yes", "wikidata": "Q21865577"}}, {"name": "Reschenkogel", "latitude": 47.4040314, "longitude": 15.5444749, "elevation": 1350.0, "source": "osm", "_tags": {"ele": "1350", "name": "Reschenkogel", "natural": "peak", "wikidata": "Q21865111"}}, {"name": "Beißenkogel", "latitude": 47.4060211, "longitude": 15.5578752, "elevation": 1379.0, "source": "osm", "_tags": {"ele": "1379", "name": "Beißenkogel", "natural": "peak"}}, {"name": "Feichtkogel", "latitude": 47.4067399, "longitude": 15.569119, "elevation": 1443.0, "source": "osm", "_tags": {"ele": "1443", "name": "Feichtkogel", "natural": "peak", "wikidata": "Q21874067"}}, {"name": "Aibelhöhe", "latitude": 47.4132746, "longitude": 15.5822082, "elevation": 1449.0, "source": "osm", "_tags": {"ele": "1449", "name": "Aibelhöhe", "natural": "peak", "wikidata": "Q21873287"}}, {"name": "Fürstkogel", "latitude": 47.4278003, "longitude": 15.5879696, "elevation": 1435.0, "source": "osm", "_tags": {"ele": "1435", "name": "Fürstkogel", "natural": "peak", "wikidata": "Q21870836"}}, {"name": "Fresenkogel", "latitude": 47.2697369, "longitude": 15.7310853, "elevation": 852.0, "source": "osm", "_tags": {"ele": "852", "name": "Fresenkogel", "natural": "peak", "summit:cross": "yes", "summit:register": "yes"}}, {"name": "Geierwand", "latitude": 47.2144963, "longitude": 15.7993154, "elevation": 630.0, "source": "osm", "_tags": {"direction": "0-360", "ele": "630", "name": "Geierwand", "natural": "peak", "tourism": "viewpoint", "wheelchair": "no"}}, {"name": "Pommesberg", "latitude": 47.313252, "longitude": 15.6076919, "elevation": 1287.0, "source": "osm", "_tags": {"ele": "1287", "name": "Pommesberg", "natural": "peak", "summit:cross": "yes", "wikidata": "Q21881782", "wikipedia": "de:Pommesberg"}}, {"name": "Brandnerkogel", "latitude": 47.4284858, "longitude": 15.4348638, "elevation": 1308.0, "source": "osm", "_tags": {"ele": "1308", "name": "Brandnerkogel", "natural": "peak"}}, {"name": "Schwarzkogel", "latitude": 47.4281637, "longitude": 15.4123428, "elevation": 1448.0, "source": "osm", "_tags": {"ele": "1448", "name": "Schwarzkogel", "natural": "peak", "summit:cross": "yes", "summit:register": "yes", "wikidata": "Q21865660"}}, {"name": "Bricnik", "latitude": 46.6358273, "longitude": 15.1669107, "elevation": 1017.0, "source": "osm", "_tags": {"ele": "1017", "name": "Bricnik", "natural": "peak", "wikidata": "Q31531737"}}, {"name": "", "latitude": 47.1727023, "longitude": 15.3160843, "elevation": 623.0, "source": "osm", "_tags": {"ele": "623", "natural": "peak", "summit:cross": "yes", "summit:register": "yes"}}, {"name": "Reicherhöhe", "latitude": 47.2386057, "longitude": 15.2450042, "elevation": 1045.0, "source": "osm", "_tags": {"ele": "1045", "name": "Reicherhöhe", "natural": "peak", "source": "BEV"}}, {"name": "Meljski hrib", "latitude": 46.5619535, "longitude": 15.6773803, "elevation": 398.0, "source": "osm", "_tags": {"ele": "398", "name": "Meljski hrib", "natural": "peak"}}, {"name": "Kraubatheck", "latitude": 47.337887, "longitude": 14.916044, "elevation": 1475.0, "source": "osm", "_tags": {"ele": "1475", "name": "Kraubatheck", "natural": "peak", "wikidata": "Q21868657"}}, {"name": "Glančnik", "latitude": 46.5682722, "longitude": 15.3608874, "elevation": 877.0, "source": "osm", "_tags": {"alt_name": "Klančnik", "ele": "877", "name": "Glančnik", "natural": "peak"}}, {"name": "Hlebov vrh", "latitude": 46.568593, "longitude": 15.3403209, "elevation": 913.1, "source": "osm", "_tags": {"ele": "913.1", "name": "Hlebov vrh", "natural": "peak", "wikidata": "Q31530051"}}, {"name": "Lamprehtov vrh", "latitude": 46.5099022, "longitude": 15.4092176, "elevation": 1230.0, "source": "osm", "_tags": {"ele": "1230", "name": "Lamprehtov vrh", "natural": "peak"}}, {"name": "Turn", "latitude": 46.5082031, "longitude": 15.3967799, "elevation": 1261.0, "source": "osm", "_tags": {"ele": "1261", "name": "Turn", "natural": "peak"}}, {"name": "Windhofkogel", "latitude": 47.2245648, "longitude": 15.4355249, "elevation": 1064.0, "source": "osm", "_tags": {"ele": "1064", "name": "Windhofkogel", "natural": "peak", "wikidata": "Q21879182"}}, {"name": "Tannkogel", "latitude": 47.3881929, "longitude": 14.9754103, "elevation": 922.0, "source": "osm", "_tags": {"ele": "922", "name": "Tannkogel", "natural": "peak"}}, {"name": "Hessenberg", "latitude": 47.3999996, "longitude": 14.999227, "elevation": 744.0, "source": "osm", "_tags": {"ele": "744", "name": "Hessenberg", "natural": "peak"}}, {"name": "Friesingwand", "latitude": 47.4199458, "longitude": 15.0522287, "elevation": 1064.0, "source": "osm", "_tags": {"ele": "1064", "name": "Friesingwand", "natural": "peak", "source": "geoimage.at"}}, {"name": "Jurčičev vrh", "latitude": 46.568036, "longitude": 15.38406, "elevation": 838.0, "source": "osm", "_tags": {"ele": "838", "name": "Jurčičev vrh", "natural": "peak", "wikidata": "Q31529936"}}, {"name": "", "latitude": 46.569529, "longitude": 15.387817, "elevation": null, "source": "osm", "_tags": {"natural": "peak"}}, {"name": "Steinkogel", "latitude": 47.232462, "longitude": 15.4383385, "elevation": 1015.0, "source": "osm", "_tags": {"ele": "1015", "name": "Steinkogel", "natural": "peak"}}, {"name": "Masenberg", "latitude": 47.3491468, "longitude": 15.8748709, "elevation": 1261.0, "source": "osm", "_tags": {"ele": "1261", "name": "Masenberg", "natural": "peak", "wikidata": "Q1906979", "wikimedia_commons": "Category:Masenberg", "wikipedia": "de:Masenberg"}}, {"name": "Predigtstuhl", "latitude": 47.3542069, "longitude": 15.3237174, "elevation": 853.0, "source": "osm", "_tags": {"ele": "853", "name": "Predigtstuhl", "natural": "peak", "summit:cross": "yes", "summit:register": "yes"}}, {"name": "Plankogel", "latitude": 47.3549446, "longitude": 15.5581075, "elevation": 1531.0, "source": "osm", "_tags": {"check_date": "2025-09-07", "ele": "1531", "name": "Plankogel", "natural": "peak", "summit:cross": "yes", "summit:register": "yes", "wikidata": "Q21881781", "wikimedia_commons": "Category:Plankogel (Grazer Bergland)", "wikipedia": "de:Plankogel (Grazer Bergland)"}}, {"name": "Raas", "latitude": 47.2503735, "longitude": 15.6599408, "elevation": 1009.0, "source": "osm", "_tags": {"ele": "1009", "name": "Raas", "natural": "peak", "summit:cross": "yes", "summit:register": "yes", "wikidata": "Q21864976"}}, {"name": "Heiliger Berg", "latitude": 47.0655937, "longitude": 15.1233672, "elevation": null, "source": "osm", "_tags": {"heritage": "2", "heritage:operator": "bda", "name": "Heiliger Berg", "natural": "peak"}}, {"name": "Diemlachkogel", "latitude": 47.4279108, "longitude": 15.2860414, "elevation": 714.0, "source": "osm", "_tags": {"ele": "714", "name": "Diemlachkogel", "natural": "peak"}}, {"name": "Krišranov vrh", "latitude": 46.4537893, "longitude": 14.9297709, "elevation": 1175.0, "source": "osm", "_tags": {"ele": "1175", "name": "Krišranov vrh", "natural": "peak", "source": "U.S. Defense Mapping Agency"}}, {"name": "Permanški vrh", "latitude": 46.4482719, "longitude": 14.8884995, "elevation": 1127.0, "source": "osm", "_tags": {"ele": "1127", "name": "Permanški vrh", "natural": "peak"}}, {"name": "Staknetov vrh", "latitude": 46.4332802, "longitude": 14.9135582, "elevation": 1258.0, "source": "osm", "_tags": {"ele": "1258", "name": "Staknetov vrh", "natural": "peak", "source": "U.S. Defense Mapping Agency"}}, {"name": "Virtičev vrh", "latitude": 46.4456674, "longitude": 14.9718113, "elevation": 1074.0, "source": "osm", "_tags": {"ele": "1074", "name": "Virtičev vrh", "natural": "peak", "source": "U.S. Defense Mapping Agency"}}, {"name": "Godčev vrh", "latitude": 46.4978867, "longitude": 14.9386649, "elevation": 1153.0, "source": "osm", "_tags": {"ele": "1153", "name": "Godčev vrh", "natural": "peak", "source": "U.S. Defense Mapping Agency"}}, {"name": "Uršlja gora", "latitude": 46.4855653, "longitude": 14.9615819, "elevation": 1699.0, "source": "osm", "_tags": {"alt_name": "Plešivec", "ele": "1699", "name": "Uršlja gora", "natural": "peak", "prominence": "670", "source": "U.S. Defense Mapping Agency", "wikidata": "Q1400190", "wikipedia": "sl:Uršlja gora"}}, {"name": "Črni vrh", "latitude": 46.4924489, "longitude": 14.9767339, "elevation": 1335.0, "source": "osm", "_tags": {"ele": "1335", "name": "Črni vrh", "natural": "peak", "source": "U.S. Defense Mapping Agency"}}, {"name": "Großer Jovenkogel", "latitude": 46.8909928, "longitude": 14.8971632, "elevation": 1231.0, "source": "osm", "_tags": {"ele": "1231", "name": "Großer Jovenkogel", "natural": "peak"}}, {"name": "Stelzerkogel", "latitude": 46.886874, "longitude": 14.8892756, "elevation": 1125.0, "source": "osm", "_tags": {"ele": "1125", "name": "Stelzerkogel", "natural": "peak"}}, {"name": "", "latitude": 47.1041327, "longitude": 15.3851003, "elevation": 555.0, "source": "osm", "_tags": {"ele": "555", "natural": "peak"}}, {"name": "", "latitude": 47.1045076, "longitude": 15.3829288, "elevation": null, "source": "osm", "_tags": {"natural": "peak"}}, {"name": "Hožičev vrh", "latitude": 46.5355314, "longitude": 15.3699112, "elevation": 595.0, "source": "osm", "_tags": {"ele": "595", "name": "Hožičev vrh", "natural": "peak"}}, {"name": "", "latitude": 47.4185531, "longitude": 15.2232915, "elevation": null, "source": "osm", "_tags": {"natural": "peak"}}, {"name": "Goßeck", "latitude": 46.6923653, "longitude": 14.9903166, "elevation": 1312.0, "source": "osm", "_tags": {"ele": "1312", "name": "Goßeck", "natural": "peak"}}, {"name": "Možičev vrh", "latitude": 46.601202, "longitude": 15.5153495, "elevation": 926.0, "source": "osm", "_tags": {"communication:amateur_radio:sota": "S5/PK-049", "communication:amateur_radio:sota:points": "4", "ele": "926", "name": "Možičev vrh", "name:sr": "Можичев врх", "natural": "peak", "sota:summit_code": "PK-049"}}, {"name": "Schlöglmoar", "latitude": 47.2875117, "longitude": 15.3284481, "elevation": 689.0, "source": "osm", "_tags": {"ele": "689", "name": "Schlöglmoar", "natural": "peak"}}, {"name": "Lerchkogel", "latitude": 47.2954891, "longitude": 15.2812357, "elevation": 1042.0, "source": "osm", "_tags": {"ele": "1042", "name": "Lerchkogel", "natural": "peak", "source:position": "gps"}}, {"name": "Fuchskogel", "latitude": 47.2673124, "longitude": 15.23266, "elevation": 1293.0, "source": "osm", "_tags": {"ele": "1293", "name": "Fuchskogel", "natural": "peak", "wikidata": "Q21870821"}}, {"name": "Zinken", "latitude": 47.2616139, "longitude": 15.290784, "elevation": 966.0, "source": "osm", "_tags": {"ele": "966", "name": "Zinken", "natural": "peak"}}, {"name": "Jöllerkogel", "latitude": 47.2577241, "longitude": 15.3016008, "elevation": 785.0, "source": "osm", "_tags": {"ele": "785", "name": "Jöllerkogel", "natural": "peak"}}, {"name": "Größkogel", "latitude": 47.3080446, "longitude": 15.3919419, "elevation": 942.0, "source": "osm", "_tags": {"ele": "942", "name": "Größkogel", "natural": "peak"}}, {"name": "Heuberg", "latitude": 47.3150281, "longitude": 15.4008683, "elevation": 941.0, "source": "osm", "_tags": {"ele": "941", "name": "Heuberg", "natural": "peak"}}, {"name": "Berntalerkogel", "latitude": 47.3123245, "longitude": 15.2648267, "elevation": 1177.0, "source": "osm", "_tags": {"ele": "1177", "name": "Berntalerkogel", "natural": "peak"}}, {"name": "Herrenkogel", "latitude": 47.3359645, "longitude": 15.2186876, "elevation": 1642.0, "source": "osm", "_tags": {"ele": "1642", "name": "Herrenkogel", "natural": "peak", "wikidata": "Q120869757"}}, {"name": "Pöllakogel", "latitude": 47.2891077, "longitude": 15.1700582, "elevation": 1527.0, "source": "osm", "_tags": {"ele": "1527", "name": "Pöllakogel", "natural": "peak"}}, {"name": "Polsterkogel", "latitude": 47.2724158, "longitude": 15.1235193, "elevation": 1608.0, "source": "osm", "_tags": {"ele": "1608", "name": "Polsterkogel", "natural": "peak", "wikidata": "Q21864904"}}, {"name": "Sadningkogel", "latitude": 47.2693578, "longitude": 15.1947655, "elevation": 1449.0, "source": "osm", "_tags": {"ele": "1449", "name": "Sadningkogel", "natural": "peak", "wikidata": "Q21865310"}}, {"name": "Zöllerkogel", "latitude": 47.2667156, "longitude": 15.2063556, "elevation": 1353.0, "source": "osm", "_tags": {"ele": "1353", "name": "Zöllerkogel", "natural": "peak", "source": "basemap.at"}}, {"name": "Thomaskogel", "latitude": 47.261517, "longitude": 15.1983089, "elevation": 1302.0, "source": "osm", "_tags": {"ele": "1302", "name": "Thomaskogel", "natural": "peak"}}, {"name": "Listkogel", "latitude": 47.244338, "longitude": 15.2233189, "elevation": 1148.0, "source": "osm", "_tags": {"ele": "1148", "name": "Listkogel", "natural": "peak", "source": "basemap.at"}}, {"name": "Schankkogel", "latitude": 47.2348839, "longitude": 15.254175, "elevation": 1049.0, "source": "osm", "_tags": {"ele": "1049", "name": "Schankkogel", "natural": "peak"}}, {"name": "Parmaseggkogel", "latitude": 47.2249129, "longitude": 15.3137904, "elevation": 785.0, "source": "osm", "_tags": {"ele": "785", "name": "Parmaseggkogel", "natural": "peak", "summit:cross": "yes", "summit:register": "yes", "wikidata": "Q96886528"}}, {"name": "Lammkogel", "latitude": 47.24083, "longitude": 15.3388382, "elevation": 759.0, "source": "osm", "_tags": {"ele": "759", "name": "Lammkogel", "natural": "peak", "source": "basemap.at", "wikidata": "Q21879174"}}, {"name": "Reitererkogel", "latitude": 47.3956379, "longitude": 14.9452813, "elevation": 953.0, "source": "osm", "_tags": {"ele": "953", "name": "Reitererkogel", "natural": "peak", "source": "survey; common knowledge"}}, {"name": "Kaiblberg", "latitude": 47.2847794, "longitude": 15.3745701, "elevation": 785.0, "source": "osm", "_tags": {"ele": "785", "name": "Kaiblberg", "natural": "peak", "source": "basemap.at"}}, {"name": "Loskogel", "latitude": 46.8064505, "longitude": 15.0089337, "elevation": 1790.0, "source": "osm", "_tags": {"ele": "1790", "name": "Loskogel", "natural": "peak", "source": "location estimated"}}, {"name": "Hochanger", "latitude": 47.3657066, "longitude": 15.2660877, "elevation": 1304.0, "source": "osm", "_tags": {"ele": "1304", "name": "Hochanger", "natural": "peak", "summit:cross": "yes", "summit:register": "yes", "wikidata": "Q15108064", "wikipedia": "de:Brucker Hochanger"}}, {"name": "Gschaidberg", "latitude": 47.3051806, "longitude": 15.4373625, "elevation": 1239.0, "source": "osm", "_tags": {"ele": "1239", "man_made": "survey_point", "name": "Gschaidberg", "natural": "peak", "summit:cross": "yes", "summit:register": "yes", "wikidata": "Q21878208", "wikimedia_commons": "Category:Gschaidberg", "wikipedia": "de:Gschaidberg"}}, {"name": "Heulantsch", "latitude": 47.358053, "longitude": 15.4814049, "elevation": 1471.0, "source": "osm", "_tags": {"ele": "1471", "man_made": "cross", "name": "Heulantsch", "natural": "peak", "summit:cross": "yes", "summit:register": "yes"}}, {"name": "Frießenkogel", "latitude": 47.3619122, "longitude": 15.4764706, "elevation": 1491.0, "source": "osm", "_tags": {"ele": "1491", "man_made": "cross", "name": "Frießenkogel", "natural": "peak", "wikidata": "Q21871285"}}, {"name": "Schwarzkogel", "latitude": 47.0722476, "longitude": 14.9132283, "elevation": 1694.0, "source": "osm", "_tags": {"ele": "1694", "name": "Schwarzkogel", "natural": "peak", "wikidata": "Q21878650"}}, {"name": "Gschieskogel", "latitude": 47.2892259, "longitude": 15.4116121, "elevation": 1142.0, "source": "osm", "_tags": {"ele": "1142", "name": "Gschieskogel", "natural": "peak", "source": "basemap.at", "wikidata": "Q21871443"}}, {"name": "Sulberg", "latitude": 47.2896414, "longitude": 15.424976, "elevation": 1094.0, "source": "osm", "_tags": {"ele": "1094", "name": "Sulberg", "natural": "peak", "wikidata": "Q21878233"}}, {"name": "Halterkogel", "latitude": 46.9889362, "longitude": 14.943254, "elevation": 1416.0, "source": "osm", "_tags": {"ele": "1416", "name": "Halterkogel", "natural": "peak"}}, {"name": "", "latitude": 46.9917185, "longitude": 14.953218, "elevation": null, "source": "osm", "_tags": {"natural": "peak"}}, {"name": "", "latitude": 47.0080445, "longitude": 14.8938413, "elevation": 1767.0, "source": "osm", "_tags": {"ele": "1767", "historic": "wayside_cross", "natural": "peak"}}, {"name": "Leebkogel", "latitude": 47.2990708, "longitude": 15.2366303, "elevation": 1153.0, "source": "osm", "_tags": {"ele": "1153", "name": "Leebkogel", "natural": "peak", "source": "basemap.at"}}, {"name": "Kreuzkogel", "latitude": 47.3045024, "longitude": 15.2750772, "elevation": 1089.0, "source": "osm", "_tags": {"ele": "1089", "name": "Kreuzkogel", "natural": "peak", "wikidata": "Q21868711"}}, {"name": "Kornerkogel", "latitude": 47.2992708, "longitude": 15.3018294, "elevation": 819.0, "source": "osm", "_tags": {"ele": "819", "name": "Kornerkogel", "natural": "peak"}}, {"name": "Schartnerkogel", "latitude": 47.3225037, "longitude": 15.2860988, "elevation": 968.0, "source": "osm", "_tags": {"ele": "968", "name": "Schartnerkogel", "natural": "peak"}}, {"name": "Leitnerkogel", "latitude": 47.3271166, "longitude": 15.3001697, "elevation": 996.0, "source": "osm", "_tags": {"ele": "996", "name": "Leitnerkogel", "natural": "peak", "source": "basemap.at"}}, {"name": "Laufnitzberg", "latitude": 47.3225001, "longitude": 15.3167371, "elevation": 998.0, "source": "osm", "_tags": {"ele": "998", "name": "Laufnitzberg", "natural": "peak", "source": "basemap.at"}}, {"name": "Zlattenberg", "latitude": 47.3411914, "longitude": 15.2859508, "elevation": 1175.0, "source": "osm", "_tags": {"ele": "1175", "name": "Zlattenberg", "natural": "peak", "wikidata": "Q21864187"}}, {"name": "Hirzykogel", "latitude": 47.2741555, "longitude": 15.2381436, "elevation": 1129.0, "source": "osm", "_tags": {"ele": "1129", "name": "Hirzykogel", "natural": "peak"}}, {"name": "Kirchkogel", "latitude": 47.3494333, "longitude": 15.3264312, "elevation": 1024.0, "source": "osm", "_tags": {"ele": "1024", "name": "Kirchkogel", "natural": "peak"}}, {"name": "Trafößberg", "latitude": 47.3478, "longitude": 15.3210936, "elevation": 1053.0, "source": "osm", "_tags": {"ele": "1053", "name": "Trafößberg", "natural": "peak"}}, {"name": "Harterkogel", "latitude": 47.344476, "longitude": 15.3168799, "elevation": 1070.0, "source": "osm", "_tags": {"ele": "1070", "name": "Harterkogel", "natural": "peak"}}, {"name": "", "latitude": 47.3418733, "longitude": 15.3006042, "elevation": 1090.0, "source": "osm", "_tags": {"ele": "1090", "natural": "peak"}}, {"name": "Hamreiterkogel", "latitude": 47.3594059, "longitude": 15.3596557, "elevation": 816.0, "source": "osm", "_tags": {"ele": "816", "name": "Hamreiterkogel", "natural": "peak"}}, {"name": "Grasegger Kogel", "latitude": 47.3726605, "longitude": 15.3650631, "elevation": 907.0, "source": "osm", "_tags": {"ele": "907", "name": "Grasegger Kogel", "natural": "peak"}}, {"name": "Kanzelkogel (neu)", "latitude": 47.1160464, "longitude": 15.3816563, "elevation": 608.0, "source": "osm", "_tags": {"ele": "608", "name": "Kanzelkogel (neu)", "natural": "peak"}}, {"name": "Fressenberg", "latitude": 47.3585554, "longitude": 14.9692715, "elevation": 1158.0, "source": "osm", "_tags": {"ele": "1158", "name": "Fressenberg", "natural": "peak", "source": "survey;common knowledge", "wikidata": "Q21870797"}}, {"name": "Seidingerkogel", "latitude": 47.3473731, "longitude": 14.9536662, "elevation": 1091.0, "source": "osm", "_tags": {"ele": "1091", "name": "Seidingerkogel", "natural": "peak", "source": "survey; common knowledge"}}, {"name": "Steineck", "latitude": 47.3657659, "longitude": 14.9184455, "elevation": 1297.0, "source": "osm", "_tags": {"ele": "1297", "man_made": "cross", "name": "Steineck", "natural": "peak", "source": "survey;common knowledge", "summit:cross": "yes", "summit:register": "yes", "wikidata": "Q21863256"}}, {"name": "", "latitude": 46.9045756, "longitude": 15.0258892, "elevation": 1485.0, "source": "osm", "_tags": {"ele": "1485", "natural": "peak", "source": "OSM - OpenCycleMap"}}, {"name": "Haderniggkogel", "latitude": 46.6809084, "longitude": 15.1283839, "elevation": 1184.0, "source": "osm", "_tags": {"ele": "1184", "name": "Haderniggkogel", "natural": "peak", "source": "basemap.at", "wikidata": "Q27456010"}}, {"name": "Kumpfkogel", "latitude": 46.8360174, "longitude": 15.0644486, "elevation": 1554.0, "source": "osm", "_tags": {"ele": "1554", "name": "Kumpfkogel", "natural": "peak", "source": "www.basemap.at"}}, {"name": "Wolscheneck", "latitude": 46.765615, "longitude": 15.0632684, "elevation": 1699.0, "source": "osm", "_tags": {"ele": "1699", "name": "Wolscheneck", "natural": "peak", "source": "basemap.at", "wikidata": "Q21864078"}}, {"name": "Ofnerkogel", "latitude": 47.12181, "longitude": 14.929839, "elevation": 1666.0, "source": "osm", "_tags": {"ele": "1666", "name": "Ofnerkogel", "natural": "peak", "wikidata": "Q21864707"}}, {"name": "", "latitude": 46.6622541, "longitude": 15.1576179, "elevation": 1025.0, "source": "osm", "_tags": {"ele": "1025", "natural": "peak", "source": "OSM - OpenCycleMap"}}, {"name": "", "latitude": 46.8860492, "longitude": 15.0269514, "elevation": 1597.0, "source": "osm", "_tags": {"ele": "1597", "natural": "peak", "source": "basemap.at"}}, {"name": "Spengerkogel", "latitude": 47.0488574, "longitude": 14.9387711, "elevation": 1455.0, "source": "osm", "_tags": {"ele": "1455", "name": "Spengerkogel", "natural": "peak", "source": "basemap.at", "wikidata": "Q21863161"}}, {"name": "Lubachkogel", "latitude": 46.924277, "longitude": 15.0149662, "elevation": 1410.0, "source": "osm", "_tags": {"ele": "1410", "name": "Lubachkogel", "natural": "peak", "source": "OSM - OpenCycleMap"}}, {"name": "Klementkogel", "latitude": 46.9389913, "longitude": 14.9916522, "elevation": 1431.0, "source": "osm", "_tags": {"ele": "1431", "name": "Klementkogel", "natural": "peak"}}, {"name": "Buchenberg", "latitude": 46.7134664, "longitude": 15.1525566, "elevation": 860.0, "source": "osm", "_tags": {"ele": "860", "name": "Buchenberg", "natural": "peak", "source": "OSM - OpenCycleMap"}}, {"name": "Renneiskogel", "latitude": 46.8783421, "longitude": 15.0074356, "elevation": 1689.0, "source": "osm", "_tags": {"ele": "1689", "name": "Renneiskogel", "natural": "peak", "source": "OSM - OpenCycleMap;BEV"}}, {"name": "Schwarzkogel", "latitude": 46.9076615, "longitude": 15.0667178, "elevation": 1550.0, "source": "osm", "_tags": {"ele": "1550", "name": "Schwarzkogel", "natural": "peak", "wikidata": "Q2254264"}}, {"name": "Kalcherkogel", "latitude": 46.9597346, "longitude": 14.9793301, "elevation": 1245.0, "source": "osm", "_tags": {"ele": "1245", "name": "Kalcherkogel", "natural": "peak", "source": "OSM - OpenCycleMap"}}, {"name": "Platzlkogel", "latitude": 47.1745218, "longitude": 15.195491, "elevation": 923.0, "source": "osm", "_tags": {"ele": "923", "name": "Platzlkogel", "natural": "peak", "source": "basemap.at", "wikidata": "Q131463735"}}, {"name": "", "latitude": 47.1521236, "longitude": 15.1874819, "elevation": 820.0, "source": "osm", "_tags": {"ele": "820", "natural": "peak", "source": "OSM - OpenCycleMap"}}, {"name": "", "latitude": 47.1641755, "longitude": 15.1475706, "elevation": 880.0, "source": "osm", "_tags": {"ele": "880", "natural": "peak", "source": "OSM - OpenCycleMap"}}, {"name": "Markogel", "latitude": 47.0897191, "longitude": 15.3198543, "elevation": 680.0, "source": "osm", "_tags": {"ele": "680", "name": "Markogel", "natural": "peak", "source": "OSM - OpenCycleMap", "wikidata": "Q128982128"}}, {"name": "Pfaffenkogel", "latitude": 47.1741954, "longitude": 15.1227629, "elevation": 951.0, "source": "osm", "_tags": {"ele": "951", "name": "Pfaffenkogel", "natural": "peak"}}, {"name": "Hollererkogel", "latitude": 47.1556548, "longitude": 15.2043047, "elevation": 1000.0, "source": "osm", "_tags": {"ele": "1000", "name": "Hollererkogel", "natural": "peak", "source": "OSM - OpenCycleMap;BEV", "wikidata": "Q131460445"}}, {"name": "", "latitude": 47.18709, "longitude": 15.1339879, "elevation": 1030.0, "source": "osm", "_tags": {"ele": "1030", "natural": "peak", "source": "OSM - OpenCycleMap"}}, {"name": "Mandlkogel", "latitude": 47.1703135, "longitude": 15.0827068, "elevation": 1044.0, "source": "osm", "_tags": {"ele": "1044", "name": "Mandlkogel", "natural": "peak", "source": "basemap.at", "wikidata": "Q114643564"}}, {"name": "Reinprechtskogel", "latitude": 47.1483887, "longitude": 15.11744, "elevation": 977.0, "source": "osm", "_tags": {"ele": "977", "name": "Reinprechtskogel", "natural": "peak", "source": "basemap.at"}}, {"name": "", "latitude": 47.1884024, "longitude": 15.0918022, "elevation": 1145.0, "source": "osm", "_tags": {"ele": "1145", "natural": "peak", "source": "OSM - OpenCycleMap"}}, {"name": "Lukaskogel", "latitude": 47.180994, "longitude": 15.1233449, "elevation": 1118.0, "source": "osm", "_tags": {"ele": "1118", "name": "Lukaskogel", "natural": "peak", "source": "selbst bestiegen;Höhe aus Amap entnommen", "wikidata": "Q107201805"}}, {"name": "Kehrerkogel", "latitude": 47.1312505, "longitude": 15.2095055, "elevation": 906.0, "source": "osm", "_tags": {"ele": "906", "name": "Kehrerkogel", "natural": "peak", "source": "basemap.at", "wikidata": "Q127248523"}}, {"name": "", "latitude": 47.2109275, "longitude": 15.0512686, "elevation": 1730.0, "source": "osm", "_tags": {"ele": "1730", "natural": "peak", "source": "OSM - OpenCycleMap"}}, {"name": "", "latitude": 47.1787334, "longitude": 15.0631991, "elevation": 1270.0, "source": "osm", "_tags": {"ele": "1270", "natural": "peak", "source": "OSM - OpenCycleMap"}}, {"name": "", "latitude": 47.1848588, "longitude": 15.142807, "elevation": 970.0, "source": "osm", "_tags": {"ele": "970", "natural": "peak", "source": "OSM - OpenCycleMap"}}, {"name": "Römaskogel", "latitude": 47.1607761, "longitude": 15.1306486, "elevation": 1006.0, "source": "osm", "_tags": {"ele": "1006", "name": "Römaskogel", "natural": "peak", "source": "basemap.at", "wikidata": "Q21865183"}}, {"name": "Kohlschwarzkogel", "latitude": 47.1334055, "longitude": 15.1162424, "elevation": 930.0, "source": "osm", "_tags": {"ele": "930", "name": "Kohlschwarzkogel", "natural": "peak", "source": "basemap.at"}}, {"name": "", "latitude": 47.162454, "longitude": 15.1758089, "elevation": 800.0, "source": "osm", "_tags": {"ele": "800", "natural": "peak", "source": "OSM - OpenCycleMap"}}, {"name": "", "latitude": 47.175758, "longitude": 15.0649157, "elevation": 1200.0, "source": "osm", "_tags": {"ele": "1200", "natural": "peak", "source": "OSM - OpenCycleMap"}}, {"name": "Hörgaskogel", "latitude": 47.1747232, "longitude": 15.2470645, "elevation": 1020.0, "source": "osm", "_tags": {"ele": "1020", "name": "Hörgaskogel", "natural": "peak", "source": "OSM - OpenCycleMap", "wikidata": "Q131452001"}}, {"name": "", "latitude": 47.1960285, "longitude": 15.0298109, "elevation": 1710.0, "source": "osm", "_tags": {"ele": "1710", "natural": "peak", "source": "OSM - OpenCycleMap"}}, {"name": "Jägerberg", "latitude": 47.0927432, "longitude": 15.3067007, "elevation": 676.0, "source": "osm", "_tags": {"ele": "676", "name": "Jägerberg", "natural": "peak", "source": "OSM - OpenCycleMap", "summit:cross": "yes", "wikidata": "Q128262977"}}, {"name": "Grabenwarterkogel", "latitude": 47.1557715, "longitude": 15.2146902, "elevation": 1005.0, "source": "osm", "_tags": {"ele": "1005", "name": "Grabenwarterkogel", "natural": "peak", "source": "OSM - OpenCycleMap;BEV;Digitaler Atlas Steiermark DGM", "wikidata": "Q131452089"}}, {"name": "Walzkogel", "latitude": 47.1633293, "longitude": 15.2460184, "elevation": 1080.0, "source": "osm", "_tags": {"ele": "1080", "name": "Walzkogel", "natural": "peak", "source": "OSM - OpenCycleMap"}}, {"name": "Raunerkogel", "latitude": 47.1739347, "longitude": 15.2154198, "elevation": 912.0, "source": "osm", "_tags": {"ele": "912", "name": "Raunerkogel", "natural": "peak", "source": "OSM - OpenCycleMap;BEV;Digitaler Atlas Steiermark DGM", "wikidata": "Q131452081"}}, {"name": "", "latitude": 47.2120727, "longitude": 15.073099, "elevation": 1510.0, "source": "osm", "_tags": {"ele": "1510", "natural": "peak", "source": "GPS"}}, {"name": "", "latitude": 47.1759622, "longitude": 15.1051274, "elevation": 950.0, "source": "osm", "_tags": {"ele": "950", "natural": "peak", "source": "OSM - OpenCycleMap"}}, {"name": "", "latitude": 47.1375584, "longitude": 15.1246968, "elevation": 970.0, "source": "osm", "_tags": {"ele": "970", "natural": "peak", "source": "OSM - OpenCycleMap"}}, {"name": "", "latitude": 47.1367702, "longitude": 15.1065007, "elevation": 800.0, "source": "osm", "_tags": {"ele": "800", "natural": "peak", "source": "OSM - OpenCycleMap"}}, {"name": "", "latitude": 47.1674725, "longitude": 15.2641287, "elevation": 950.0, "source": "osm", "_tags": {"ele": "950", "natural": "peak", "source": "OSM - OpenCycleMap"}}, {"name": "", "latitude": 47.1608783, "longitude": 15.1058998, "elevation": 800.0, "source": "osm", "_tags": {"ele": "800", "natural": "peak", "source": "OSM - OpenCycleMap"}}, {"name": "", "latitude": 47.1778583, "longitude": 15.2355042, "elevation": 890.0, "source": "osm", "_tags": {"ele": "890", "natural": "peak", "source": "OSM - OpenCycleMap"}}, {"name": "", "latitude": 47.1823212, "longitude": 15.0690785, "elevation": 1200.0, "source": "osm", "_tags": {"ele": "1200", "natural": "peak", "source": "OSM - OpenCycleMap"}}, {"name": "Niederer Schöckl", "latitude": 47.1970207, "longitude": 15.4472996, "elevation": 1342.0, "source": "osm", "_tags": {"ele": "1342", "name": "Niederer Schöckl", "natural": "peak", "summit:cross": "yes", "summit:register": "yes"}}, {"name": "", "latitude": 47.2055744, "longitude": 15.4008446, "elevation": null, "source": "osm", "_tags": {"natural": "peak"}}, {"name": "Ochsenkogel", "latitude": 46.8635735, "longitude": 14.998995, "elevation": 1705.0, "source": "osm", "_tags": {"ele": "1705", "name": "Ochsenkogel", "natural": "peak"}}, {"name": "Fürwallnerhöhe", "latitude": 47.1739849, "longitude": 15.4735403, "elevation": 910.0, "source": "osm", "_tags": {"ele": "910", "name": "Fürwallnerhöhe", "natural": "peak", "summit:cross": "yes", "wheelchair": "no", "wikidata": "Q124614341"}}, {"name": "Theresienhügel", "latitude": 46.7743447, "longitude": 15.4160812, "elevation": 561.0, "source": "osm", "_tags": {"ele": "561", "name": "Theresienhügel", "natural": "peak", "source:ele": "ÖK50"}}, {"name": "Demmerkogel", "latitude": 46.7859624, "longitude": 15.42969, "elevation": 671.0, "source": "osm", "_tags": {"alt_name": "Höchkogel", "ele": "671", "name": "Demmerkogel", "natural": "peak", "note": "wohl nach dem östlich gelegenen Gehöft Demmel / Temmel benannt, das \"r\" ist irgendwann (jedenfalls auch schon in der FLA) reingerutscht?", "old_name": "Demmelkogel;Tammelkogel", "source:alt_name": "FJLA", "source:old_name": "FJLA;JLA", "wikidata": "Q1185772", "wikipedia": "de:Demmerkogel"}}, {"name": "Jedlovnik", "latitude": 46.65384, "longitude": 15.5906767, "elevation": 421.0, "source": "osm", "_tags": {"ele": "421", "name": "Jedlovnik", "natural": "peak"}}, {"name": "Rosseck", "latitude": 47.3585261, "longitude": 15.2049894, "elevation": 1664.0, "source": "osm", "_tags": {"ele": "1664", "name": "Rosseck", "natural": "peak", "summit:cross": "yes", "summit:register": "yes", "wikidata": "Q21878092"}}, {"name": "G'spitzte Wand", "latitude": 47.4085266, "longitude": 15.0339675, "elevation": 869.0, "source": "osm", "_tags": {"ele": "869", "name": "G'spitzte Wand", "natural": "peak", "source": "survey", "summit:cross": "yes", "tourism": "viewpoint"}}, {"name": "Ramberg", "latitude": 47.2803426, "longitude": 14.8886955, "elevation": null, "source": "osm", "_tags": {"name": "Ramberg", "natural": "peak"}}, {"name": "Hirschkogel", "latitude": 46.6739678, "longitude": 15.0081837, "elevation": 1392.0, "source": "osm", "_tags": {"ele": "1392", "name": "Hirschkogel", "natural": "peak", "source": "basemap.at"}}, {"name": "Kleinalpl", "latitude": 46.7415508, "longitude": 14.9869165, "elevation": 1759.0, "source": "osm", "_tags": {"ele": "1759", "name": "Kleinalpl", "natural": "peak"}}, {"name": "", "latitude": 47.3972468, "longitude": 15.0750295, "elevation": 1021.0, "source": "osm", "_tags": {"ele": "1021", "natural": "peak"}}, {"name": "Brandkogel", "latitude": 47.0856216, "longitude": 14.9346488, "elevation": 1648.0, "source": "osm", "_tags": {"ele": "1648", "name": "Brandkogel", "natural": "peak", "wikidata": "Q21878628"}}, {"name": "", "latitude": 47.3403033, "longitude": 15.4277931, "elevation": 1326.0, "source": "osm", "_tags": {"ele": "1326", "natural": "peak"}}, {"name": "", "latitude": 47.3444919, "longitude": 15.4505418, "elevation": 1455.0, "source": "osm", "_tags": {"ele": "1455", "natural": "peak"}}, {"name": "Schöcklkopf", "latitude": 47.2013569, "longitude": 15.4756202, "elevation": 1423.0, "source": "osm", "_tags": {"ele": "1423", "name": "Schöcklkopf", "natural": "peak", "wikidata": "Q21879195"}}, {"name": "Ölberg", "latitude": 47.057439, "longitude": 15.3800464, "elevation": 559.0, "source": "osm", "_tags": {"ele": "559", "name": "Ölberg", "natural": "peak", "source": "basemap.at", "wikidata": "Q21879287", "wikimedia_commons": "Category:Ölberg (Plabutsch)"}}, {"name": "Walzkogel", "latitude": 47.2110536, "longitude": 15.1345983, "elevation": 1456.0, "source": "osm", "_tags": {"ele": "1456", "name": "Walzkogel", "natural": "peak"}}, {"name": "", "latitude": 47.2525817, "longitude": 15.54376, "elevation": 1088.0, "source": "osm", "_tags": {"ele": "1088", "loc_name": "Schweinsbauch ans", "natural": "peak", "summit:cross": "yes"}}, {"name": "Hühnerkogel", "latitude": 47.3329108, "longitude": 15.1969573, "elevation": 1593.0, "source": "osm", "_tags": {"ele": "1593", "name": "Hühnerkogel", "natural": "peak"}}, {"name": "Häuselberg", "latitude": 47.3602638, "longitude": 15.0811558, "elevation": 731.0, "source": "osm", "_tags": {"ele": "731", "name": "Häuselberg", "natural": "peak", "note": "ele: That is what my Garmin Oregon showed.", "source": "survey", "summit:cross": "yes", "summit:register": "no", "wikidata": "Q118444919"}}, {"name": "", "latitude": 47.2392187, "longitude": 15.0334162, "elevation": 1894.0, "source": "osm", "_tags": {"ele": "1894", "natural": "peak"}}, {"name": "", "latitude": 47.2560872, "longitude": 15.093596, "elevation": 1807.0, "source": "osm", "_tags": {"ele": "1807", "natural": "peak"}}, {"name": "", "latitude": 47.2787496, "longitude": 15.1409167, "elevation": 1673.0, "source": "osm", "_tags": {"ele": "1673", "natural": "peak"}}, {"name": "Wildeggkogel", "latitude": 47.2432805, "longitude": 15.0115071, "elevation": 1792.0, "source": "osm", "_tags": {"ele": "1792", "name": "Wildeggkogel", "natural": "peak", "wikidata": "Q21863996"}}, {"name": "Mestni vrh", "latitude": 46.5684871, "longitude": 15.6462577, "elevation": 348.0, "source": "osm", "_tags": {"ele": "348", "name": "Mestni vrh", "natural": "peak"}}, {"name": "Pekrska gorca", "latitude": 46.5498518, "longitude": 15.6066419, "elevation": 351.0, "source": "osm", "_tags": {"ele": "351", "name": "Pekrska gorca", "natural": "peak"}}, {"name": "", "latitude": 47.2786579, "longitude": 15.1753293, "elevation": 1534.0, "source": "osm", "_tags": {"ele": "1534", "natural": "peak"}}, {"name": "", "latitude": 47.2839761, "longitude": 15.1595684, "elevation": 1619.0, "source": "osm", "_tags": {"ele": "1619", "natural": "peak"}}, {"name": "Stolni vrh", "latitude": 46.5666557, "longitude": 15.6651289, "elevation": 382.0, "source": "osm", "_tags": {"ele": "382", "name": "Stolni vrh", "natural": "peak"}}, {"name": "", "latitude": 47.2694127, "longitude": 15.1817133, "elevation": 1463.0, "source": "osm", "_tags": {"ele": "1463", "natural": "peak"}}, {"name": "", "latitude": 47.2790447, "longitude": 15.1690567, "elevation": 1564.0, "source": "osm", "_tags": {"ele": "1564", "natural": "peak"}}, {"name": "Mittagkogel", "latitude": 47.2877977, "longitude": 14.9250665, "elevation": 948.0, "source": "osm", "_tags": {"ele": "948", "name": "Mittagkogel", "natural": "peak", "source": "survey", "summit:cross": "yes"}}, {"name": "", "latitude": 47.2957448, "longitude": 15.1784986, "elevation": 1453.0, "source": "osm", "_tags": {"ele": "1453", "natural": "peak"}}, {"name": "Steinbachkogel", "latitude": 47.1753793, "longitude": 14.9651115, "elevation": 1549.0, "source": "osm", "_tags": {"ele": "1549", "name": "Steinbachkogel", "natural": "peak"}}, {"name": "Bockkogel", "latitude": 47.0240328, "longitude": 15.3688808, "elevation": 539.0, "source": "osm", "_tags": {"ele": "539", "name": "Bockkogel", "natural": "peak", "wikidata": "Q21879294", "wikimedia_commons": "Category:Bockkogel (Plabutsch)", "wikipedia": "de:Bockkogel (Plabutsch)"}}, {"name": "Samotni bor", "latitude": 46.5770614, "longitude": 15.6352722, "elevation": 426.0, "source": "osm", "_tags": {"ele": "426", "name": "Samotni bor", "natural": "peak", "wikidata": "Q89391150", "wikipedia": "sl:Samotni bor"}}, {"name": "Nadelspitz", "latitude": 47.3372045, "longitude": 15.388565, "elevation": 882.0, "source": "osm", "_tags": {"climbing": "route_top", "ele": "882", "fixme": "Höhe aus GPS, vermutlich ziemlich ungenau.", "name": "Nadelspitz", "natural": "peak", "source": "survey;gps", "summit:cross": "yes", "summit:register": "yes"}}, {"name": "", "latitude": 47.1909652, "longitude": 14.9984392, "elevation": 1736.0, "source": "osm", "_tags": {"ele": "1736", "natural": "peak"}}, {"name": "Terenbachkogel", "latitude": 47.1852678, "longitude": 14.9914059, "elevation": 1716.0, "source": "osm", "_tags": {"alt_name": "Ternbachkogel", "ele": "1716", "name": "Terenbachkogel", "natural": "peak", "summit:cross": "yes", "summit:register": "no", "wikidata": "Q119843792", "wikipedia": "de:Terenbachkogel"}}, {"name": "Himbergereck", "latitude": 47.4246329, "longitude": 15.100381, "elevation": 1345.0, "source": "osm", "_tags": {"ele": "1345", "name": "Himbergereck", "natural": "peak", "summit:cross": "yes"}}, {"name": "Bründlkogel", "latitude": 47.3339373, "longitude": 15.5543894, "elevation": 1436.0, "source": "osm", "_tags": {"ele": "1436", "name": "Bründlkogel", "natural": "peak"}}, {"name": "Zeisleck", "latitude": 47.3517585, "longitude": 15.7492364, "elevation": 1078.0, "source": "osm", "_tags": {"ele": "1078", "name": "Zeisleck", "natural": "peak", "summit:cross": "yes", "summit:register": "yes"}}, {"name": "Fuchskogel", "latitude": 47.166579, "longitude": 15.3967478, "elevation": null, "source": "osm", "_tags": {"name": "Fuchskogel", "natural": "peak", "wikidata": "Q21879224"}}, {"name": "Klementkogel", "latitude": 46.6417787, "longitude": 15.2440019, "elevation": 1052.0, "source": "osm", "_tags": {"ele": "1052", "massif": "Radlberg", "name": "Klementkogel", "natural": "peak", "wikidata": "Q31531640"}}, {"name": "Galgenberg", "latitude": 47.3686682, "longitude": 15.0719433, "elevation": 791.0, "source": "osm", "_tags": {"ele": "791", "name": "Galgenberg", "natural": "peak", "wikidata": "Q21854774"}}, {"name": "Bärnerkogel", "latitude": 47.3950067, "longitude": 15.070284, "elevation": 1061.0, "source": "osm", "_tags": {"alt_name": "Bärenkogel", "alt_name:source:wikidata": "Q21849466", "ele": "1061", "fixme": "check elevation - current value from my GPS", "loc_name": "Pernerkogel", "loc_name:source:wikidata": "Q21849466", "name": "Bärnerkogel", "natural": "peak", "source": "survey, local knowledge"}}, {"name": "Fuchskogel", "latitude": 47.2197972, "longitude": 15.4951592, "elevation": 1060.0, "source": "osm", "_tags": {"ele": "1060", "name": "Fuchskogel", "natural": "peak", "wikidata": "Q21879181"}}, {"name": "", "latitude": 47.2224523, "longitude": 15.5034108, "elevation": 1151.0, "source": "osm", "_tags": {"ele": "1151", "natural": "peak"}}, {"name": "Harl", "latitude": 47.2354285, "longitude": 15.518684, "elevation": 1132.0, "source": "osm", "_tags": {"ele": "1132", "name": "Harl", "natural": "peak", "wikidata": "Q21879163"}}, {"name": "Buchkogel", "latitude": 47.0380067, "longitude": 15.3748844, "elevation": 658.0, "source": "osm", "_tags": {"ele": "658", "name": "Buchkogel", "natural": "peak", "source:ele": "Laserscan Geländemodell (Raster 1 m) auf https://gis.stmk.gv.at/", "wikidata": "Q21873709", "wikimedia_commons": "Category:Buchkogel (Plabutsch)", "wikipedia": "de:Buchkogel (Plabutsch)"}}, {"name": "Hirschkogel", "latitude": 47.267303, "longitude": 15.6088141, "elevation": 1103.0, "source": "osm", "_tags": {"ele": "1103", "name": "Hirschkogel", "natural": "peak", "summit:cross": "yes", "summit:register": "yes"}}, {"name": "Patscha Gipfel", "latitude": 47.2806096, "longitude": 15.6002037, "elevation": 1271.0, "source": "osm", "_tags": {"designation": "Gipfel", "ele": "1271", "name": "Patscha Gipfel", "natural": "peak", "source": "local_knowledge", "summit:cross": "yes", "summit:register": "yes", "wikidata": "Q21864760"}}, {"name": "Landschakogel", "latitude": 47.23658, "longitude": 15.6223028, "elevation": 726.0, "source": "osm", "_tags": {"ele": "726", "name": "Landschakogel", "natural": "peak"}}, {"name": "Schusterbauerkogel", "latitude": 46.9617556, "longitude": 15.1318701, "elevation": 1288.0, "source": "osm", "_tags": {"alt_name": "Schwaigkogel", "ele": "1288", "name": "Schusterbauerkogel", "natural": "peak", "source": "basemap.at"}}, {"name": "Mugel", "latitude": 47.3583057, "longitude": 15.1882245, "elevation": 1630.0, "source": "osm", "_tags": {"ele": "1630", "name": "Mugel", "natural": "peak", "summit:cross": "yes", "wikidata": "Q1557931", "wikipedia": "de:Mugel"}}, {"name": "Stroß", "latitude": 47.2473649, "longitude": 15.5738084, "elevation": 1039.0, "source": "osm", "_tags": {"ele": "1039", "name": "Stroß", "natural": "peak", "wikidata": "Q21863348"}}, {"name": "Wolpermoarkogel", "latitude": 47.3013532, "longitude": 15.047324, "elevation": 1049.0, "source": "osm", "_tags": {"ele": "1049", "name": "Wolpermoarkogel", "natural": "peak"}}, {"name": "Geierkögerl", "latitude": 47.2848453, "longitude": 15.0706901, "elevation": 1211.0, "source": "osm", "_tags": {"ele": "1211", "name": "Geierkögerl", "natural": "peak"}}, {"name": "Zwölferkogel", "latitude": 47.2383859, "longitude": 15.5173757, "elevation": 1063.0, "source": "osm", "_tags": {"ele": "1063", "name": "Zwölferkogel", "natural": "peak", "wikidata": "Q107780074"}}, {"name": "Kreilkogel", "latitude": 47.260719, "longitude": 15.7598976, "elevation": 869.0, "source": "osm", "_tags": {"ele": "869", "name": "Kreilkogel", "natural": "peak", "summit:cross": "yes"}}, {"name": "", "latitude": 46.8399699, "longitude": 15.0402767, "elevation": 1755.0, "source": "osm", "_tags": {"ele": "1755", "natural": "peak"}}, {"name": "Antonienhöhe", "latitude": 47.2777336, "longitude": 15.3174643, "elevation": null, "source": "osm", "_tags": {"name": "Antonienhöhe", "natural": "peak"}}, {"name": "Schrottenkogel", "latitude": 47.3207869, "longitude": 15.5341658, "elevation": 1237.0, "source": "osm", "_tags": {"ele": "1237", "name": "Schrottenkogel", "natural": "peak", "wikidata": "Q21865591"}}, {"name": "Mitterbachkogel", "latitude": 47.3798358, "longitude": 15.540336, "elevation": 1401.0, "source": "osm", "_tags": {"ele": "1401", "name": "Mitterbachkogel", "natural": "peak"}}, {"name": "Bloderkogel", "latitude": 47.2222925, "longitude": 15.3627091, "elevation": 816.0, "source": "osm", "_tags": {"ele": "816", "massif": "Tanneben", "name": "Bloderkogel", "natural": "peak", "wikidata": "Q21879188"}}, {"name": "", "latitude": 47.2219771, "longitude": 15.3496481, "elevation": 714.0, "source": "osm", "_tags": {"ele": "714", "massif": "Tanneben", "natural": "peak"}}, {"name": "", "latitude": 47.2292899, "longitude": 15.3677013, "elevation": 813.0, "source": "osm", "_tags": {"ele": "813", "massif": "Tanneben", "natural": "peak"}}, {"name": "Schneiderkogel", "latitude": 47.2232461, "longitude": 15.3715798, "elevation": 824.0, "source": "osm", "_tags": {"ele": "824", "massif": "Tanneben", "name": "Schneiderkogel", "natural": "peak", "wikidata": "Q21879186"}}, {"name": "Tonneggerkogel", "latitude": 47.3580427, "longitude": 15.4620305, "elevation": 1343.0, "source": "osm", "_tags": {"ele": "1343", "name": "Tonneggerkogel", "natural": "peak", "summit:cross": "yes", "summit:register": "yes"}}, {"name": "", "latitude": 47.2494319, "longitude": 15.319411, "elevation": 548.0, "source": "osm", "_tags": {"ele": "548", "natural": "peak"}}, {"name": "", "latitude": 47.3200862, "longitude": 15.4988562, "elevation": 1242.0, "source": "osm", "_tags": {"ele": "1242", "natural": "peak"}}, {"name": "Gelderkogel", "latitude": 47.3105121, "longitude": 15.4789897, "elevation": 1195.0, "source": "osm", "_tags": {"ele": "1195", "name": "Gelderkogel", "natural": "peak", "wikidata": "Q21870990"}}, {"name": "Kulmkogel", "latitude": 47.360231, "longitude": 15.5234691, "elevation": 1410.0, "source": "osm", "_tags": {"ele": "1410", "name": "Kulmkogel", "natural": "peak"}}, {"name": "", "latitude": 47.3535037, "longitude": 15.5516588, "elevation": 1480.0, "source": "osm", "_tags": {"ele": "1480", "natural": "peak"}}, {"name": "", "latitude": 47.3609115, "longitude": 15.5327955, "elevation": 1418.0, "source": "osm", "_tags": {"ele": "1418", "natural": "peak"}}, {"name": "", "latitude": 47.3630966, "longitude": 15.5312723, "elevation": 1415.0, "source": "osm", "_tags": {"ele": "1415", "natural": "peak"}}, {"name": "Sprungkogel", "latitude": 46.8147385, "longitude": 14.9702428, "elevation": 1868.0, "source": "osm", "_tags": {"ele": "1868", "name": "Sprungkogel", "natural": "peak"}}, {"name": "Weinofen", "latitude": 46.8352909, "longitude": 15.014555, "elevation": 1726.0, "source": "osm", "_tags": {"ele": "1726", "name": "Weinofen", "natural": "peak"}}, {"name": "Gschnaidtkogel", "latitude": 47.2635658, "longitude": 15.660714, "elevation": 921.0, "source": "osm", "_tags": {"ele": "921", "name": "Gschnaidtkogel", "natural": "peak", "source:ele": "Laserscan"}}, {"name": "Schachner Kogel", "latitude": 47.2315776, "longitude": 15.5479117, "elevation": 828.0, "source": "osm", "_tags": {"ele": "828", "name": "Schachner Kogel", "natural": "peak", "wikidata": "Q21879160"}}, {"name": "Gösserturm", "latitude": 47.2484089, "longitude": 15.5300064, "elevation": null, "source": "osm", "_tags": {"name": "Gösserturm", "natural": "peak"}}, {"name": "Koglberg", "latitude": 46.7675109, "longitude": 15.4166075, "elevation": 524.0, "source": "osm", "_tags": {"ele": "524", "name": "Koglberg", "natural": "peak", "source": "basemap.at", "source:ele": "ÖK50"}}, {"name": "", "latitude": 47.1291318, "longitude": 15.4647542, "elevation": 700.0, "source": "osm", "_tags": {"ele": "700", "natural": "peak", "note": "Dieser Westgipfel des ca. 800 m langen Lineckbergs ist ca. 2 m niedriger als sein Ostgipfel", "source:ele": "Laserscan Geländemodell (Raster 1 m) auf https://gis.stmk.gv.at/"}}, {"name": "", "latitude": 47.3397934, "longitude": 15.4158954, "elevation": null, "source": "osm", "_tags": {"natural": "peak"}}, {"name": "Rotündlberg", "latitude": 47.3075459, "longitude": 15.1608375, "elevation": 1541.0, "source": "osm", "_tags": {"ele": "1541", "name": "Rotündlberg", "natural": "peak", "note": "At least my GPS device showed this elevation", "source": "survey;common knowledge", "wikidata": "Q21865277"}}, {"name": "Bärenkogel", "latitude": 47.3063536, "longitude": 15.1117367, "elevation": 1479.0, "source": "osm", "_tags": {"ele": "1479", "name": "Bärenkogel", "natural": "peak", "source": "basemap.at"}}, {"name": "Karneralpe", "latitude": 47.304487, "longitude": 15.0987965, "elevation": 1413.0, "source": "osm", "_tags": {"ele": "1413", "fixme": "check", "name": "Karneralpe", "natural": "peak", "source": "basemap.at"}}, {"name": "Kralkogel", "latitude": 47.3079555, "longitude": 15.0717738, "elevation": 1176.0, "source": "osm", "_tags": {"ele": "1176", "fixme": "check", "name": "Kralkogel", "natural": "peak", "source": "basemap.at"}}, {"name": "Ochsenkogel", "latitude": 47.3121821, "longitude": 15.106168, "elevation": 1458.0, "source": "osm", "_tags": {"ele": "1458", "name": "Ochsenkogel", "natural": "peak", "source": "basemap.at", "wikidata": "Q15837333", "wikipedia": "de:Ochsenkogel (Gleinalpe, bei Leoben)"}}, {"name": "Aibel", "latitude": 47.4189154, "longitude": 15.4783549, "elevation": 1394.0, "source": "osm", "_tags": {"ele": "1394", "name": "Aibel", "natural": "peak", "wikidata": "Q21878007"}}, {"name": "Dornkogel", "latitude": 47.4031009, "longitude": 15.469171, "elevation": 1336.0, "source": "osm", "_tags": {"alt_name": "Dornerkogel", "ele": "1336", "name": "Dornkogel", "natural": "peak", "summit:register": "yes", "wikidata": "Q21873804"}}, {"name": "Hochwartkogel", "latitude": 46.8429732, "longitude": 15.8389726, "elevation": 376.0, "source": "osm", "_tags": {"ele": "376", "name": "Hochwartkogel", "natural": "peak", "source": "basemap.at", "wikidata": "Q21861405"}}, {"name": "Kaskögerl", "latitude": 46.87416, "longitude": 15.8374627, "elevation": 403.0, "source": "osm", "_tags": {"ele": "403", "name": "Kaskögerl", "natural": "peak", "source": "local_knowledge"}}, {"name": "", "latitude": 47.1634621, "longitude": 14.9071413, "elevation": 1667.0, "source": "osm", "_tags": {"ele": "1667", "natural": "peak"}}, {"name": "Wartkogel", "latitude": 47.2092288, "longitude": 15.2517441, "elevation": 906.0, "source": "osm", "_tags": {"ele": "906", "name": "Wartkogel", "natural": "peak", "source": "basemap.at"}}, {"name": "Kogelegg", "latitude": 46.9010209, "longitude": 15.8397434, "elevation": 405.0, "source": "osm", "_tags": {"ele": "405", "name": "Kogelegg", "natural": "peak", "source": "basemap.at", "wikidata": "Q21861442"}}, {"name": "Osserkogel", "latitude": 47.2619596, "longitude": 15.6306785, "elevation": 812.0, "source": "osm", "_tags": {"ele": "812", "name": "Osserkogel", "natural": "peak"}}, {"name": "", "latitude": 47.2483073, "longitude": 15.6205922, "elevation": 792.0, "source": "osm", "_tags": {"ele": "792", "natural": "peak"}}, {"name": "Gösser", "latitude": 47.2496862, "longitude": 15.5355418, "elevation": 1030.0, "source": "osm", "_tags": {"ele": "1030", "name": "Gösser", "natural": "peak", "wikidata": "Q21879156"}}, {"name": "Kampelekogel", "latitude": 46.9155073, "longitude": 15.0205679, "elevation": 1494.0, "source": "osm", "_tags": {"ele": "1494", "name": "Kampelekogel", "natural": "peak"}}, {"name": "Hammerschlag", "latitude": 47.3562017, "longitude": 14.9050823, "elevation": 1413.0, "source": "osm", "_tags": {"ele": "1413", "name": "Hammerschlag", "natural": "peak"}}, {"name": "Hennerkogel", "latitude": 47.3488547, "longitude": 14.8954221, "elevation": 1533.0, "source": "osm", "_tags": {"ele": "1533", "name": "Hennerkogel", "natural": "peak", "wikidata": "Q21871642"}}, {"name": "Ranzenbergkögerl", "latitude": 47.359033, "longitude": 14.8896064, "elevation": 1228.0, "source": "osm", "_tags": {"ele": "1228", "name": "Ranzenbergkögerl", "natural": "peak"}}, {"name": "St. Pongratzen / Sv. Pankracij", "latitude": 46.6529138, "longitude": 15.2992523, "elevation": 900.0, "source": "osm", "_tags": {"ele": "900", "name": "St. Pongratzen / Sv. Pankracij", "natural": "peak"}}, {"name": "Schoberkogl", "latitude": 47.3722316, "longitude": 15.6366061, "elevation": 1039.0, "source": "osm", "_tags": {"ele": "1039", "name": "Schoberkogl", "natural": "peak", "source": "http://at.geoview.info/schoberkogel,8468744"}}, {"name": "Hirschberg", "latitude": 47.3667769, "longitude": 15.6058116, "elevation": 1263.0, "source": "osm", "_tags": {"ele": "1263", "name": "Hirschberg", "natural": "peak", "source": "http://at.geoview.info/hirschberg,8468742", "wikidata": "Q21881780"}}, {"name": "Offner Berg", "latitude": 47.3498712, "longitude": 15.5975113, "elevation": 1293.0, "source": "osm", "_tags": {"ele": "1293", "name": "Offner Berg", "natural": "peak", "source": "basemap.at", "wikidata": "Q21864705"}}, {"name": "Streberkogel", "latitude": 47.359089, "longitude": 15.577135, "elevation": 1447.0, "source": "osm", "_tags": {"ele": "1447", "name": "Streberkogel", "natural": "peak", "wikidata": "Q21881779"}}, {"name": "Feichteck", "latitude": 47.3274601, "longitude": 15.5953852, "elevation": 1242.0, "source": "osm", "_tags": {"ele": "1242", "name": "Feichteck", "natural": "peak", "summit:cross": "yes"}}, {"name": "Grubbauerkogel", "latitude": 47.358713, "longitude": 15.491708, "elevation": 1424.0, "source": "osm", "_tags": {"ele": "1424", "name": "Grubbauerkogel", "natural": "peak"}}, {"name": "Mooskogel", "latitude": 47.3576798, "longitude": 15.5147886, "elevation": 1392.0, "source": "osm", "_tags": {"ele": "1392", "name": "Mooskogel", "natural": "peak"}}, {"name": "Nestbodnerkogel", "latitude": 47.358123, "longitude": 15.500509, "elevation": 1393.0, "source": "osm", "_tags": {"ele": "1393", "name": "Nestbodnerkogel", "natural": "peak"}}, {"name": "Wartberg", "latitude": 46.9256066, "longitude": 15.8327369, "elevation": 410.0, "source": "osm", "_tags": {"ele": "410", "name": "Wartberg", "natural": "peak", "wikidata": "Q21863855"}}, {"name": "Aheimberg", "latitude": 46.9758832, "longitude": 15.8262294, "elevation": 410.0, "source": "osm", "_tags": {"ele": "410", "name": "Aheimberg", "natural": "peak", "wikidata": "Q21873281"}}, {"name": "Hohe Sinn", "latitude": 47.2314342, "longitude": 14.9872696, "elevation": 1638.0, "source": "osm", "_tags": {"ele": "1638", "name": "Hohe Sinn", "natural": "peak", "wikidata": "Q21868046"}}, {"name": "Gleinberg", "latitude": 47.2310017, "longitude": 14.8895819, "elevation": 897.0, "source": "osm", "_tags": {"ele": "897", "name": "Gleinberg", "natural": "peak"}}, {"name": "Grillenberg", "latitude": 47.2214758, "longitude": 14.9134986, "elevation": 982.0, "source": "osm", "_tags": {"ele": "982", "name": "Grillenberg", "natural": "peak"}}, {"name": "Weissenbachkogel", "latitude": 47.2199208, "longitude": 15.0068905, "elevation": 1417.0, "source": "osm", "_tags": {"ele": "1417", "name": "Weissenbachkogel", "natural": "peak", "wikidata": "Q66310943"}}, {"name": "Moar zu Hof Bühel", "latitude": 47.2169158, "longitude": 14.958452, "elevation": 1461.0, "source": "osm", "_tags": {"ele": "1461", "name": "Moar zu Hof Bühel", "natural": "peak", "source": "basemap.at", "wikidata": "Q66310955"}}, {"name": "Zachenriegel", "latitude": 47.1954983, "longitude": 14.9806071, "elevation": 1431.0, "source": "osm", "_tags": {"ele": "1431", "name": "Zachenriegel", "natural": "peak"}}, {"name": "Klompfenberg", "latitude": 46.8222426, "longitude": 15.8069009, "elevation": 331.0, "source": "osm", "_tags": {"ele": "331", "name": "Klompfenberg", "natural": "peak", "wikidata": "Q21861517"}}, {"name": "Rosseggerkogel", "latitude": 47.2524311, "longitude": 14.9401283, "elevation": 991.0, "source": "osm", "_tags": {"ele": "991", "name": "Rosseggerkogel", "natural": "peak"}}, {"name": "Haugensteinkogel", "latitude": 47.1334646, "longitude": 14.931218, "elevation": 1508.0, "source": "osm", "_tags": {"ele": "1508", "name": "Haugensteinkogel", "natural": "peak"}}, {"name": "Scherzberg", "latitude": 47.1295158, "longitude": 14.9415735, "elevation": 1624.0, "source": "osm", "_tags": {"ele": "1624", "name": "Scherzberg", "natural": "peak", "wikidata": "Q21865459"}}, {"name": "Raaberkogel", "latitude": 47.0214684, "longitude": 15.5039953, "elevation": 407.0, "source": "osm", "_tags": {"ele": "407", "name": "Raaberkogel", "natural": "peak", "source": "basemap.at"}}, {"name": "Sauernkogel", "latitude": 47.4130225, "longitude": 15.6016156, "elevation": 1451.0, "source": "osm", "_tags": {"ele": "1451", "name": "Sauernkogel", "natural": "peak", "wikidata": "Q21865369"}}, {"name": "Randlofen", "latitude": 46.9407561, "longitude": 15.1203881, "elevation": 1433.0, "source": "osm", "_tags": {"ele": "1433", "name": "Randlofen", "natural": "peak"}}, {"name": "Reinischkogel", "latitude": 46.9280032, "longitude": 15.1155339, "elevation": 1463.0, "source": "osm", "_tags": {"ele": "1463", "name": "Reinischkogel", "natural": "peak", "wikidata": "Q14912677", "wikimedia_commons": "Category:Reinischkogel", "wikipedia": "de:Reinischkogel (Lavanttaler Alpen)"}}, {"name": "Schraußberg", "latitude": 47.1372051, "longitude": 15.3834837, "elevation": 621.0, "source": "osm", "_tags": {"ele": "621", "name": "Schraußberg", "natural": "peak", "wikidata": "Q21879248"}}, {"name": "Buchkogelgipfelkreuz", "latitude": 47.3243083, "longitude": 15.5025585, "elevation": 1280.0, "source": "osm", "_tags": {"ele": "1280", "name": "Buchkogelgipfelkreuz", "natural": "peak", "note": "There is a Gipfelkreuz at this spot although the actual Buchkogel summit is on another peak some hundred meters further north east.", "summit:cross": "yes", "summit:register": "yes"}}, {"name": "Buchkogel", "latitude": 47.2696856, "longitude": 15.8057806, "elevation": 907.0, "source": "osm", "_tags": {"ele": "907", "inscription": "Errichtet vom ESV Zeil 2001", "man_made": "cross", "material": "wood", "name": "Buchkogel", "natural": "peak", "operator": "ESV Zeil", "start_date": "2001", "summit:cross": "yes", "summit:register": "yes", "wikidata": "Q21873710"}}, {"name": "Ebenschlag", "latitude": 47.4161656, "longitude": 15.4904259, "elevation": 1545.0, "source": "osm", "_tags": {"ele": "1545", "name": "Ebenschlag", "natural": "peak"}}, {"name": "", "latitude": 47.4032966, "longitude": 15.5133656, "elevation": 1414.0, "source": "osm", "_tags": {"ele": "1414", "natural": "peak"}}, {"name": "Kögerl", "latitude": 47.0386727, "longitude": 15.7702373, "elevation": 435.0, "source": "osm", "_tags": {"ele": "435", "name": "Kögerl", "natural": "peak"}}, {"name": "Lamberg", "latitude": 46.9311499, "longitude": 15.7840243, "elevation": 416.0, "source": "osm", "_tags": {"ele": "416", "name": "Lamberg", "natural": "peak", "wikidata": "Q21861558"}}, {"name": "Admonter Kogel", "latitude": 47.1142968, "longitude": 15.3971241, "elevation": 578.0, "source": "osm", "_tags": {"ele": "578", "name": "Admonter Kogel", "natural": "peak", "wikidata": "Q21879258", "wikimedia_commons": "Category:Admonter Kogel", "wikipedia": "de:Admonter Kogel"}}, {"name": "Kuhberg", "latitude": 47.3818633, "longitude": 15.1611418, "elevation": 903.0, "source": "osm", "_tags": {"ele": "903", "name": "Kuhberg", "natural": "peak"}}, {"name": "Schafberg", "latitude": 47.3874024, "longitude": 15.1754923, "elevation": 811.0, "source": "osm", "_tags": {"ele": "811", "name": "Schafberg", "natural": "peak", "source": "basemap.at"}}, {"name": "Mießriegel", "latitude": 47.3652168, "longitude": 15.1479661, "elevation": 1213.0, "source": "osm", "_tags": {"ele": "1213", "name": "Mießriegel", "natural": "peak"}}, {"name": "Spitz Christi", "latitude": 47.3625223, "longitude": 15.1302351, "elevation": 1105.0, "source": "osm", "_tags": {"ele": "1105", "name": "Spitz Christi", "natural": "peak", "wikidata": "Q21878084"}}, {"name": "Steirer Kögerl", "latitude": 47.4155852, "longitude": 15.0265748, "elevation": null, "source": "osm", "_tags": {"name": "Steirer Kögerl", "natural": "peak"}}, {"name": "Schießstattkogel", "latitude": 47.3683629, "longitude": 15.3019881, "elevation": 797.0, "source": "osm", "_tags": {"ele": "797", "name": "Schießstattkogel", "natural": "peak", "summit:cross": "yes"}}, {"name": "Hollerkogel", "latitude": 46.9456875, "longitude": 15.7347412, "elevation": 463.0, "source": "osm", "_tags": {"ele": "463", "name": "Hollerkogel", "natural": "peak", "wikidata": "Q21861565"}}, {"name": "Tontelberg", "latitude": 46.9191952, "longitude": 15.7733106, "elevation": 400.0, "source": "osm", "_tags": {"ele": "400", "name": "Tontelberg", "natural": "peak", "wikidata": "Q21861553"}}, {"name": "", "latitude": 47.3019156, "longitude": 15.127869, "elevation": 1208.0, "source": "osm", "_tags": {"ele": "1208", "fixme": "check ele", "natural": "peak", "note": "Elevation as shown on my navi.", "source": "survey"}}, {"name": "Gaasberg", "latitude": 47.2872253, "longitude": 15.526491, "elevation": 857.0, "source": "osm", "_tags": {"ele": "857", "name": "Gaasberg", "natural": "peak"}}, {"name": "Volovica", "latitude": 46.4444812, "longitude": 15.2810975, "elevation": 1455.0, "source": "osm", "_tags": {"ele": "1455", "name": "Volovica", "natural": "peak", "wikidata": "Q31528027"}}, {"name": "Mizni vrh", "latitude": 46.4873186, "longitude": 15.4092953, "elevation": 1340.0, "source": "osm", "_tags": {"ele": "1340", "name": "Mizni vrh", "natural": "peak", "wikidata": "Q31530844"}}, {"name": "Schiberg Mureck", "latitude": 46.7033755, "longitude": 15.769536, "elevation": null, "source": "osm", "_tags": {"name": "Schiberg Mureck", "natural": "peak"}}, {"name": "Hausberg", "latitude": 47.2005345, "longitude": 15.3900324, "elevation": 889.0, "source": "osm", "_tags": {"ele": "889", "name": "Hausberg", "natural": "peak", "wikidata": "Q21879201"}}, {"name": "Aichberg", "latitude": 47.3462634, "longitude": 15.0276881, "elevation": 833.0, "source": "osm", "_tags": {"ele": "833", "name": "Aichberg", "natural": "peak"}}, {"name": "", "latitude": 47.3101502, "longitude": 15.1903088, "elevation": 1286.0, "source": "osm", "_tags": {"ele": "1286", "natural": "peak"}},