[{"name": "Aletschhorn", "latitude": 46.465198, "longitude": 7.9932117, "elevation": 4195.0, "source": "osm", "_tags": {"ele": "4195", "name": "Aletschhorn", "natural": "peak", "prominence": "1022", "source:prominence": "4195-3173 (Lötschenlücke)", "wikidata": "Q15293", "wikipedia": "de:Aletschhorn"}}, {"name": "Brienzer Rothorn", "latitude": 46.787096, "longitude": 8.0468683, "elevation": 2348.0, "source": "osm", "_tags": {"ele": "2348", "name": "Brienzer Rothorn", "natural": "peak", "prominence": "1343", "wikidata": "Q15226", "wikipedia": "de:Brienzer Rothorn"}}, {"name": "Bristen", "latitude": 46.7369009, "longitude": 8.6813258, "elevation": 3073.0, "source": "osm", "_tags": {"ele": "3073", "name": "Bristen", "natural": "peak", "summit:cross": "yes", "wikidata": "Q43299"}}, {"name": "Brunnistock", "latitude": 46.8477779, "longitude": 8.55, "elevation": 2952.0, "source": "osm", "_tags": {"ele": "2952", "name": "Brunnistock", "natural": "peak", "wikidata": "Q3647509", "wikipedia": "de:Brunnistock"}}, {"name": "Dammastock", "latitude": 46.6434126, "longitude": 8.4210603, "elevation": 3630.0, "source": "osm", "_tags": {"ele": "3630", "name": "Dammastock", "natural": "peak", "note": "culminant point of Canton Uri", "prominence": "1465", "wikidata": "Q15133", "wikipedia": "de:Dammastock"}}, {"name": "Eggishorn", "latitude": 46.4313539, "longitude": 8.0942332, "elevation": 2926.0, "source": "osm", "_tags": {"ele": "2926", "name": "Eggishorn", "natural": "peak", "wikidata": "Q670237"}}, {"name": "Fleckistock", "latitude": 46.7074487, "longitude": 8.4975599, "elevation": 3416.0, "source": "osm", "_tags": {"alt_name": "Rot Stock", "ele": "3416", "name": "Fleckistock", "natural": "peak", "wikidata": "Q3073520"}}, {"name": "Furggenguetsch", "latitude": 46.788057, "longitude": 7.9017726, "elevation": 2197.0, "source": "osm", "_tags": {"ele": "2197", "name": "Furggenguetsch", "natural": "peak", "summit:cross": "yes"}}, {"name": "Glogghüs", "latitude": 46.7606419, "longitude": 8.2626841, "elevation": 2535.0, "source": "osm", "_tags": {"ele": "2535", "name": "Glogghüs", "natural": "peak", "wikidata": "Q58283"}}, {"name": "Gross Spannort", "latitude": 46.7866667, "longitude": 8.5244444, "elevation": 3198.0, "source": "osm", "_tags": {"ele": "3198", "name": "Gross Spannort", "natural": "peak", "wikidata": "Q674478"}}, {"name": "Grosses Wannenhorn", "latitude": 46.4933983, "longitude": 8.0973288, "elevation": 3906.0, "source": "osm", "_tags": {"ele": "3906", "name": "Grosses Wannenhorn", "natural": "peak", "wikidata": "Q378519"}}, {"name": "Bürgenstock", "latitude": 47.0003117, "longitude": 8.3983261, "elevation": 1127.0, "source": "osm", "_tags": {"alt_name": "Bürgenberg", "ele": "1127", "name": "Bürgenstock", "natural": "peak", "old_name": "Hammetschwand", "wikidata": "Q43246", "wikipedia": "de:Bürgenstock"}}, {"name": "Mittelhorn", "latitude": 46.6350978, "longitude": 8.1247441, "elevation": 3704.0, "source": "osm", "_tags": {"ele": "3704", "name": "Mittelhorn", "natural": "peak", "wikidata": "Q368948"}}, {"name": "Oberalpstock", "latitude": 46.7426756, "longitude": 8.7695308, "elevation": 3328.0, "source": "osm", "_tags": {"ele": "3328", "name": "Oberalpstock", "name:rm": "Piz Tgietsehen", "natural": "peak", "wikidata": "Q15295"}}, {"name": "Piz Gannaretsch", "latitude": 46.6119444, "longitude": 8.7866667, "elevation": 3039.6, "source": "osm", "_tags": {"ele": "3039.6", "name": "Piz Gannaretsch", "natural": "peak", "wikidata": "Q6979838"}}, {"name": "Pizzo del Sole", "latitude": 46.5250591, "longitude": 8.7678851, "elevation": 2773.0, "source": "osm", "_tags": {"alt_name": "Pizzo Sole", "ele": "2773", "name": "Pizzo del Sole", "natural": "peak", "wikidata": "Q1764791", "wikipedia": "it:Pizzo del Sole"}}, {"name": "Pizzo Rotondo", "latitude": 46.5176959, "longitude": 8.4661827, "elevation": 3192.0, "source": "osm", "_tags": {"ele": "3192", "name": "Pizzo Rotondo", "natural": "peak", "wikidata": "Q692038", "wikipedia": "it:Pizzo Rotondo (Canton Ticino)"}}, {"name": "Rigi", "latitude": 47.0566777, "longitude": 8.4852649, "elevation": 1797.52, "source": "osm", "_tags": {"ele": "1797.52", "inscription:position": "Offizielle Landeskoordinaten: Y=679'520.05 m X=212'273.44 m;Geografische Koordinaten: L=8°29'11.1113\" B=47°03'28.9566\";Höhe über Meer (Oberkante Granitstein) H=1'797.52 m", "lat": "47.0580435", "lon": "8.486419806", "name": "Rigi", "natural": "peak", "note": "Triangulationspunkt Grad 1", "prominence": "1289", "summit:cross": "no", "summit:register": "no", "website": "https://www.rigi.ch/", "wikidata": "Q15291", "wikipedia": "de:Rigi"}}, {"name": "Schächentaler Windgällen", "latitude": 46.8879754, "longitude": 8.7917306, "elevation": 2764.0, "source": "osm", "_tags": {"alt_name": "Höch Windgällen", "ele": "2764", "name": "Schächentaler Windgällen", "natural": "peak", "wikidata": "Q3647291"}}, {"name": "Piz Giuv", "latitude": 46.7019444, "longitude": 8.6925, "elevation": 3096.0, "source": "osm", "_tags": {"ele": "3096", "name": "Piz Giuv", "natural": "peak", "wikidata": "Q43294"}}, {"name": "Schwarzhoren", "latitude": 46.6861093, "longitude": 8.0755556, "elevation": 2927.0, "source": "osm", "_tags": {"alt_name": "Schwarzhorn", "ele": "2927", "name": "Schwarzhoren", "natural": "peak", "wikidata": "Q669809", "wikipedia": "de:Schwarzhorn (Berner Alpen)"}}, {"name": "Scopi", "latitude": 46.5717011, "longitude": 8.8299879, "elevation": 3190.0, "source": "osm", "_tags": {"ele": "3190", "name": "Scopi", "natural": "peak", "summit:cross": "yes", "wikidata": "Q593551", "wikipedia": "it:Scopi"}}, {"name": "Titlis", "latitude": 46.7720386, "longitude": 8.4377808, "elevation": 3238.0, "source": "osm", "_tags": {"ele": "3238", "name": "Titlis", "name:ru": "Титлис", "name:zh": "铁力士峰", "natural": "peak", "note": "culminant point of Kanton Obwald", "old_name": "Tutilinesberc", "source": "GPS survey 2010.03.22", "wikidata": "Q15138"}}, {"name": "Tomlishorn", "latitude": 46.9739148, "longitude": 8.2412197, "elevation": 2128.0, "source": "osm", "_tags": {"ele": "2128", "name": "Tomlishorn", "natural": "peak", "wikidata": "Q15267", "wikipedia": "de:Tomlishorn"}}, {"name": "Uetliberg", "latitude": 47.3494459, "longitude": 8.4919649, "elevation": 869.0, "source": "osm", "_tags": {"ele": "869", "name": "Uetliberg", "natural": "peak", "wikidata": "Q16524", "wikimedia_commons": "Category:Uetliberg", "wikipedia": "de:Uetliberg"}}, {"name": "Eiger", "latitude": 46.5776321, "longitude": 8.0054694, "elevation": 3970.0, "source": "osm", "_tags": {"ele": "3970", "name": "Eiger", "name:ru": "гора Айгер", "name:zh": "艾格尔峰", "natural": "peak", "prominence": "364", "source:prominence": "3970-3606 (Nördliches Eigerjoch)", "wikidata": "Q4425", "wikipedia": "de:Eiger"}}, {"name": "Lauberhorn", "latitude": 46.5925196, "longitude": 7.9480344, "elevation": 2472.0, "source": "osm", "_tags": {"ele": "2472", "name": "Lauberhorn", "natural": "peak", "source": "survey", "wikidata": "Q585048"}}, {"name": "Ofenhoren", "latitude": 46.6488152, "longitude": 8.3337816, "elevation": 2943.0, "source": "osm", "_tags": {"ele": "2943", "name": "Ofenhoren", "natural": "peak", "wikidata": "Q22428841"}}, {"name": "Brisen", "latitude": 46.8987838, "longitude": 8.4583098, "elevation": 2404.0, "source": "osm", "_tags": {"ele": "2404", "name": "Brisen", "natural": "peak", "summit:cross": "yes", "wikidata": "Q16615"}}, {"name": "Männlichen", "latitude": 46.6181397, "longitude": 7.9380395, "elevation": 2345.0, "source": "osm", "_tags": {"ele": "2345", "name": "Männlichen", "natural": "peak", "wikidata": "Q117417"}}, {"name": "Niderbauen-Chulm", "latitude": 46.9476927, "longitude": 8.5569768, "elevation": 1923.0, "source": "osm", "_tags": {"ele": "1923", "name": "Niderbauen-Chulm", "natural": "peak", "wikidata": "Q1586102"}}, {"name": "Urirotstock", "latitude": 46.8618147, "longitude": 8.5351237, "elevation": 2928.0, "source": "osm", "_tags": {"ele": "2928", "name": "Urirotstock", "natural": "peak", "wikidata": "Q674811", "wikipedia": "de:Uri Rotstock"}}, {"name": "Hagelstock", "latitude": 46.9170956, "longitude": 8.6816887, "elevation": 2182.0, "source": "osm", "_tags": {"ele": "2182", "name": "Hagelstock", "natural": "peak", "wikidata": "Q1250534"}}, {"name": "Gross Windgällen", "latitude": 46.807304, "longitude": 8.732159, "elevation": 3187.0, "source": "osm", "_tags": {"ele": "3187", "name": "Gross Windgällen", "natural": "peak", "wikidata": "Q16614"}}, {"name": "Oberbauenstock", "latitude": 46.9278596, "longitude": 8.5441197, "elevation": 2116.9, "source": "osm", "_tags": {"ele": "2116.9", "name": "Oberbauenstock", "natural": "peak", "wikidata": "Q16629", "wikipedia": "en:Oberbauenstock"}}, {"name": "Rossbodenstock", "latitude": 46.6351979, "longitude": 8.6509407, "elevation": 2837.0, "source": "osm", "_tags": {"ele": "2837", "name": "Rossbodenstock", "natural": "peak", "summit:cross": "yes", "summit:register": "yes", "wikidata": "Q682768"}}, {"name": "Rossstock", "latitude": 46.9170901, "longitude": 8.7078849, "elevation": 2461.0, "source": "osm", "_tags": {"ele": "2461", "name": "Rossstock", "natural": "peak", "wikidata": "Q2167812"}}, {"name": "Gross Bielenhorn", "latitude": 46.6039574, "longitude": 8.4283826, "elevation": 3210.0, "source": "osm", "_tags": {"ele": "3210", "name": "Gross Bielenhorn", "natural": "peak", "wikidata": "Q43186", "wikipedia": "de:Gross Bielenhorn"}}, {"name": "Salbitschijen", "latitude": 46.6805738, "longitude": 8.5297718, "elevation": 2981.0, "source": "osm", "_tags": {"alt_name": "Salbit", "ele": "2981", "name": "Salbitschijen", "natural": "peak", "wikidata": "Q43172", "wikipedia": "de:Salbitschijen"}}, {"name": "Schlossberg", "latitude": 46.8025, "longitude": 8.526944, "elevation": 3133.0, "source": "osm", "_tags": {"alt_name": "Hinter Schloss", "ele": "3133", "name": "Schlossberg", "natural": "peak", "wikidata": "Q2244426", "wikipedia": "de:Schlossberg (Uri)"}}, {"name": "Galenstock", "latitude": 46.6126458, "longitude": 8.4169961, "elevation": 3586.0, "source": "osm", "_tags": {"ele": "3586", "name": "Galenstock", "natural": "peak", "wikidata": "Q43178", "wikipedia": "de:Galenstock"}}, {"name": "Stotzigen Firsten", "latitude": 46.5681291, "longitude": 8.4413956, "elevation": 2759.0, "source": "osm", "_tags": {"ele": "2759", "name": "Stotzigen Firsten", "natural": "peak", "wikidata": "Q2352368"}}, {"name": "Gwächtenhorn", "latitude": 46.690836, "longitude": 8.413367, "elevation": 3420.0, "source": "osm", "_tags": {"ele": "3420", "name": "Gwächtenhorn", "natural": "peak", "wikidata": "Q669794"}}, {"name": "Wendenhorn", "latitude": 46.7539037, "longitude": 8.4435895, "elevation": 3023.0, "source": "osm", "_tags": {"ele": "3023", "name": "Wendenhorn", "natural": "peak", "wikidata": "Q43191"}}, {"name": "Hundstock", "latitude": 46.924544, "longitude": 8.6820609, "elevation": 2213.0, "source": "osm", "_tags": {"ele": "2213", "name": "Hundstock", "natural": "peak", "wikidata": "Q582739"}}, {"name": "Witenalpstock", "latitude": 46.735829, "longitude": 8.747587, "elevation": 3015.0, "source": "osm", "_tags": {"ele": "3015", "name": "Witenalpstock", "natural": "peak", "wikidata": "Q43313"}}, {"name": "Rophaien", "latitude": 46.9279619, "longitude": 8.6464455, "elevation": 2078.0, "source": "osm", "_tags": {"ele": "2078", "name": "Rophaien", "natural": "peak", "summit:cross": "yes", "summit:register": "yes", "wikidata": "Q2166266"}}, {"name": "Gross Ruchen", "latitude": 46.810142, "longitude": 8.774683, "elevation": 3138.0, "source": "osm", "_tags": {"ele": "3138", "name": "Gross Ruchen", "natural": "peak", "wikidata": "Q670246"}}, {"name": "Clariden", "latitude": 46.8420253, "longitude": 8.8712857, "elevation": 3267.0, "source": "osm", "_tags": {"alt_name": "Claridenstock", "ele": "3267", "name": "Clariden", "natural": "peak", "wikidata": "Q16649", "wikipedia": "de:Clariden"}}, {"name": "Gross-Schärhorn", "latitude": 46.827054, "longitude": 8.829251, "elevation": 3294.0, "source": "osm", "_tags": {"ele": "3294", "name": "Gross-Schärhorn", "natural": "peak", "wikidata": "Q16530"}}, {"name": "Gross Düssi", "latitude": 46.791653, "longitude": 8.827669, "elevation": 3256.0, "source": "osm", "_tags": {"ele": "3256", "name": "Gross Düssi", "name:de": "Gross Düssi", "name:rm": "Piz Git", "natural": "peak", "wikidata": "Q43340"}}, {"name": "Schwalmis", "latitude": 46.9185472, "longitude": 8.4935594, "elevation": 2246.0, "source": "osm", "_tags": {"ele": "2246", "name": "Schwalmis", "natural": "peak", "summit:cross": "yes", "wikidata": "Q136921"}}, {"name": "Spilauerstock", "latitude": 46.9155325, "longitude": 8.6976947, "elevation": 2269.0, "source": "osm", "_tags": {"ele": "2269", "name": "Spilauerstock", "natural": "peak", "wikidata": "Q1493303"}}, {"name": "Sustenhorn", "latitude": 46.6989203, "longitude": 8.4551989, "elevation": 3503.0, "source": "osm", "_tags": {"ele": "3503", "name": "Sustenhorn", "natural": "peak", "summit:cross": "yes", "wikidata": "Q16527", "wikipedia": "de:Sustenhorn"}}, {"name": "Sunniggratli", "latitude": 46.7838947, "longitude": 8.639387, "elevation": 2034.0, "source": "osm", "_tags": {"ele": "2034", "name": "Sunniggratli", "natural": "peak", "summit:cross": "yes", "summit:register": "yes", "wikidata": "Q2366559"}}, {"name": "Fulberg", "latitude": 46.9357806, "longitude": 8.5471978, "elevation": null, "source": "osm", "_tags": {"alt_name": "Faulberg", "name": "Fulberg", "natural": "peak", "wikidata": "Q22617467"}}, {"name": "Hombergegg", "latitude": 47.4293708, "longitude": 8.066237, "elevation": 778.0, "source": "osm", "_tags": {"ele": "778", "name": "Hombergegg", "natural": "peak", "wikidata": "Q22635573"}}, {"name": "Bostg", "latitude": 46.6904174, "longitude": 8.8010421, "elevation": 1995.0, "source": "osm", "_tags": {"ele": "1995", "name": "Bostg", "natural": "peak", "wikidata": "Q22580990"}}, {"name": "Tschingel", "latitude": 46.706616, "longitude": 8.0476611, "elevation": 2243.0, "source": "osm", "_tags": {"ele": "2243", "name": "Tschingel", "natural": "peak", "wikidata": "Q7849463"}}, {"name": "Mittaggüpfi", "latitude": 46.9717367, "longitude": 8.187336, "elevation": 1916.6, "source": "osm", "_tags": {"alt_name": "Gnepfstein", "ele": "1916.6", "name": "Mittaggüpfi", "natural": "peak", "wikidata": "Q43160"}}, {"name": "Gemsstock", "latitude": 46.6019794, "longitude": 8.6115218, "elevation": 2961.0, "source": "osm", "_tags": {"ele": "2961", "name": "Gemsstock", "natural": "peak", "wikidata": "Q3647486"}}, {"name": "Geissflue", "latitude": 47.4198633, "longitude": 7.9567464, "elevation": 963.0, "source": "osm", "_tags": {"ele": "963", "name": "Geissflue", "natural": "peak", "wikidata": "Q15239"}}, {"name": "Wyssnollen", "latitude": 46.5094014, "longitude": 8.0883016, "elevation": 3595.0, "source": "osm", "_tags": {"ele": "3595", "name": "Wyssnollen", "natural": "peak", "wikidata": "Q22641502"}}, {"name": "Furggelenstock", "latitude": 47.0385614, "longitude": 8.7329625, "elevation": 1655.0, "source": "osm", "_tags": {"ele": "1655", "name": "Furggelenstock", "natural": "peak", "summit:cross": "yes", "tourism": "viewpoint", "wikidata": "Q16651"}}, {"name": "Wetterhorn", "latitude": 46.6386662, "longitude": 8.1156037, "elevation": 3692.0, "source": "osm", "_tags": {"ele": "3692", "name": "Wetterhorn", "natural": "peak", "wikidata": "Q665089", "wikipedia": "de:Wetterhorn"}}, {"name": "Schinhorn", "latitude": 46.4517426, "longitude": 7.9463684, "elevation": 3796.0, "source": "osm", "_tags": {"ele": "3796", "name": "Schinhorn", "natural": "peak", "wikidata": "Q2608175", "wikipedia": "en:Schinhorn"}}, {"name": "Tschuggen", "latitude": 46.6002161, "longitude": 7.9495525, "elevation": 2520.0, "source": "osm", "_tags": {"ele": "2520", "name": "Tschuggen", "natural": "peak", "wikidata": "Q7849473"}}, {"name": "Geisshorn", "latitude": 46.4410316, "longitude": 8.0056316, "elevation": 3740.0, "source": "osm", "_tags": {"ele": "3740", "name": "Geisshorn", "natural": "peak", "wikidata": "Q2487049"}}, {"name": "Dreieckhorn", "latitude": 46.477941, "longitude": 8.0201572, "elevation": 3811.0, "source": "osm", "_tags": {"ele": "3811", "name": "Dreieckhorn", "name:de": "Dreieckhorn", "natural": "peak", "wikidata": "Q16668"}}, {"name": "Pazolastock", "latitude": 46.6477762, "longitude": 8.6581976, "elevation": 2739.0, "source": "osm", "_tags": {"ele": "2739", "name": "Pazolastock", "name:rm": "Piz Nurschalas", "natural": "peak", "wikidata": "Q22388175"}}, {"name": "Piz Tagliola", "latitude": 46.6199337, "longitude": 8.6764861, "elevation": null, "source": "osm", "_tags": {"name": "Piz Tagliola", "natural": "peak", "wikidata": "Q22389693"}}, {"name": "Piz Badus", "latitude": 46.62255, "longitude": 8.66358, "elevation": 2928.0, "source": "osm", "_tags": {"ele": "2928", "name": "Piz Badus", "natural": "peak", "wikidata": "Q16546"}}, {"name": "Albishorn", "latitude": 47.2510276, "longitude": 8.5446884, "elevation": 909.0, "source": "osm", "_tags": {"ele": "909", "name": "Albishorn", "natural": "peak", "wikidata": "Q22379988"}}, {"name": "Napf", "latitude": 47.0040019, "longitude": 7.9399419, "elevation": 1408.0, "source": "osm", "_tags": {"ele": "1408", "name": "Napf", "natural": "peak", "place": "locality", "wikidata": "Q15299"}}, {"name": "Hummel", "latitude": 47.0925626, "longitude": 8.769982, "elevation": 1423.0, "source": "osm", "_tags": {"alt_name": "Humel", "ele": "1423", "name": "Hummel", "natural": "peak", "wikidata": "Q22649622"}}, {"name": "Augstmatthorn", "latitude": 46.742241, "longitude": 7.9286179, "elevation": 2137.0, "source": "osm", "_tags": {"ele": "2137", "name": "Augstmatthorn", "natural": "peak", "wikidata": "Q760606", "wikipedia": "de:Augstmatthorn"}}, {"name": "Blasenhubel", "latitude": 46.7514767, "longitude": 7.9453154, "elevation": 1940.0, "source": "osm", "_tags": {"ele": "1940", "name": "Blasenhubel", "natural": "peak", "wikidata": "Q22565496"}}, {"name": "Ränfenhorn", "latitude": 46.6334938, "longitude": 8.1634878, "elevation": 3255.0, "source": "osm", "_tags": {"ele": "3255", "name": "Ränfenhorn", "natural": "peak", "wikidata": "Q22370851"}}, {"name": "Hangendgletscherhorn", "latitude": 46.6293812, "longitude": 8.1826206, "elevation": 3291.0, "source": "osm", "_tags": {"ele": "3291", "name": "Hangendgletscherhorn", "natural": "peak", "wikidata": "Q673878"}}, {"name": "Rosenhorn", "latitude": 46.6318799, "longitude": 8.1372459, "elevation": 3689.0, "source": "osm", "_tags": {"ele": "3689", "name": "Rosenhorn", "natural": "peak", "wikidata": "Q2488032"}}, {"name": "Rosenegg", "latitude": 46.6250292, "longitude": 8.1434236, "elevation": 3470.0, "source": "osm", "_tags": {"ele": "3470", "name": "Rosenegg", "natural": "peak", "wikidata": "Q22699017"}}, {"name": "Engelberger Rotstock", "latitude": 46.8536677, "longitude": 8.4978786, "elevation": 2818.0, "source": "osm", "_tags": {"ele": "2818", "name": "Engelberger Rotstock", "natural": "peak", "wikidata": "Q674622", "wikipedia": "de:Engelberger Rotstock"}}, {"name": "Wisner Flue", "latitude": 47.391268, "longitude": 7.8969288, "elevation": 935.0, "source": "osm", "_tags": {"ele": "935", "name": "Wisner Flue", "natural": "peak"}}, {"name": "Lauteraarhorn", "latitude": 46.5832664, "longitude": 8.128207, "elevation": 4042.0, "source": "osm", "_tags": {"ele": "4042", "name": "Lauteraarhorn", "natural": "peak", "wikidata": "Q30499"}}, {"name": "Kleines Schreckhorn", "latitude": 46.6017454, "longitude": 8.1020965, "elevation": 3495.0, "source": "osm", "_tags": {"ele": "3495", "name": "Kleines Schreckhorn", "name:de": "Kleines Schreckhorn", "natural": "peak", "wikidata": "Q3646177"}}, {"name": "Gwächta", "latitude": 46.6045834, "longitude": 8.0910469, "elevation": 3163.0, "source": "osm", "_tags": {"ele": "3163", "name": "Gwächta", "name:de": "Gwächta", "natural": "peak", "wikidata": "Q22657264"}}, {"name": "Dottenberg", "latitude": 47.3857946, "longitude": 7.9046896, "elevation": 940.0, "source": "osm", "_tags": {"ele": "940", "name": "Dottenberg", "natural": "peak", "wikidata": "Q22588202"}}, {"name": "", "latitude": 47.3838926, "longitude": 7.8914657, "elevation": 868.0, "source": "osm", "_tags": {"ele": "868", "natural": "peak"}}, {"name": "Spirstock", "latitude": 47.0010088, "longitude": 8.7723011, "elevation": 1771.0, "source": "osm", "_tags": {"ele": "1771", "name": "Spirstock", "natural": "peak", "place": "locality", "tourism": "viewpoint", "wikidata": "Q22570887"}}, {"name": "Fronalpstock", "latitude": 46.9682706, "longitude": 8.6373811, "elevation": 1920.0, "source": "osm", "_tags": {"ele": "1920", "name": "Fronalpstock", "natural": "peak", "summit:cross": "yes", "summit:register": "no", "wikidata": "Q235840"}}, {"name": "Stanserhorn", "latitude": 46.9297607, "longitude": 8.340371, "elevation": 1898.0, "source": "osm", "_tags": {"ele": "1898", "name": "Stanserhorn", "natural": "peak", "wikidata": "Q16613"}}, {"name": "Hochstuckli", "latitude": 47.0581819, "longitude": 8.6702493, "elevation": 1566.0, "source": "osm", "_tags": {"ele": "1566", "name": "Hochstuckli", "natural": "peak", "wikidata": "Q5875455"}}, {"name": "Esel", "latitude": 46.9791394, "longitude": 8.2561651, "elevation": 2119.0, "source": "osm", "_tags": {"ele": "2119", "name": "Esel", "natural": "peak", "tourism": "viewpoint", "wikidata": "Q22422137"}}, {"name": "Tomislochhöchi", "latitude": 47.1626872, "longitude": 8.7050541, "elevation": 1145.0, "source": "osm", "_tags": {"ele": "1145", "name": "Tomislochhöchi", "natural": "peak"}}, {"name": "Grosser Mythen", "latitude": 47.0298789, "longitude": 8.6885334, "elevation": 1898.0, "source": "osm", "_tags": {"ele": "1898", "name": "Grosser Mythen", "name:gsw": "Gross Miätä", "natural": "peak", "summit:cross": "yes", "tourism": "viewpoint", "wikidata": "Q91089913"}}, {"name": "Wasserbergfirst", "latitude": 46.9395531, "longitude": 8.7890346, "elevation": 2341.0, "source": "osm", "_tags": {"ele": "2341", "name": "Wasserbergfirst", "natural": "peak", "wikidata": "Q7972757"}}, {"name": "Hackenberg", "latitude": 47.4213441, "longitude": 8.6884361, "elevation": 548.0, "source": "osm", "_tags": {"ele": "548", "name": "Hackenberg", "natural": "peak"}}, {"name": "Krönten", "latitude": 46.7821966, "longitude": 8.5692763, "elevation": 3108.0, "source": "osm", "_tags": {"ele": "3108", "name": "Krönten", "natural": "peak", "wikidata": "Q674651"}}, {"name": "Widderfeld", "latitude": 46.9700506, "longitude": 8.2288823, "elevation": 2075.2, "source": "osm", "_tags": {"ele": "2075.2", "name": "Widderfeld", "natural": "peak", "wikidata": "Q7998512"}}, {"name": "Oberhaupt", "latitude": 46.9800559, "longitude": 8.2541259, "elevation": 2106.0, "source": "osm", "_tags": {"ele": "2106", "name": "Oberhaupt", "natural": "peak", "noexit": "yes", "wikidata": "Q22702066"}}, {"name": "Tschingel", "latitude": 46.7037874, "longitude": 8.1408246, "elevation": 2326.0, "source": "osm", "_tags": {"ele": "2326", "name": "Tschingel", "natural": "peak", "wikidata": "Q7849463"}}, {"name": "Pizzo Colombe", "latitude": 46.535893, "longitude": 8.7725976, "elevation": 2544.0, "source": "osm", "_tags": {"alt_name": "Campanitt", "ele": "2544", "name": "Pizzo Colombe", "natural": "peak", "wikidata": "Q22391442"}}, {"name": "Balmeregghorn", "latitude": 46.7531859, "longitude": 8.2834744, "elevation": 2255.0, "source": "osm", "_tags": {"ele": "2255", "name": "Balmeregghorn", "natural": "peak", "wikidata": "Q22507540"}}, {"name": "Josefsgütsch", "latitude": 47.2064985, "longitude": 8.568801, "elevation": null, "source": "osm", "_tags": {"name": "Josefsgütsch", "natural": "peak"}}, {"name": "Stollen", "latitude": 46.9394208, "longitude": 8.4874663, "elevation": 1678.0, "source": "osm", "_tags": {"ele": "1678", "name": "Stollen", "natural": "peak", "tourism": "viewpoint"}}, {"name": "Rigi Hochflue", "latitude": 47.0102309, "longitude": 8.5599324, "elevation": 1698.0, "source": "osm", "_tags": {"ele": "1698", "name": "Rigi Hochflue", "natural": "peak", "note": "höhe mit GPS messung bestimmt, 30 Minuten Mittelung verwendet", "summit:cross": "yes", "summit:register": "yes", "wikidata": "Q7333787"}}, {"name": "Oberberghorn", "latitude": 46.6591874, "longitude": 7.9137003, "elevation": 2069.0, "source": "osm", "_tags": {"ele": "2069", "name": "Oberberghorn", "natural": "peak", "tourism": "viewpoint", "wikidata": "Q22419426"}}, {"name": "Hinter Fiescherhorn", "latitude": 46.5464682, "longitude": 8.06756, "elevation": 4025.0, "source": "osm", "_tags": {"ele": "4025", "name": "Hinter Fiescherhorn", "natural": "peak", "wikidata": "Q30527", "wikipedia": "de:Hinter Fiescherhorn"}}, {"name": "Klein Grünhorn", "latitude": 46.5368964, "longitude": 8.0737765, "elevation": 3913.0, "source": "osm", "_tags": {"ele": "3913", "name": "Klein Grünhorn", "natural": "peak", "wikidata": "Q2608157"}}, {"name": "Gross Grünhorn", "latitude": 46.5320308, "longitude": 8.0777664, "elevation": 4043.0, "source": "osm", "_tags": {"ele": "4043", "name": "Gross Grünhorn", "natural": "peak", "wikidata": "Q30496"}}, {"name": "Grünegghorn", "latitude": 46.5267298, "longitude": 8.074774, "elevation": 3860.0, "source": "osm", "_tags": {"ele": "3860", "name": "Grünegghorn", "natural": "peak", "wikidata": "Q22651937"}}, {"name": "Rigidalstock", "latitude": 46.8522397, "longitude": 8.4194525, "elevation": 2593.0, "source": "osm", "_tags": {"ele": "2593", "name": "Rigidalstock", "natural": "peak", "wikidata": "Q3647465", "wikipedia": "de:Rigidalstock"}}, {"name": "", "latitude": 47.025237, "longitude": 8.7284571, "elevation": 1594.0, "source": "osm", "_tags": {"ele": "1594", "information": "guidepost", "natural": "peak", "tourism": "information"}}, {"name": "Brünnelistock", "latitude": 47.0265797, "longitude": 8.7266281, "elevation": 1598.0, "source": "osm", "_tags": {"ele": "1598", "name": "Brünnelistock", "natural": "peak", "wikidata": "Q22602392"}}, {"name": "Graustock", "latitude": 46.7878445, "longitude": 8.3683202, "elevation": 2662.0, "source": "osm", "_tags": {"ele": "2662", "name": "Graustock", "natural": "peak", "wikidata": "Q3115732"}}, {"name": "Baarburg", "latitude": 47.2049105, "longitude": 8.5548923, "elevation": 683.0, "source": "osm", "_tags": {"ele": "683", "name": "Baarburg", "natural": "peak", "wikidata": "Q797486", "wikipedia": "de:Baarburg"}}, {"name": "Risihorn", "latitude": 46.4629722, "longitude": 8.1544684, "elevation": 2875.0, "source": "osm", "_tags": {"ele": "2875", "name": "Risihorn", "natural": "peak", "wikidata": "Q7336101"}}, {"name": "Gross Aubrig", "latitude": 47.1114415, "longitude": 8.8820346, "elevation": 1695.0, "source": "osm", "_tags": {"ele": "1695", "name": "Gross Aubrig", "natural": "peak", "wikidata": "Q16535", "wikipedia": "de:Gross Aubrig"}}, {"name": "", "latitude": 47.1061956, "longitude": 8.8756231, "elevation": 1525.0, "source": "osm", "_tags": {"ele": "1525", "natural": "peak"}}, {"name": "Pfannenstiel", "latitude": 47.29231, "longitude": 8.6709782, "elevation": 853.0, "source": "osm", "_tags": {"ele": "853", "name": "Pfannenstiel", "name:gsw": "Pfannestil", "natural": "peak", "note": "gps ref 693212/238666", "wikidata": "Q15283"}}, {"name": "", "latitude": 47.0510186, "longitude": 8.7976112, "elevation": 1240.0, "source": "osm", "_tags": {"ele": "1240", "natural": "peak"}}, {"name": "Rotstock", "latitude": 46.5773918, "longitude": 7.9841818, "elevation": 2663.0, "source": "osm", "_tags": {"ele": "2663", "name": "Rotstock", "natural": "peak", "wikidata": "Q22467635"}}, {"name": "Trugberg", "latitude": 46.5466199, "longitude": 8.0153807, "elevation": 3932.0, "source": "osm", "_tags": {"ele": "3932", "name": "Trugberg", "name:de": "Trugberg", "natural": "peak", "wikidata": "Q674692", "wikipedia": "de:Trugberg"}}, {"name": "Louwihorn", "latitude": 46.5268874, "longitude": 7.9692767, "elevation": 3773.0, "source": "osm", "_tags": {"ele": "3773", "name": "Louwihorn", "name:de": "Louwihorn", "natural": "peak", "wikidata": "Q22585358"}}, {"name": "Kranzberg", "latitude": 46.5220948, "longitude": 7.980681, "elevation": 3742.0, "source": "osm", "_tags": {"ele": "3742", "name": "Kranzberg", "natural": "peak", "wikidata": "Q6436133"}}, {"name": "Schwarzmönch", "latitude": 46.552714, "longitude": 7.9243476, "elevation": 2645.0, "source": "osm", "_tags": {"ele": "2645", "name": "Schwarzmönch", "natural": "peak", "wikidata": "Q7433211"}}, {"name": "Schönbühlhorn", "latitude": 46.4981768, "longitude": 8.0913621, "elevation": 3854.0, "source": "osm", "_tags": {"ele": "3854", "name": "Schönbühlhorn", "natural": "peak", "wikidata": "Q7433331"}}, {"name": "Geissflue", "latitude": 47.3762168, "longitude": 7.8882858, "elevation": 813.0, "source": "osm", "_tags": {"ele": "813", "name": "Geissflue", "natural": "peak", "summit:cross": "yes", "summit:register": "no", "wikidata": "Q1251505"}}, {"name": "Chappelerberg", "latitude": 47.1249952, "longitude": 8.4344135, "elevation": 680.0, "source": "osm", "_tags": {"ele": "680", "name": "Chappelerberg", "natural": "peak"}}, {"name": "Michaelskreuz", "latitude": 47.1146478, "longitude": 8.4173566, "elevation": 795.0, "source": "osm", "_tags": {"ele": "795", "name": "Michaelskreuz", "natural": "peak"}}, {"name": "", "latitude": 47.1305208, "longitude": 8.4468539, "elevation": 517.0, "source": "osm", "_tags": {"ele": "517", "natural": "peak"}}, {"name": "Etzel", "latitude": 47.1774769, "longitude": 8.7676073, "elevation": 1098.0, "source": "osm", "_tags": {"ele": "1098", "name": "Etzel", "natural": "peak", "tourism": "viewpoint", "wikidata": "Q16656", "wikipedia": "de:Etzel (Berg)"}}, {"name": "Kleines Wannenhorn", "latitude": 46.4831533, "longitude": 8.1046797, "elevation": 3706.0, "source": "osm", "_tags": {"ele": "3706", "name": "Kleines Wannenhorn", "natural": "peak", "wikidata": "Q22442554"}}, {"name": "Adlisberg", "latitude": 47.370556, "longitude": 8.5918189, "elevation": 701.0, "source": "osm", "_tags": {"ele": "701", "name": "Adlisberg", "natural": "peak", "wikidata": "Q358573", "wikimedia_commons": "Category:Adlisberg", "wikipedia": "de:Adlisberg"}}, {"name": "Chilchhorn", "latitude": 46.4836042, "longitude": 8.3942502, "elevation": 2784.0, "source": "osm", "_tags": {"alt_name": "Chilchliturm", "ele": "2784", "name": "Chilchhorn", "natural": "peak", "summit:cross": "no"}}, {"name": "Pizzo Lucendro", "latitude": 46.5389057, "longitude": 8.5195359, "elevation": 2963.0, "source": "osm", "_tags": {"ele": "2963", "name": "Pizzo Lucendro", "natural": "peak", "summit:cross": "yes", "wikidata": "Q2250387", "wikipedia": "it:Pizzo Lucendro"}}, {"name": "", "latitude": 46.5062048, "longitude": 8.1801501, "elevation": 3495.0, "source": "osm", "_tags": {"ele": "3495", "natural": "peak"}}, {"name": "Heji Zwächte", "latitude": 46.5047394, "longitude": 8.2109096, "elevation": 3086.0, "source": "osm", "_tags": {"ele": "3086", "name": "Heji Zwächte", "natural": "peak", "wikidata": "Q5451865"}}, {"name": "Gross Chastelhorn", "latitude": 46.4965339, "longitude": 8.2201595, "elevation": 2842.0, "source": "osm", "_tags": {"ele": "2842", "name": "Gross Chastelhorn", "natural": "peak", "wikidata": "Q22650432"}}, {"name": "Heitersberg", "latitude": 47.3916266, "longitude": 8.3610575, "elevation": 787.0, "source": "osm", "_tags": {"ele": "787", "name": "Heitersberg", "natural": "peak", "wikidata": "Q428947", "wikipedia": "de:Heitersberg"}}, {"name": "Sännenberg", "latitude": 47.4300915, "longitude": 8.3258404, "elevation": 702.0, "source": "osm", "_tags": {"ele": "702", "fixme": "resurvey exact position and correct name (Schreibweise mir unklar!)", "name": "Sännenberg", "natural": "peak", "source": "knowledge"}}, {"name": "Geissfluegrat", "latitude": 47.4229005, "longitude": 7.9647675, "elevation": 908.0, "source": "osm", "_tags": {"description": "Höchster Punkt vom Kanton Aargau", "ele": "908", "name": "Geissfluegrat", "natural": "peak"}}, {"name": "Suhrerchopf", "latitude": 47.3742216, "longitude": 8.0728105, "elevation": 465.0, "source": "osm", "_tags": {"ele": "465", "name": "Suhrerchopf", "natural": "peak"}}, {"name": "Dirrengrind", "latitude": 46.7794613, "longitude": 8.036079, "elevation": 1850.0, "source": "osm", "_tags": {"ele": "1850", "name": "Dirrengrind", "natural": "peak", "tourism": "viewpoint", "wikidata": "Q22633533"}}, {"name": "Täschehorn", "latitude": 46.4725746, "longitude": 8.1610457, "elevation": 3008.0, "source": "osm", "_tags": {"ele": "3008", "name": "Täschehorn", "natural": "peak", "wikidata": "Q22379274"}}, {"name": "Ritzihorn", "latitude": 46.487444, "longitude": 8.1968241, "elevation": 2891.0, "source": "osm", "_tags": {"ele": "2891", "name": "Ritzihorn", "natural": "peak", "wikidata": "Q3647544"}}, {"name": "Oberaarhorn", "latitude": 46.5314515, "longitude": 8.1745239, "elevation": 3629.0, "source": "osm", "_tags": {"ele": "3629", "name": "Oberaarhorn", "natural": "peak", "wikidata": "Q2575012", "wikipedia": "en:Oberaarhorn"}}, {"name": "Tieralplistock", "latitude": 46.6330169, "longitude": 8.3752691, "elevation": 3383.0, "source": "osm", "_tags": {"ele": "3383", "name": "Tieralplistock", "natural": "peak", "wikidata": "Q2717286"}}, {"name": "Klein Furkahorn", "latitude": 46.5858817, "longitude": 8.4064391, "elevation": 3026.0, "source": "osm", "_tags": {"ele": "3026", "name": "Klein Furkahorn", "natural": "peak", "wikidata": "Q43409", "wikipedia": "de:Klein Furkahorn"}}, {"name": "Klein Mythen", "latitude": 47.040683, "longitude": 8.6847527, "elevation": 1810.0, "source": "osm", "_tags": {"ele": "1810", "name": "Klein Mythen", "natural": "peak", "wikidata": "Q8539332"}}, {"name": "Haggenspitz", "latitude": 47.0437501, "longitude": 8.6865183, "elevation": 1762.0, "source": "osm", "_tags": {"ele": "1762", "name": "Haggenspitz", "natural": "peak", "wikidata": "Q22585623"}}, {"name": "Klingenstock", "latitude": 46.9574304, "longitude": 8.6745766, "elevation": 1935.0, "source": "osm", "_tags": {"ele": "1935", "name": "Klingenstock", "natural": "peak", "wikidata": "Q5102838"}}, {"name": "Ewigschneehorn", "latitude": 46.5968831, "longitude": 8.1686918, "elevation": 3329.0, "source": "osm", "_tags": {"ele": "3329", "name": "Ewigschneehorn", "natural": "peak", "ref:camptocamp": "37334", "source": "WMS camptocamp", "wikidata": "Q3498367"}}, {"name": "Ankenbälli", "latitude": 46.6116, "longitude": 8.1460557, "elevation": 3601.0, "source": "osm", "_tags": {"ele": "3601", "name": "Ankenbälli", "natural": "peak"}}, {"name": "Hubelhorn", "latitude": 46.5855858, "longitude": 8.2062783, "elevation": 3244.0, "source": "osm", "_tags": {"ele": "3244", "name": "Hubelhorn", "natural": "peak", "source": "WMS camptocamp", "wikidata": "Q22648041"}}, {"name": "Hiendertelltihorn", "latitude": 46.6002044, "longitude": 8.2369842, "elevation": 3179.0, "source": "osm", "_tags": {"ele": "3179", "name": "Hiendertelltihorn", "natural": "peak", "ref:camptocamp": "41632", "wikidata": "Q3646172"}}, {"name": "Gross Diamantstock", "latitude": 46.5923337, "longitude": 8.24337, "elevation": 3162.0, "source": "osm", "_tags": {"ele": "3162", "name": "Gross Diamantstock", "natural": "peak", "ref:camptocamp": "39712", "source": "WMS camptocamp", "wikidata": "Q459140", "wikipedia": "de:Grosser Diamantstock"}}, {"name": "Gräfimattnollen", "latitude": 46.8781084, "longitude": 8.3284282, "elevation": 2034.0, "source": "osm", "_tags": {"ele": "2034", "name": "Gräfimattnollen", "natural": "peak", "wikidata": "Q22652014"}}, {"name": "Arnihaggen", "latitude": 46.7903972, "longitude": 8.0723058, "elevation": 2216.0, "source": "osm", "_tags": {"ele": "2216", "name": "Arnihaggen", "natural": "peak", "wikidata": "Q18378087"}}, {"name": "Chestenberg", "latitude": 47.4255013, "longitude": 8.1943996, "elevation": 645.0, "source": "osm", "_tags": {"ele": "645", "name": "Chestenberg", "natural": "peak", "tourism": "viewpoint", "wikidata": "Q1070651"}}, {"name": "Nual", "latitude": 46.6507622, "longitude": 8.7530841, "elevation": 2387.0, "source": "osm", "_tags": {"ele": "2387", "name": "Nual", "natural": "peak", "wikidata": "Q22401595"}}, {"name": "Piz Cavradi", "latitude": 46.631034, "longitude": 8.6939712, "elevation": 2612.0, "source": "osm", "_tags": {"ele": "2612", "name": "Piz Cavradi", "natural": "peak", "wikidata": "Q7199826"}}, {"name": "Chli Aubrig", "latitude": 47.1075506, "longitude": 8.8621776, "elevation": 1642.0, "source": "osm", "_tags": {"ele": "1642", "historic": "wayside_cross", "name": "Chli Aubrig", "natural": "peak", "wikidata": "Q16887785", "wikipedia": "en:Chli Aubrig"}}, {"name": "Widderfeldstock", "latitude": 46.8336908, "longitude": 8.3325632, "elevation": 2351.0, "source": "osm", "_tags": {"ele": "2351", "name": "Widderfeldstock", "natural": "peak", "wikidata": "Q43257"}}, {"name": "Grosshorn", "latitude": 46.4869759, "longitude": 7.9100788, "elevation": 3754.0, "source": "osm", "_tags": {"ele": "3754", "name": "Grosshorn", "natural": "peak", "wikidata": "Q2537804"}}, {"name": "Gletscherhorn", "latitude": 46.5128743, "longitude": 7.9674301, "elevation": 3983.0, "source": "osm", "_tags": {"ele": "3983", "name": "Gletscherhorn", "name:ja": "グレッチャーホルン", "natural": "peak", "wikidata": "Q674403"}}, {"name": "Walcherhorn", "latitude": 46.5599876, "longitude": 8.0350273, "elevation": 3693.0, "source": "osm", "_tags": {"ele": "3693", "name": "Walcherhorn", "natural": "peak", "wikidata": "Q22440697"}}, {"name": "Grosses Fiescherhorn", "latitude": 46.5514079, "longitude": 8.0607641, "elevation": 4048.8, "source": "osm", "_tags": {"ele": "4048.8", "name": "Grosses Fiescherhorn", "name:ru": "Гросс-Фишерхорн", "natural": "peak", "wikidata": "Q30495", "wikipedia": "de:Gross Fiescherhorn"}}, {"name": "Finsteraarhorn", "latitude": 46.5373468, "longitude": 8.1261135, "elevation": 4274.0, "source": "osm", "_tags": {"ele": "4274", "name": "Finsteraarhorn", "natural": "peak", "prominence": "2274", "source": "GPS survey 17.4.2010", "source:prominence": "4274-2000 (Col beside Simplon Pass)", "wikidata": "Q15127", "wikipedia": "de:Finsteraarhorn"}}, {"name": "Studerhorn", "latitude": 46.5330285, "longitude": 8.1469325, "elevation": 3638.0, "source": "osm", "_tags": {"ele": "3638", "name": "Studerhorn", "natural": "peak", "wikidata": "Q3500926"}}, {"name": "Agassizhorn", "latitude": 46.5465677, "longitude": 8.1141679, "elevation": 3953.0, "source": "osm", "_tags": {"ele": "3953", "name": "Agassizhorn", "natural": "peak", "note": "will hopefully renamed in Rentyhorn http://rentyhorn.ch/", "wikidata": "Q176101"}}, {"name": "Gross Sidelhorn", "latitude": 46.5409019, "longitude": 8.2852256, "elevation": 2879.0, "source": "osm", "_tags": {"ele": "2879", "name": "Gross Sidelhorn", "natural": "peak", "wikidata": "Q22702720"}}, {"name": "Sidelhorn", "latitude": 46.5524785, "longitude": 8.3127092, "elevation": 2764.4, "source": "osm", "_tags": {"ele": "2764.4", "name": "Sidelhorn", "natural": "peak", "summit:cross": "yes", "summit:register": "yes", "wikidata": "Q670269"}}, {"name": "Sattelhorn", "latitude": 46.4675527, "longitude": 7.9643129, "elevation": 3744.0, "source": "osm", "_tags": {"ele": "3744", "name": "Sattelhorn", "name:de": "Sattelhorn", "natural": "peak", "wikidata": "Q2698609", "wikipedia": "it:Sattelhorn"}}, {"name": "Kleines Aletschhorn", "latitude": 46.4675351, "longitude": 7.9765008, "elevation": 3755.0, "source": "osm", "_tags": {"ele": "3755", "name": "Kleines Aletschhorn", "natural": "peak", "wikidata": "Q22543512"}}, {"name": "Ebnefluh / Äbeni Flue", "latitude": 46.5080341, "longitude": 7.9533714, "elevation": 3962.0, "source": "osm", "_tags": {"ele": "3962", "name": "Ebnefluh / Äbeni Flue", "natural": "peak", "wikidata": "Q186186"}}, {"name": "Rhônestock", "latitude": 46.633259, "longitude": 8.4203051, "elevation": 3589.0, "source": "osm", "_tags": {"ele": "3589", "name": "Rhônestock", "natural": "peak", "wikidata": "Q680921"}}, {"name": "Gross Furkahorn", "latitude": 46.5965885, "longitude": 8.4101958, "elevation": 3169.0, "source": "osm", "_tags": {"ele": "3169", "name": "Gross Furkahorn", "natural": "peak", "wikidata": "Q43398", "wikipedia": "de:Gross Furkahorn"}}, {"name": "Rotstöckli", "latitude": 46.7776149, "longitude": 8.4256895, "elevation": 2901.0, "source": "osm", "_tags": {"ele": "2901", "name": "Rotstöckli", "natural": "peak", "note": "culminant point of Kanton Nidwald", "wikidata": "Q15140"}}, {"name": "Hochstollen", "latitude": 46.7733856, "longitude": 8.2385179, "elevation": 2481.0, "source": "osm", "_tags": {"ele": "2481", "name": "Hochstollen", "natural": "peak", "wikidata": "Q5875451"}}, {"name": "Haupt", "latitude": 46.7871223, "longitude": 8.2529421, "elevation": 2313.0, "source": "osm", "_tags": {"ele": "2313", "name": "Haupt", "natural": "peak", "wikidata": "Q5682760"}}, {"name": "Rotsandnollen", "latitude": 46.8005972, "longitude": 8.3439543, "elevation": 2700.0, "source": "osm", "_tags": {"ele": "2700", "name": "Rotsandnollen", "natural": "peak", "wikidata": "Q1150350"}}, {"name": "Zürichberg", "latitude": 47.3856804, "longitude": 8.5668775, "elevation": 676.0, "source": "osm", "_tags": {"ele": "676", "name": "Zürichberg", "natural": "peak", "wikidata": "Q248667", "wikipedia": "de:Zürichberg"}}, {"name": "Hagleren", "latitude": 46.8363615, "longitude": 8.0424054, "elevation": 1949.0, "source": "osm", "_tags": {"ele": "1949", "name": "Hagleren", "natural": "peak", "wikidata": "Q5638754"}}, {"name": "Miesenstock", "latitude": 46.8720632, "longitude": 8.0963787, "elevation": 1895.0, "source": "osm", "_tags": {"ele": "1895", "name": "Miesenstock", "natural": "peak", "wikidata": "Q22507961"}}, {"name": "Buochserhorn", "latitude": 46.9455424, "longitude": 8.4285958, "elevation": 1806.0, "source": "osm", "_tags": {"ele": "1806", "man_made": "cross", "name": "Buochserhorn", "natural": "peak", "source": "Wikipedia", "summit:cross": "yes", "summit:register": "yes", "wikidata": "Q1010079", "wikipedia": "de:Buochserhorn"}}, {"name": "Schibengütsch", "latitude": 46.8139953, "longitude": 7.9479324, "elevation": 2037.0, "source": "osm", "_tags": {"ele": "2037", "name": "Schibengütsch", "name:alt": "Schibegütsch", "natural": "peak", "source": "Wikipedia.de, Landsat", "wikidata": "Q1669406", "wikipedia": "de:Schibengütsch"}}, {"name": "Strick", "latitude": 46.8565031, "longitude": 7.9873698, "elevation": 1946.0, "source": "osm", "_tags": {"ele": "1946", "name": "Strick", "natural": "peak", "source": "wikipedia.de, Landsat", "wikidata": "Q22699320"}}, {"name": "Calmut", "latitude": 46.659097, "longitude": 8.6842925, "elevation": 2310.0, "source": "osm", "_tags": {"ele": "2310", "name": "Calmut", "natural": "peak", "source": "survey", "summit:cross": "yes", "summit:register": "no", "wikidata": "Q22384866"}}, {"name": "Föisc", "latitude": 46.5330981, "longitude": 8.6681004, "elevation": 2208.0, "source": "osm", "_tags": {"ele": "2208", "name": "Föisc", "natural": "peak", "summit:cross": "yes", "wikidata": "Q22619980"}}, {"name": "Pian Alto", "latitude": 46.5382518, "longitude": 8.666245, "elevation": 2239.0, "source": "osm", "_tags": {"ele": "2239", "name": "Pian Alto", "natural": "peak", "wikidata": "Q22537641"}}, {"name": "Samstageren", "latitude": 47.1119253, "longitude": 8.7077526, "elevation": 1379.0, "source": "osm", "_tags": {"alt_name": "Samstagern", "ele": "1379", "name": "Samstageren", "natural": "peak", "wikidata": "Q22403068"}}, {"name": "Faulhorn", "latitude": 46.6749329, "longitude": 7.9993238, "elevation": 2680.0, "source": "osm", "_tags": {"ele": "2680", "name": "Faulhorn", "natural": "peak", "wikidata": "Q674769", "wikipedia": "de:Faulhorn"}}, {"name": "Witenwasserenstock", "latitude": 46.5285837, "longitude": 8.4736375, "elevation": 3082.0, "source": "osm", "_tags": {"ele": "3082", "name": "Witenwasserenstock", "natural": "peak", "wikidata": "Q43446", "wikipedia": "de:Witenwasserenstock"}}, {"name": "Rottällihorn", "latitude": 46.5434952, "longitude": 8.4652547, "elevation": 2912.0, "source": "osm", "_tags": {"ele": "2912", "name": "Rottällihorn", "natural": "peak", "wikidata": "Q22467888"}}, {"name": "Gärsten-Hörner", "latitude": 46.5981083, "longitude": 8.3613756, "elevation": 3189.0, "source": "osm", "_tags": {"ele": "3189", "name": "Gärsten-Hörner", "natural": "peak", "wikidata": "Q920863"}}, {"name": "Tiefenstock", "latitude": 46.6278293, "longitude": 8.4216367, "elevation": 3515.0, "source": "osm", "_tags": {"ele": "3515", "name": "Tiefenstock", "natural": "peak", "wikidata": "Q678180"}}, {"name": "Gross Leckihorn", "latitude": 46.5358101, "longitude": 8.4642985, "elevation": 3068.0, "source": "osm", "_tags": {"ele": "3068", "name": "Gross Leckihorn", "natural": "peak"}}, {"name": "Hohhoren", "latitude": 46.5817273, "longitude": 8.3548248, "elevation": 2771.0, "source": "osm", "_tags": {"ele": "2771", "name": "Hohhoren", "natural": "peak", "wikidata": "Q22632110"}}, {"name": "Gross Muttenhorn", "latitude": 46.5465378, "longitude": 8.4271815, "elevation": 3099.0, "source": "osm", "_tags": {"ele": "3099", "name": "Gross Muttenhorn", "natural": "peak", "summit:cross": "yes", "wikidata": "Q690552"}}, {"name": "Ronggergrat", "latitude": 46.5351638, "longitude": 8.5012997, "elevation": 2725.0, "source": "osm", "_tags": {"ele": "2725", "name": "Ronggergrat", "natural": "peak", "wikidata": "Q22461163"}}, {"name": "Hundwileren", "latitude": 47.1278441, "longitude": 8.7115017, "elevation": 1194.0, "source": "osm", "_tags": {"ele": "1194", "name": "Hundwileren", "natural": "peak", "summit:cross": "yes", "wikidata": "Q22649991"}}, {"name": "", "latitude": 47.1224926, "longitude": 8.7649097, "elevation": 1115.0, "source": "osm", "_tags": {"ele": "1115", "natural": "peak", "tourism": "viewpoint"}}, {"name": "Rotstock", "latitude": 46.4353651, "longitude": 8.0014181, "elevation": 3699.0, "source": "osm", "_tags": {"ele": "3699", "name": "Rotstock", "natural": "peak", "wikidata": "Q7370631"}}, {"name": "Vorderes Geisshorn", "latitude": 46.4515692, "longitude": 8.0009743, "elevation": 3634.0, "source": "osm", "_tags": {"ele": "3634", "name": "Vorderes Geisshorn", "natural": "peak", "wikidata": "Q22430758"}}, {"name": "", "latitude": 46.5801795, "longitude": 8.4104179, "elevation": 2814.0, "source": "osm", "_tags": {"ele": "2814", "natural": "peak"}}, {"name": "Tällistock", "latitude": 46.5517346, "longitude": 8.4012664, "elevation": 2861.0, "source": "osm", "_tags": {"ele": "2861", "name": "Tällistock", "natural": "peak", "old_name": "Dällisstock", "wikidata": "Q22379197", "wikipedia": "de:Tällistock (2861 m)"}}, {"name": "", "latitude": 46.5461592, "longitude": 8.4240269, "elevation": null, "source": "osm", "_tags": {"natural": "peak"}}, {"name": "", "latitude": 46.553856, "longitude": 8.3997489, "elevation": 2802.0, "source": "osm", "_tags": {"ele": "2802", "natural": "peak"}}, {"name": "Furkastock", "latitude": 46.5754109, "longitude": 8.4125694, "elevation": 2665.0, "source": "osm", "_tags": {"ele": "2665", "name": "Furkastock", "natural": "peak", "wikidata": "Q22618997"}}, {"name": "", "latitude": 46.5541077, "longitude": 8.424044, "elevation": 2904.0, "source": "osm", "_tags": {"ele": "2904", "natural": "peak"}}, {"name": "Blauberg", "latitude": 46.5665299, "longitude": 8.4191759, "elevation": 2768.0, "source": "osm", "_tags": {"ele": "2768", "name": "Blauberg", "natural": "peak", "wikidata": "Q22565655"}}, {"name": "Diethelm", "latitude": 47.0616657, "longitude": 8.8833458, "elevation": 2099.0, "source": "osm", "_tags": {"ele": "2099", "name": "Diethelm", "natural": "peak", "summit:cross": "yes"}}, {"name": "", "latitude": 47.0855751, "longitude": 8.7407662, "elevation": 1467.0, "source": "osm", "_tags": {"ele": "1467", "natural": "peak"}}, {"name": "Ufem Tritt", "latitude": 47.1023436, "longitude": 8.7431237, "elevation": 1323.0, "source": "osm", "_tags": {"ele": "1323", "historic": "wayside_cross", "name": "Ufem Tritt", "natural": "peak", "tourism": "viewpoint"}}, {"name": "Amselspitz", "latitude": 47.0892366, "longitude": 8.7428388, "elevation": 1491.0, "source": "osm", "_tags": {"ele": "1491", "name": "Amselspitz", "natural": "peak", "summit:cross": "yes", "tourism": "viewpoint", "wikidata": "Q22407626"}}, {"name": "", "latitude": 47.0973769, "longitude": 8.7431757, "elevation": 1403.0, "source": "osm", "_tags": {"ele": "1403", "natural": "peak", "tourism": "viewpoint"}}, {"name": "Vogelherd", "latitude": 47.1290758, "longitude": 8.7638208, "elevation": 974.0, "source": "osm", "_tags": {"ele": "974", "name": "Vogelherd", "natural": "peak", "tourism": "viewpoint", "wikidata": "Q22428176"}}, {"name": "Spital", "latitude": 47.0800012, "longitude": 8.7669869, "elevation": 1574.0, "source": "osm", "_tags": {"ele": "1574", "name": "Spital", "natural": "peak", "summit:cross": "yes", "tourism": "viewpoint", "wikidata": "Q22570947"}}, {"name": "Gschwändstock West", "latitude": 47.0633632, "longitude": 8.7474033, "elevation": 1614.0, "source": "osm", "_tags": {"ele": "1614", "name": "Gschwändstock West", "natural": "peak", "wikidata": "Q22652078"}}, {"name": "", "latitude": 47.0651192, "longitude": 8.7548431, "elevation": null, "source": "osm", "_tags": {"natural": "peak"}}, {"name": "Bergseeschijen", "latitude": 46.6637196, "longitude": 8.4857748, "elevation": 2816.0, "source": "osm", "_tags": {"ele": "2816", "name": "Bergseeschijen", "natural": "peak", "wikidata": "Q22396476"}}, {"name": "Nässihorn", "latitude": 46.5945974, "longitude": 8.1111842, "elevation": 3741.0, "source": "osm", "_tags": {"ele": "3741", "name": "Nässihorn", "natural": "peak", "wikidata": "Q22410678"}}, {"name": "Scheideggwetterhorn", "latitude": 46.6450289, "longitude": 8.1105229, "elevation": 3361.0, "source": "osm", "_tags": {"ele": "3361", "name": "Scheideggwetterhorn", "natural": "peak", "wikidata": "Q22442513"}}, {"name": "Homberg", "latitude": 47.280255, "longitude": 8.1815395, "elevation": 787.0, "source": "osm", "_tags": {"ele": "787", "name": "Homberg", "natural": "peak", "wikidata": "Q24037837"}}, {"name": "Mittlerer Höhenberg", "latitude": 46.6688789, "longitude": 8.5357782, "elevation": null, "source": "osm", "_tags": {"name": "Mittlerer Höhenberg", "natural": "peak"}}, {"name": "Meiggelenstock", "latitude": 46.6841045, "longitude": 8.5671726, "elevation": 2416.0, "source": "osm", "_tags": {"ele": "2416", "name": "Meiggelenstock", "natural": "peak", "wikidata": "Q22492229"}}, {"name": "Acheberg", "latitude": 47.4275581, "longitude": 8.0449872, "elevation": 710.0, "source": "osm", "_tags": {"ele": "710", "name": "Acheberg", "natural": "peak"}}, {"name": "Wasserflue", "latitude": 47.4300663, "longitude": 8.0244909, "elevation": 844.0, "source": "osm", "_tags": {"ele": "844", "name": "Wasserflue", "natural": "peak", "summit:cross": "no", "summit:register": "yes", "wikidata": "Q7972759"}}, {"name": "Gugen", "latitude": 47.4058848, "longitude": 7.976297, "elevation": null, "source": "osm", "_tags": {"name": "Gugen", "natural": "peak"}}, {"name": "Stellichopf", "latitude": 47.4309917, "longitude": 7.9616651, "elevation": null, "source": "osm", "_tags": {"name": "Stellichopf", "natural": "peak", "wikidata": "Q22390868"}}, {"name": "Leutschenberg", "latitude": 47.4128283, "longitude": 7.9368333, "elevation": 925.0, "source": "osm", "_tags": {"ele": "925", "name": "Leutschenberg", "natural": "peak", "wikidata": "Q22418604"}}, {"name": "Höch Tändli", "latitude": 47.0839385, "longitude": 8.6966047, "elevation": 1523.0, "source": "osm", "_tags": {"ele": "1523", "name": "Höch Tändli", "natural": "peak", "summit:cross": "yes", "summit:register": "yes", "wikidata": "Q22444123"}}, {"name": "Chli Tändli", "latitude": 47.0785129, "longitude": 8.6954283, "elevation": 1483.0, "source": "osm", "_tags": {"ele": "1483", "name": "Chli Tändli", "natural": "peak", "summit:cross": "yes", "summit:register": "no"}}, {"name": "Zingel", "latitude": 46.9227251, "longitude": 8.5197901, "elevation": 1905.0, "source": "osm", "_tags": {"ele": "1905", "information": "guidepost", "name": "Zingel", "natural": "peak", "tourism": "information", "wikidata": "Q22657369"}}, {"name": "Regenflüeli", "latitude": 46.9907692, "longitude": 8.2041727, "elevation": 1582.0, "source": "osm", "_tags": {"ele": "1582", "name": "Regenflüeli", "natural": "peak", "summit:cross": "yes", "wikidata": "Q22593575"}}, {"name": "Studberg", "latitude": 46.9863788, "longitude": 8.2021401, "elevation": 1603.0, "source": "osm", "_tags": {"ele": "1603", "name": "Studberg", "natural": "peak", "wikidata": "Q22699399"}}, {"name": "Brudelhorn", "latitude": 46.4676991, "longitude": 8.311145, "elevation": 2791.0, "source": "osm", "_tags": {"ele": "2791", "man_made": "summit_cross", "name": "Brudelhorn", "natural": "peak", "wikidata": "Q22600676"}}, {"name": "", "latitude": 47.0879053, "longitude": 8.7640836, "elevation": 1448.0, "source": "osm", "_tags": {"ele": "1448", "natural": "peak"}}, {"name": "Bürglen", "latitude": 47.2575984, "longitude": 8.5373809, "elevation": 915.0, "source": "osm", "_tags": {"ele": "915", "name": "Bürglen", "natural": "peak", "wikidata": "Q8537747"}}, {"name": "Schnabel", "latitude": 47.2632305, "longitude": 8.5333335, "elevation": 861.0, "source": "osm", "_tags": {"ele": "861", "name": "Schnabel", "natural": "peak"}}, {"name": "Hengst", "latitude": 46.9567731, "longitude": 8.6892167, "elevation": 1890.0, "source": "osm", "_tags": {"ele": "1890", "name": "Hengst", "natural": "peak", "wikidata": "Q22616526"}}, {"name": "Stäfeliflue", "latitude": 46.9647127, "longitude": 8.1646359, "elevation": 1922.0, "source": "osm", "_tags": {"ele": "1922", "name": "Stäfeliflue", "natural": "peak", "wikidata": "Q7629909"}}, {"name": "Huser Stock", "latitude": 46.9619875, "longitude": 8.6502479, "elevation": 1904.0, "source": "osm", "_tags": {"ele": "1904", "image": "https://upload.wikimedia.org/wikipedia/commons/d/da/1904-Huserstock.jpg", "name": "Huser Stock", "natural": "peak", "wikidata": "Q22651525"}}, {"name": "Schongütsch", "latitude": 46.7889137, "longitude": 8.0366016, "elevation": 2319.0, "source": "osm", "_tags": {"ele": "2319", "name": "Schongütsch", "natural": "peak", "source": "survey", "wikidata": "Q22546110"}}, {"name": "", "latitude": 47.1180599, "longitude": 8.7198723, "elevation": 1239.0, "source": "osm", "_tags": {"ele": "1239", "natural": "peak"}}, {"name": "Schartihöreli", "latitude": 46.8986075, "longitude": 8.5684445, "elevation": 1692.0, "source": "osm", "_tags": {"ele": "1692", "name": "Schartihöreli", "natural": "peak", "summit:cross": "yes", "wikidata": "Q22441788"}}, {"name": "Rickhubel", "latitude": 46.894878, "longitude": 8.0899854, "elevation": 1943.0, "source": "osm", "_tags": {"ele": "1943", "name": "Rickhubel", "natural": "peak", "summit:cross": "yes", "summit:register": "yes", "wikidata": "Q22379801"}}, {"name": "Giswilerstock", "latitude": 46.8153442, "longitude": 8.1144978, "elevation": 1940.0, "source": "osm", "_tags": {"ele": "1940", "name": "Giswilerstock", "natural": "peak", "note": "Giswilerstock war beim Stockkreuz eingetragen, obwohl sich der Name auf die ganze Kette bezieht laut Landeskarte.", "wikidata": "Q22645327"}}, {"name": "Simelihorn", "latitude": 46.6678288, "longitude": 8.007438, "elevation": 2749.0, "source": "osm", "_tags": {"ele": "2749", "name": "Simelihorn", "natural": "peak", "wikidata": "Q22627158"}}, {"name": "Esel", "latitude": 46.6680176, "longitude": 8.0033693, "elevation": 2687.0, "source": "osm", "_tags": {"ele": "2687", "name": "Esel", "natural": "peak", "wikidata": "Q22422097"}}, {"name": "Grossenegg", "latitude": 46.6733457, "longitude": 8.0417619, "elevation": null, "source": "osm", "_tags": {"name": "Grossenegg", "natural": "peak", "wikidata": "Q22650695"}}, {"name": "Gassenhorn", "latitude": 46.6771325, "longitude": 8.0141881, "elevation": null, "source": "osm", "_tags": {"name": "Gassenhorn", "natural": "peak", "wikidata": "Q22630531"}}, {"name": "Reeti", "latitude": 46.6649424, "longitude": 8.0115401, "elevation": 2757.0, "source": "osm", "_tags": {"ele": "2757", "name": "Reeti", "natural": "peak", "wikidata": "Q7307030"}}, {"name": "Gemschberg", "latitude": 46.6767207, "longitude": 8.077512, "elevation": null, "source": "osm", "_tags": {"name": "Gemschberg", "natural": "peak"}}, {"name": "Gärstenhoren", "latitude": 46.692641, "longitude": 8.0589922, "elevation": 2798.0, "source": "osm", "_tags": {"alt_name": "Gärstenhorn", "ele": "2798", "name": "Gärstenhoren", "natural": "peak", "wikidata": "Q22583872"}}, {"name": "Gibel", "latitude": 46.7703261, "longitude": 8.1898324, "elevation": 2035.8, "source": "osm", "_tags": {"ele": "2035.8", "name": "Gibel", "natural": "peak", "wikidata": "Q22639846"}}, {"name": "Klewenstock", "latitude": 46.9334728, "longitude": 8.4782273, "elevation": 1748.0, "source": "osm", "_tags": {"ele": "1748", "name": "Klewenstock", "natural": "peak", "wikidata": "Q22543793"}}, {"name": "Pfannenstöckli", "latitude": 47.0212181, "longitude": 8.8368722, "elevation": 1855.0, "source": "osm", "_tags": {"ele": "1855", "name": "Pfannenstöckli", "natural": "peak", "wikidata": "Q22535256"}}, {"name": "Piet", "latitude": 47.0373637, "longitude": 8.8411584, "elevation": 1965.0, "source": "osm", "_tags": {"alt_name": "Biet", "ele": "1965", "name": "Piet", "natural": "peak", "source": "local knowledge", "summit:cross": "yes", "wikidata": "Q16841628"}}, {"name": "Twäriberg", "latitude": 47.0125537, "longitude": 8.8351379, "elevation": 2117.0, "source": "osm", "_tags": {"ele": "2117", "fixme": "ungenaue lage", "name": "Twäriberg", "natural": "peak", "summit:cross": "yes", "wikidata": "Q22376570"}}, {"name": "Glatten", "latitude": 46.8813269, "longitude": 8.8593372, "elevation": 2505.0, "source": "osm", "_tags": {"ele": "2505", "name": "Glatten", "natural": "peak", "wikidata": "Q5567246"}}, {"name": "Laucherenstöckli", "latitude": 47.0048878, "longitude": 8.7658154, "elevation": 1753.0, "source": "osm", "_tags": {"ele": "1753", "name": "Laucherenstöckli", "natural": "peak", "summit:cross": "yes", "wikidata": "Q22371997"}}, {"name": "Gitschen", "latitude": 46.8772222, "longitude": 8.575, "elevation": 2513.0, "source": "osm", "_tags": {"ele": "2513", "name": "Gitschen", "natural": "peak", "wikidata": "Q1527723"}}, {"name": "Rohrerplatte", "latitude": 47.4177747, "longitude": 7.9587707, "elevation": 928.0, "source": "osm", "_tags": {"ele": "928", "name": "Rohrerplatte", "natural": "peak"}}, {"name": "Ramsflue", "latitude": 47.4218182, "longitude": 7.9998926, "elevation": 704.0, "source": "osm", "_tags": {"ele": "704", "name": "Ramsflue", "natural": "peak"}}, {"name": "Piz Ault", "latitude": 46.728314, "longitude": 8.7819878, "elevation": 3027.0, "source": "osm", "_tags": {"ele": "3027", "name": "Piz Ault", "natural": "peak", "wikidata": "Q6979957"}}, {"name": "Forstberg", "latitude": 47.0008649, "longitude": 8.8236952, "elevation": 2215.0, "source": "osm", "_tags": {"ele": "2215", "name": "Forstberg", "natural": "peak", "summit:cross": "yes", "wikidata": "Q22493562"}}, {"name": "Chronenstock", "latitude": 46.9307312, "longitude": 8.7365694, "elevation": 2451.0, "source": "osm", "_tags": {"ele": "2451", "name": "Chronenstock", "natural": "peak", "wikidata": "Q22499133"}}, {"name": "Blüemberg", "latitude": 46.9321158, "longitude": 8.7389467, "elevation": 2405.0, "source": "osm", "_tags": {"ele": "2405", "name": "Blüemberg", "natural": "peak", "wikidata": "Q22578974"}}, {"name": "Piz Cazarauls", "latitude": 46.8129233, "longitude": 8.8770244, "elevation": 3063.0, "source": "osm", "_tags": {"ele": "3063", "name": "Piz Cazarauls", "natural": "peak", "wikidata": "Q6979227", "wikipedia": "en:Piz Cazarauls"}}, {"name": "Hiltiberg", "latitude": 47.4300941, "longitude": 8.2960706, "elevation": 471.0, "source": "osm", "_tags": {"ele": "471", "name": "Hiltiberg", "natural": "peak"}}, {"name": "", "latitude": 47.4300942, "longitude": 8.2960705, "elevation": null, "source": "osm", "_tags": {"natural": "peak"}}, {"name": "Chammliberg", "latitude": 46.8367762, "longitude": 8.8449973, "elevation": 3215.0, "source": "osm", "_tags": {"ele": "3215", "name": "Chammliberg", "natural": "peak", "wikidata": "Q5069830"}}, {"name": "Gummen", "latitude": 46.902885, "longitude": 8.3660347, "elevation": 1613.0, "source": "osm", "_tags": {"ele": "1613", "name": "Gummen", "natural": "peak", "wikidata": "Q22655469"}}, {"name": "Grätli", "latitude": 46.8956496, "longitude": 8.7479668, "elevation": 2186.0, "source": "osm", "_tags": {"ele": "2186", "name": "Grätli", "natural": "peak"}}, {"name": "Höch Pfaffen", "latitude": 46.8950326, "longitude": 8.7653776, "elevation": 2459.0, "source": "osm", "_tags": {"ele": "2459", "name": "Höch Pfaffen", "natural": "peak", "wikidata": "Q22444099"}}, {"name": "Rorspitzli", "latitude": 46.6905267, "longitude": 8.5227488, "elevation": 3220.0, "source": "osm", "_tags": {"ele": "3220", "name": "Rorspitzli", "natural": "peak", "wikidata": "Q7366845"}}, {"name": "Uratstock", "latitude": 46.7548349, "longitude": 8.4351509, "elevation": 2911.0, "source": "osm", "_tags": {"ele": "2911", "name": "Uratstock", "natural": "peak", "wikidata": "Q22397872"}}, {"name": "Wichelplanggstock", "latitude": 46.7656321, "longitude": 8.4727259, "elevation": 2974.0, "source": "osm", "_tags": {"ele": "2974", "name": "Wichelplanggstock", "natural": "peak", "wikidata": "Q7998097"}}, {"name": "Grassen", "latitude": 46.763417, "longitude": 8.4484381, "elevation": 2946.0, "source": "osm", "_tags": {"ele": "2946", "name": "Grassen", "natural": "peak", "wikidata": "Q43219"}}, {"name": "Chli Spannort", "latitude": 46.7807025, "longitude": 8.518276, "elevation": 3140.0, "source": "osm", "_tags": {"ele": "3140", "name": "Chli Spannort", "natural": "peak", "wikidata": "Q3646315"}}, {"name": "Zwächten", "latitude": 46.7763433, "longitude": 8.5366327, "elevation": 3080.0, "source": "osm", "_tags": {"ele": "3080", "name": "Zwächten", "natural": "peak", "wikidata": "Q22659187"}}, {"name": "Bächenstock", "latitude": 46.7679588, "longitude": 8.5366584, "elevation": 3011.0, "source": "osm", "_tags": {"ele": "3011", "name": "Bächenstock", "natural": "peak", "wikidata": "Q22369158"}}, {"name": "Bloseberg", "latitude": 47.1866211, "longitude": 8.176329, "elevation": 805.0, "source": "osm", "_tags": {"ele": "805", "name": "Bloseberg", "natural": "peak"}}, {"name": "Sonnenberg", "latitude": 47.0401273, "longitude": 8.2507414, "elevation": 800.0, "source": "osm", "_tags": {"ele": "800", "name": "Sonnenberg", "natural": "peak", "wikidata": "Q2301829"}}, {"name": "Wildspitz", "latitude": 47.1629306, "longitude": 8.69579, "elevation": 1205.0, "source": "osm", "_tags": {"ele": "1205", "name": "Wildspitz", "natural": "peak", "wikidata": "Q22617338"}}, {"name": "Tällistock", "latitude": 46.7454337, "longitude": 8.3248777, "elevation": 2579.0, "source": "osm", "_tags": {"ele": "2579", "name": "Tällistock", "natural": "peak", "wikidata": "Q22379160"}}, {"name": "Forcella", "latitude": 46.4920089, "longitude": 8.4194746, "elevation": 2845.0, "source": "osm", "_tags": {"ele": "2845", "name": "Forcella", "natural": "peak", "wikidata": "Q22490745"}}, {"name": "Piccolo Corno Gries", "latitude": 46.4520846, "longitude": 8.3874083, "elevation": 2930.0, "source": "osm", "_tags": {"ele": "2930", "name": "Piccolo Corno Gries", "name:de": "Klein Grieshorn", "name:it": "Piccolo Corno Gries", "natural": "peak", "wikidata": "Q8528304", "wikipedia": "it:Piccolo Corno Gries"}}, {"name": "Wellhorn", "latitude": 46.6556604, "longitude": 8.142049, "elevation": 3191.4, "source": "osm", "_tags": {"ele": "3191.4", "name": "Wellhorn", "natural": "peak", "wikidata": "Q6980428"}}, {"name": "Mährenhorn", "latitude": 46.6917757, "longitude": 8.3108777, "elevation": 2923.0, "source": "osm", "_tags": {"ele": "2923", "name": "Mährenhorn", "natural": "peak", "wikidata": "Q3647534"}}, {"name": "Gross Wendenstock", "latitude": 46.7615882, "longitude": 8.3803305, "elevation": 3042.0, "source": "osm", "_tags": {"ele": "3042", "name": "Gross Wendenstock", "natural": "peak"}}, {"name": "Cima di Lago", "latitude": 46.466556, "longitude": 8.5092395, "elevation": 2833.0, "source": "osm", "_tags": {"ele": "2833", "name": "Cima di Lago", "natural": "peak", "wikidata": "Q22503611"}}, {"name": "Grindelgrat", "latitude": 46.6991374, "longitude": 8.1274854, "elevation": 2392.0, "source": "osm", "_tags": {"ele": "2392", "name": "Grindelgrat", "natural": "peak", "wikidata": "Q22649428"}}, {"name": "Giglistock", "latitude": 46.7095852, "longitude": 8.3864346, "elevation": 2898.0, "source": "osm", "_tags": {"ele": "2898", "name": "Giglistock", "natural": "peak", "wikidata": "Q3647271"}}, {"name": "Barglen / Schiben", "latitude": 46.7965589, "longitude": 8.3321641, "elevation": 2669.0, "source": "osm", "_tags": {"ele": "2669", "name": "Barglen / Schiben", "natural": "peak"}}, {"name": "Hüenerstock", "latitude": 46.532185, "longitude": 8.4836987, "elevation": 2889.0, "source": "osm", "_tags": {"ele": "2889", "name": "Hüenerstock", "natural": "peak", "wikidata": "Q22652420"}}, {"name": "Pizzo Pesciora", "latitude": 46.5245567, "longitude": 8.4773817, "elevation": 3120.0, "source": "osm", "_tags": {"ele": "3120", "name": "Pizzo Pesciora", "natural": "peak", "wikidata": "Q3906005", "wikipedia": "it:Pizzo Pesciora"}}, {"name": "Mittaghorn (Nufenen)", "latitude": 46.4963441, "longitude": 8.3854543, "elevation": 3015.0, "source": "osm", "_tags": {"ele": "3015", "name": "Mittaghorn (Nufenen)", "natural": "peak", "wikidata": "Q1551321"}}, {"name": "Golegghorn", "latitude": 46.6154783, "longitude": 8.2499844, "elevation": 3077.0, "source": "osm", "_tags": {"ele": "3077", "name": "Golegghorn", "natural": "peak", "wikidata": "Q22362427"}}, {"name": "Storegghorn", "latitude": 46.8468621, "longitude": 8.3279828, "elevation": 1872.0, "source": "osm", "_tags": {"alt_name": "Lachenhörnli", "ele": "1872", "name": "Storegghorn", "natural": "peak"}}, {"name": "Klein Wellhorn", "latitude": 46.6653983, "longitude": 8.1505884, "elevation": 2730.0, "source": "osm", "_tags": {"ele": "2730", "name": "Klein Wellhorn", "natural": "peak", "wikidata": "Q6420182"}}, {"name": "Poncione di Manió", "latitude": 46.4968497, "longitude": 8.4359625, "elevation": 2925.0, "source": "osm", "_tags": {"ele": "2925", "name": "Poncione di Manió", "natural": "peak", "wikidata": "Q7227638"}}, {"name": "Punta di Elgio / Helgenhorn", "latitude": 46.4585869, "longitude": 8.4149299, "elevation": 2837.0, "source": "osm", "_tags": {"ele": "2837", "name": "Punta di Elgio / Helgenhorn", "name:de": "Helgenhorn", "name:it": "Punta di Elgio", "name:wae": "Elschuhore", "natural": "peak", "wikidata": "Q31658351"}}, {"name": "Pfaffenhuet", "latitude": 46.7587221, "longitude": 8.3742157, "elevation": 3009.0, "source": "osm", "_tags": {"ele": "3009", "name": "Pfaffenhuet", "natural": "peak", "wikidata": "Q22535178"}}, {"name": "Pizzo Cristallina", "latitude": 46.4647333, "longitude": 8.5367972, "elevation": 2911.0, "source": "osm", "_tags": {"ele": "2911", "name": "Pizzo Cristallina", "natural": "peak", "wikidata": "Q2354368", "wikipedia": "it:Pizzo Cristallina"}}, {"name": "Corno Gries / Grieshorn", "latitude": 46.4516482, "longitude": 8.3929012, "elevation": 2969.0, "source": "osm", "_tags": {"ele": "2969", "name": "Corno Gries / Grieshorn", "name:de": "Grieshorn", "name:it": "Corno Gries", "name:wae": "Grieshore", "natural": "peak", "wikidata": "Q5608715", "wikipedia": "it:Corno Gries"}}, {"name": "Vorder Tierberg", "latitude": 46.6983876, "longitude": 8.3974234, "elevation": 3090.0, "source": "osm", "_tags": {"ele": "3090", "name": "Vorder Tierberg", "natural": "peak", "wikidata": "Q22430440"}}, {"name": "Fünffingerstöck", "latitude": 46.7526888, "longitude": 8.4366458, "elevation": 2994.0, "source": "osm", "_tags": {"ele": "2994", "name": "Fünffingerstöck", "natural": "peak", "wikidata": "Q22619765"}}, {"name": "Reissend Nollen", "latitude": 46.7664775, "longitude": 8.4009086, "elevation": 3003.0, "source": "osm", "_tags": {"ele": "3003", "name": "Reissend Nollen", "natural": "peak", "wikidata": "Q1410213"}}, {"name": "Poncione di Vallegia", "latitude": 46.4652147, "longitude": 8.4991907, "elevation": 2873.0, "source": "osm", "_tags": {"ele": "2873", "name": "Poncione di Vallegia", "natural": "peak"}}, {"name": "Pizzo Nero", "latitude": 46.4925233, "longitude": 8.410997, "elevation": 2904.0, "source": "osm", "_tags": {"ele": "2904", "name": "Pizzo Nero", "natural": "peak", "wikidata": "Q7200026"}}, {"name": "Wildgärst", "latitude": 46.6927695, "longitude": 8.0743627, "elevation": 2890.0, "source": "osm", "_tags": {"ele": "2890", "name": "Wildgärst", "natural": "peak", "wikidata": "Q8001261"}}, {"name": "Mittler Tierberg", "latitude": 46.6916378, "longitude": 8.3988398, "elevation": 3418.0, "source": "osm", "_tags": {"ele": "3418", "name": "Mittler Tierberg", "natural": "peak", "wikidata": "Q22528834"}}, {"name": "Huetstock", "latitude": 46.8114923, "longitude": 8.3319318, "elevation": 2676.0, "source": "osm", "_tags": {"alt_name": "Wild Geissberg", "ele": "2676", "name": "Huetstock", "natural": "peak", "wikidata": "Q43268"}}, {"name": "Chüebodenhorn", "latitude": 46.5081516, "longitude": 8.453105, "elevation": 3070.0, "source": "osm", "_tags": {"ele": "3070", "name": "Chüebodenhorn", "natural": "peak", "wikidata": "Q1452097", "wikipedia": "it:Chüebodenhorn"}}, {"name": "Dossen", "latitude": 46.648686, "longitude": 8.163126, "elevation": 3138.0, "source": "osm", "_tags": {"ele": "3138", "name": "Dossen", "natural": "peak", "wikidata": "Q3647622"}}, {"name": "Gwächtenhorn", "latitude": 46.6569979, "longitude": 8.3468951, "elevation": 3214.0, "source": "osm", "_tags": {"alt_name": "Gelmer", "ele": "3214", "name": "Gwächtenhorn", "name:de": "Gwächtenhorn", "natural": "peak", "wikidata": "Q669794"}}, {"name": "Blashorn", "latitude": 46.4999434, "longitude": 8.3706236, "elevation": 2779.0, "source": "osm", "_tags": {"ele": "2779", "name": "Blashorn", "natural": "peak", "wikidata": "Q22565515"}}, {"name": "Planplatten", "latitude": 46.7367058, "longitude": 8.2552238, "elevation": 2245.0, "source": "osm", "_tags": {"ele": "2245", "name": "Planplatten", "natural": "peak", "wikidata": "Q7201449", "wikipedia": "en:Planplatten"}}, {"name": "Ruchstock", "latitude": 46.8563615, "longitude": 8.4708884, "elevation": 2818.0, "source": "osm", "_tags": {"ele": "2818", "name": "Ruchstock", "natural": "peak", "wikidata": "Q2410351", "wikipedia": "de:Ruchstock"}}, {"name": "Laucherenstock", "latitude": 46.854961, "longitude": 8.4585029, "elevation": 2639.0, "source": "osm", "_tags": {"ele": "2639", "name": "Laucherenstock", "natural": "peak", "wikidata": "Q15057368", "wikipedia": "de:Laucherenstock"}}, {"name": "Wissigstock", "latitude": 46.8454436, "longitude": 8.5068988, "elevation": 2887.0, "source": "osm", "_tags": {"ele": "2887", "name": "Wissigstock", "natural": "peak", "summit:cross": "no", "summit:register": "yes", "wikidata": "Q16708", "wikipedia": "de:Wissigstock"}}, {"name": "Chaiserstuel", "latitude": 46.8771802, "longitude": 8.467902, "elevation": 2400.0, "source": "osm", "_tags": {"ele": "2400", "name": "Chaiserstuel", "natural": "peak", "wikidata": "Q15793855"}}, {"name": "Oberberg", "latitude": 46.857231, "longitude": 8.4799482, "elevation": 2782.0, "source": "osm", "_tags": {"ele": "2782", "name": "Oberberg", "natural": "peak", "wikidata": "Q22419384"}}, {"name": "Chienberg", "latitude": 47.4073776, "longitude": 7.909048, "elevation": 789.0, "source": "osm", "_tags": {"ele": "789", "name": "Chienberg", "natural": "peak"}}, {"name": "", "latitude": 46.7827112, "longitude": 8.626809, "elevation": 2204.0, "source": "osm", "_tags": {"ele": "2204", "natural": "peak"}}, {"name": "Rooterberg", "latitude": 47.1112529, "longitude": 8.4125807, "elevation": 831.0, "source": "osm", "_tags": {"ele": "831", "name": "Rooterberg", "natural": "peak", "wikidata": "Q7366599"}}, {"name": "Roggenstock", "latitude": 47.0232849, "longitude": 8.7898428, "elevation": 1777.0, "source": "osm", "_tags": {"ele": "1777", "name": "Roggenstock", "natural": "peak", "summit:cross": "yes", "tourism": "viewpoint", "wikidata": "Q16899430"}}, {"name": "Bälmeten", "latitude": 46.8311716, "longitude": 8.680519, "elevation": 2414.0, "source": "osm", "_tags": {"ele": "2414", "name": "Bälmeten", "natural": "peak", "wikidata": "Q1018976", "wikipedia": "de:Bälmeten"}}, {"name": "Uf Spitzen", "latitude": 46.6574627, "longitude": 8.0291616, "elevation": null, "source": "osm", "_tags": {"name": "Uf Spitzen", "natural": "peak", "wikidata": "Q22381210"}}, {"name": "Bättelmatthorn / Punta dei Camosci", "latitude": 46.441499, "longitude": 8.3509768, "elevation": 3044.0, "source": "osm", "_tags": {"alt_name": "Punta dei Camosci", "ele": "3044", "name": "Bättelmatthorn / Punta dei Camosci", "name:de": "Bättelmatthorn", "name:it": "Punta dei Camosci", "natural": "peak", "summit:cross": "yes", "tourism": "viewpoint", "wikidata": "Q9182903"}}, {"name": "Rosenhöchi", "latitude": 47.0891255, "longitude": 8.8715517, "elevation": 1510.0, "source": "osm", "_tags": {"ele": "1510", "name": "Rosenhöchi", "natural": "peak", "wikidata": "Q22464112"}}, {"name": "Schlimperg", "latitude": 47.4310445, "longitude": 8.6815478, "elevation": 551.0, "source": "osm", "_tags": {"ele": "551", "name": "Schlimperg", "natural": "peak"}}, {"name": "Holziberg", "latitude": 47.4282944, "longitude": 8.6811296, "elevation": 543.0, "source": "osm", "_tags": {"ele": "543", "name": "Holziberg", "natural": "peak"}}, {"name": "Tänenberg", "latitude": 47.425268, "longitude": 8.6801031, "elevation": 542.0, "source": "osm", "_tags": {"ele": "542", "name": "Tänenberg", "natural": "peak"}}, {"name": "Birchen", "latitude": 47.4294875, "longitude": 8.6777294, "elevation": 551.0, "source": "osm", "_tags": {"ele": "551", "name": "Birchen", "natural": "peak"}}, {"name": "Rappenhalden", "latitude": 47.4228803, "longitude": 8.6991455, "elevation": null, "source": "osm", "_tags": {"name": "Rappenhalden", "natural": "peak"}}, {"name": "Mittaghorn", "latitude": 46.4982065, "longitude": 7.9326579, "elevation": 3892.0, "source": "osm", "_tags": {"ele": "3892", "name": "Mittaghorn", "name:ja": "ミッタークホルン", "natural": "peak", "wikidata": "Q674459"}}, {"name": "Oberaarrothhorn", "latitude": 46.5203934, "longitude": 8.1806699, "elevation": 3477.0, "source": "osm", "_tags": {"ele": "3477.0", "name": "Oberaarrothhorn", "natural": "peak", "wikidata": "Q3130318"}}, {"name": "Löffelhorn", "latitude": 46.5268751, "longitude": 8.2371036, "elevation": 3095.0, "source": "osm", "_tags": {"ele": "3095", "name": "Löffelhorn", "natural": "peak", "wikidata": "Q6711347"}}, {"name": "Geschinerstock", "latitude": 46.5294428, "longitude": 8.2580618, "elevation": 2856.0, "source": "osm", "_tags": {"ele": "2856", "name": "Geschinerstock", "natural": "peak", "wikidata": "Q22638280"}}, {"name": "Uelistock", "latitude": 46.5350061, "longitude": 8.2699433, "elevation": 2890.0, "source": "osm", "_tags": {"ele": "2890", "name": "Uelistock", "natural": "peak", "wikidata": "Q22380697"}}, {"name": "Mönch", "latitude": 46.558496, "longitude": 7.9972688, "elevation": 4107.0, "source": "osm", "_tags": {"ele": "4107", "name": "Mönch", "name:en": "Moench", "name:ja": "メンヒ", "name:ja-Hira": "めんひ", "name:zh": "僧侣峰", "natural": "peak", "prominence": "589", "source:prominence": "4107-3518 (Unners Mönchsjoch)", "wikidata": "Q16525", "wikipedia": "de:Mönch (Berg)"}}, {"name": "Strahlegghorn", "latitude": 46.575503, "longitude": 8.1180364, "elevation": 3461.0, "source": "osm", "_tags": {"ele": "3461", "name": "Strahlegghorn", "natural": "peak", "wikidata": "Q22412622"}}, {"name": "Hienderstock", "latitude": 46.586537, "longitude": 8.2182101, "elevation": 3307.0, "source": "osm", "_tags": {"ele": "3307", "name": "Hienderstock", "natural": "peak", "wikidata": "Q3646961"}}, {"name": "Bächlistock", "latitude": 46.5865887, "longitude": 8.2395209, "elevation": 3247.0, "source": "osm", "_tags": {"ele": "3247", "name": "Bächlistock", "natural": "peak", "wikidata": "Q3652847"}}, {"name": "Schreckhorn", "latitude": 46.5898822, "longitude": 8.1181948, "elevation": 4078.0, "source": "osm", "_tags": {"ele": "4078", "name": "Schreckhorn", "natural": "peak", "prominence": "795", "source:prominence": "4078-3283 (Finsteraarjoch)", "wikidata": "Q16539", "wikipedia": "de:Schreckhorn"}}, {"name": "Trifthorn", "latitude": 46.5918726, "longitude": 8.1780821, "elevation": 3230.0, "source": "osm", "_tags": {"ele": "3230", "name": "Trifthorn", "natural": "peak", "wikidata": "Q3539131"}}, {"name": "Hinter Gärstenhorn", "latitude": 46.6017862, "longitude": 8.3618932, "elevation": 3070.0, "source": "osm", "_tags": {"ele": "3070", "name": "Hinter Gärstenhorn", "natural": "peak", "wikidata": "Q22627349"}}, {"name": "", "latitude": 46.6098425, "longitude": 8.3684089, "elevation": null, "source": "osm", "_tags": {"natural": "peak"}}, {"name": "", "latitude": 46.6118442, "longitude": 8.2480707, "elevation": 3063.2, "source": "osm", "_tags": {"ele": "3063.2", "natural": "peak"}}, {"name": "Bärglistock", "latitude": 46.614996, "longitude": 8.1407328, "elevation": 3655.0, "source": "osm", "_tags": {"ele": "3655", "name": "Bärglistock", "natural": "peak", "source": "SWISSTOPO", "wikidata": "Q3652844"}}, {"name": "Steinlauihorn", "latitude": 46.6178418, "longitude": 8.2546365, "elevation": 3162.0, "source": "osm", "_tags": {"ele": "3162", "name": "Steinlauihorn", "natural": "peak", "wikidata": "Q7606913"}}, {"name": "Schlaflägerstöck", "latitude": 46.6472495, "longitude": 8.2428306, "elevation": 2855.0, "source": "osm", "_tags": {"ele": "2855", "name": "Schlaflägerstöck", "natural": "peak"}}, {"name": "Wysse Nollen", "latitude": 46.6540503, "longitude": 8.398973, "elevation": 3398.0, "source": "osm", "_tags": {"ele": "3398", "name": "Wysse Nollen", "natural": "peak", "wikidata": "Q22702645"}}, {"name": "", "latitude": 46.6568744, "longitude": 8.2303473, "elevation": 2727.0, "source": "osm", "_tags": {"ele": "2727", "natural": "peak"}}, {"name": "Strahlhorn", "latitude": 46.6584749, "longitude": 8.3433146, "elevation": 3156.0, "source": "osm", "_tags": {"ele": "3156", "name": "Strahlhorn", "name:de": "Strahlhorn", "natural": "peak", "wikidata": "Q7620958", "wikipedia": "en:Strahlhorn (Fieschertal)"}}, {"name": "Bättlerhorn", "latitude": 46.6625736, "longitude": 8.2294813, "elevation": 2535.0, "source": "osm", "_tags": {"ele": "2535", "name": "Bättlerhorn", "natural": "peak", "wikidata": "Q22369929"}}, {"name": "Glogghüs", "latitude": 46.6710437, "longitude": 8.2308843, "elevation": 2135.1, "source": "osm", "_tags": {"ele": "2135.1", "name": "Glogghüs", "natural": "peak", "wikidata": "Q136844"}}, {"name": "Grosses Engelhorn", "latitude": 46.6720967, "longitude": 8.1799824, "elevation": 2782.0, "source": "osm", "_tags": {"ele": "2782", "name": "Grosses Engelhorn", "natural": "peak", "wikidata": "Q5610578"}}, {"name": "Chlys Engelhorn", "latitude": 46.677452, "longitude": 8.1850748, "elevation": 2643.0, "source": "osm", "_tags": {"ele": "2643", "name": "Chlys Engelhorn", "natural": "peak", "wikidata": "Q22496277"}}, {"name": "Hohjegiburg", "latitude": 46.6807768, "longitude": 8.1862468, "elevation": 2639.0, "source": "osm", "_tags": {"ele": "2639", "name": "Hohjegiburg", "natural": "peak", "wikidata": "Q22632127"}}, {"name": "Tennhorn", "latitude": 46.6840419, "longitude": 8.1884338, "elevation": 2519.0, "source": "osm", "_tags": {"ele": "2519", "name": "Tennhorn", "natural": "peak", "wikidata": "Q22475959"}}, {"name": "", "latitude": 46.6855738, "longitude": 8.3145579, "elevation": null, "source": "osm", "_tags": {"natural": "peak"}}, {"name": "Schrybershiri", "latitude": 46.6879925, "longitude": 8.0852302, "elevation": 2516.0, "source": "osm", "_tags": {"ele": "2516", "name": "Schrybershiri", "natural": "peak"}}, {"name": "Bänzlouwistock", "latitude": 46.6925541, "longitude": 8.2779725, "elevation": 2529.0, "source": "osm", "_tags": {"ele": "2529", "name": "Bänzlouwistock", "natural": "peak"}}, {"name": "Graustock", "latitude": 46.6933592, "longitude": 8.2980724, "elevation": 2689.0, "source": "osm", "_tags": {"ele": "2689", "name": "Graustock", "natural": "peak", "wikidata": "Q22418742"}}, {"name": "Brunnenstock", "latitude": 46.6945684, "longitude": 8.2914198, "elevation": 2522.0, "source": "osm", "_tags": {"ele": "2522", "name": "Brunnenstock", "natural": "peak", "wikidata": "Q22601304"}}, {"name": "", "latitude": 46.695972, "longitude": 8.2841177, "elevation": null, "source": "osm", "_tags": {"natural": "peak"}}, {"name": "Tannhorn", "latitude": 46.7749903, "longitude": 7.9845705, "elevation": 2221.0, "source": "osm", "_tags": {"ele": "2221", "name": "Tannhorn", "natural": "peak", "wikidata": "Q870038", "wikipedia": "de:Tannhorn"}}, {"name": "Chli Leckihorn", "latitude": 46.5337387, "longitude": 8.4672381, "elevation": 3024.0, "source": "osm", "_tags": {"ele": "3024", "name": "Chli Leckihorn", "natural": "peak", "wikidata": "Q1766795"}}, {"name": "Stotzigi Muttenhorn", "latitude": 46.537606, "longitude": 8.4437616, "elevation": 3062.0, "source": "osm", "_tags": {"ele": "3062", "name": "Stotzigi Muttenhorn", "natural": "peak"}}, {"name": "Rotstock", "latitude": 46.58272, "longitude": 8.61156, "elevation": 2950.0, "source": "osm", "_tags": {"ele": "2950", "name": "Rotstock", "natural": "peak", "wikidata": "Q22467686"}}, {"name": "Sidelenhorn", "latitude": 46.5995221, "longitude": 8.4076331, "elevation": 3217.0, "source": "osm", "_tags": {"ele": "3217", "name": "Sidelenhorn", "natural": "peak", "wikidata": "Q43181", "wikipedia": "de:Sidelenhorn"}}, {"name": "Graue Wand 3172m", "latitude": 46.6202682, "longitude": 8.4449137, "elevation": null, "source": "osm", "_tags": {"name": "Graue Wand 3172m", "natural": "peak"}}, {"name": "Winterstock", "latitude": 46.6203164, "longitude": 8.4542118, "elevation": 3203.0, "source": "osm", "_tags": {"ele": "3203", "name": "Winterstock", "natural": "peak", "wikidata": "Q6981225"}}, {"name": "3083", "latitude": 46.6209432, "longitude": 8.4495625, "elevation": null, "source": "osm", "_tags": {"name": "3083", "natural": "peak"}}, {"name": "Eggstock", "latitude": 46.652196, "longitude": 8.4182208, "elevation": 3556.0, "source": "osm", "_tags": {"ele": "3556", "name": "Eggstock", "natural": "peak", "wikidata": "Q3049174"}}, {"name": "Schneehüenerstock", "latitude": 46.6718961, "longitude": 8.6556257, "elevation": 2773.0, "source": "osm", "_tags": {"alt_name": "Unghürstöckli", "ele": "2773", "name": "Schneehüenerstock", "natural": "peak", "wikidata": "Q1674683"}}, {"name": "Piz Tiarms", "latitude": 46.6770565, "longitude": 8.6736964, "elevation": 2918.0, "source": "osm", "_tags": {"ele": "2918", "name": "Piz Tiarms", "natural": "peak", "wikidata": "Q22389797"}}, {"name": "Giuvstöckli", "latitude": 46.6941788, "longitude": 8.6862819, "elevation": 3060.0, "source": "osm", "_tags": {"ele": "3060", "name": "Giuvstöckli", "natural": "peak", "wikidata": "Q22645586"}}, {"name": "Brichplanggenstock", "latitude": 46.6943819, "longitude": 8.6824706, "elevation": 3010.0, "source": "osm", "_tags": {"ele": "3010", "name": "Brichplanggenstock", "natural": "peak", "wikidata": "Q22593448"}}, {"name": "Piz Nair", "latitude": 46.6989621, "longitude": 8.7089842, "elevation": 3059.0, "source": "osm", "_tags": {"ele": "3059", "name": "Piz Nair", "natural": "peak", "wikidata": "Q668416"}}, {"name": "", "latitude": 46.7052065, "longitude": 8.6930565, "elevation": null, "source": "osm", "_tags": {"natural": "peak"}}, {"name": "", "latitude": 46.7060846, "longitude": 8.717705, "elevation": 2751.0, "source": "osm", "_tags": {"ele": "2751", "natural": "peak"}}, {"name": "Schijen", "latitude": 46.7117285, "longitude": 8.6843642, "elevation": 2845.0, "source": "osm", "_tags": {"ele": "2845", "name": "Schijen", "natural": "peak", "wikidata": "Q22544228"}}, {"name": "Piz Pali", "latitude": 46.7119167, "longitude": 8.7335259, "elevation": 2601.0, "source": "osm", "_tags": {"ele": "2601", "name": "Piz Pali", "natural": "peak", "wikidata": "Q22388320"}}, {"name": "Sunnig Wichel", "latitude": 46.7125619, "longitude": 8.6835366, "elevation": 2910.0, "source": "osm", "_tags": {"ele": "2910", "name": "Sunnig Wichel", "natural": "peak", "wikidata": "Q22445114"}}, {"name": "Schwarz Berg", "latitude": 46.7128313, "longitude": 8.6369372, "elevation": 2314.0, "source": "osm", "_tags": {"ele": "2314", "name": "Schwarz Berg", "natural": "peak", "wikidata": "Q23067989"}}, {"name": "Chrüzlistock", "latitude": 46.7146072, "longitude": 8.7407977, "elevation": 2709.0, "source": "osm", "_tags": {"ele": "2709", "name": "Chrüzlistock", "natural": "peak", "wikidata": "Q43291", "wikipedia": "de:Chrüzlistock"}}, {"name": "Ruchen", "latitude": 46.7242261, "longitude": 8.6789418, "elevation": 2812.0, "source": "osm", "_tags": {"ele": "2812", "name": "Ruchen", "natural": "peak", "wikidata": "Q22474441"}}, {"name": "", "latitude": 46.730597, "longitude": 8.6853485, "elevation": null, "source": "osm", "_tags": {"natural": "peak"}}, {"name": "Piz Acletta", "latitude": 46.731453, "longitude": 8.7995202, "elevation": 2911.0, "source": "osm", "_tags": {"ele": "2911", "name": "Piz Acletta", "natural": "peak", "wikidata": "Q22382754"}}, {"name": "Brichlig", "latitude": 46.7373147, "longitude": 8.8129787, "elevation": 2964.0, "source": "osm", "_tags": {"ele": "2964", "name": "Brichlig", "natural": "peak", "wikidata": "Q22697707"}}, {"name": "", "latitude": 46.744561, "longitude": 8.769062, "elevation": null, "source": "osm", "_tags": {"natural": "peak"}}, {"name": "", "latitude": 46.7447833, "longitude": 8.7661104, "elevation": null, "source": "osm", "_tags": {"natural": "peak"}}, {"name": "Schafschijen", "latitude": 46.751941, "longitude": 8.5458352, "elevation": 2840.0, "source": "osm", "_tags": {"ele": "2840", "name": "Schafschijen", "natural": "peak", "wikidata": "Q22441289"}}, {"name": "", "latitude": 46.7593228, "longitude": 8.8188375, "elevation": 2985.0, "source": "osm", "_tags": {"ele": "2985", "natural": "peak"}}, {"name": "Mäntliser", "latitude": 46.7881782, "longitude": 8.5874876, "elevation": 2876.0, "source": "osm", "_tags": {"ele": "2876", "name": "Mäntliser", "natural": "peak", "wikidata": "Q22644732"}}, {"name": "Chli Düssi", "latitude": 46.7883526, "longitude": 8.826304, "elevation": 3127.0, "source": "osm", "_tags": {"ele": "3127", "name": "Chli Düssi", "natural": "peak", "wikidata": "Q22495708"}}, {"name": "Ruchen", "latitude": 46.7913601, "longitude": 8.5990812, "elevation": 2628.0, "source": "osm", "_tags": {"ele": "2628", "name": "Ruchen", "natural": "peak", "wikidata": "Q22474451"}}, {"name": "", "latitude": 46.7924752, "longitude": 8.8299563, "elevation": null, "source": "osm", "_tags": {"natural": "peak"}}, {"name": "Jakobiger", "latitude": 46.7930157, "longitude": 8.6124975, "elevation": 2505.0, "source": "osm", "_tags": {"ele": "2505", "name": "Jakobiger", "natural": "peak", "wikidata": "Q22469114"}}, {"name": "", "latitude": 46.7952151, "longitude": 8.8344592, "elevation": null, "source": "osm", "_tags": {"natural": "peak"}}, {"name": "Bitzistock", "latitude": 46.8004694, "longitude": 8.3905699, "elevation": 1895.0, "source": "osm", "_tags": {"ele": "1895", "name": "Bitzistock", "natural": "peak", "wikidata": "Q22553615"}}, {"name": "Piz Val Pintga", "latitude": 46.8013328, "longitude": 8.8548038, "elevation": 2956.0, "source": "osm", "_tags": {"ele": "2956", "name": "Piz Val Pintga", "natural": "peak", "wikidata": "Q22390283"}}, {"name": "", "latitude": 46.8032384, "longitude": 8.8575226, "elevation": null, "source": "osm", "_tags": {"natural": "peak"}}, {"name": "Heimstock", "latitude": 46.8066573, "longitude": 8.8694586, "elevation": 3101.0, "source": "osm", "_tags": {"ele": "3101", "name": "Heimstock", "natural": "peak", "wikidata": "Q5699620"}}, {"name": "", "latitude": 46.8068156, "longitude": 8.7550506, "elevation": null, "source": "osm", "_tags": {"natural": "peak"}}, {"name": "", "latitude": 46.8086972, "longitude": 8.7658758, "elevation": null, "source": "osm", "_tags": {"natural": "peak"}}, {"name": "", "latitude": 46.8089013, "longitude": 8.7470372, "elevation": null, "source": "osm", "_tags": {"natural": "peak"}}, {"name": "Chli Ruchen", "latitude": 46.8212788, "longitude": 8.7976365, "elevation": 2944.0, "source": "osm", "_tags": {"ele": "2944", "name": "Chli Ruchen", "natural": "peak", "wikidata": "Q5102814", "wikipedia": "en:Chli Ruchen"}}, {"name": "", "latitude": 46.8263231, "longitude": 8.8114525, "elevation": null, "source": "osm", "_tags": {"natural": "peak"}}, {"name": "Chli Schärhorn", "latitude": 46.8286207, "longitude": 8.824039, "elevation": 3234.0, "source": "osm", "_tags": {"ele": "3234", "name": "Chli Schärhorn", "natural": "peak", "wikidata": "Q9189919"}}, {"name": "Claridenhorn", "latitude": 46.8342883, "longitude": 8.8758173, "elevation": 3120.0, "source": "osm", "_tags": {"ele": "3120", "name": "Claridenhorn", "name:de": "Claridenhorn", "natural": "peak", "wikidata": "Q11690744"}}, {"name": "", "latitude": 46.8396479, "longitude": 8.8740662, "elevation": null, "source": "osm", "_tags": {"natural": "peak"}}, {"name": "", "latitude": 46.8404741, "longitude": 8.8564514, "elevation": null, "source": "osm", "_tags": {"natural": "peak"}}, {"name": "", "latitude": 46.8427165, "longitude": 8.8679769, "elevation": null, "source": "osm", "_tags": {"natural": "peak"}}, {"name": "", "latitude": 46.8429731, "longitude": 8.8659469, "elevation": null, "source": "osm", "_tags": {"natural": "peak"}}, {"name": "", "latitude": 46.8460827, "longitude": 8.8832477, "elevation": null, "source": "osm", "_tags": {"natural": "peak"}}, {"name": "Leutscheberg", "latitude": 47.411767, "longitude": 7.9349279, "elevation": 928.0, "source": "osm", "_tags": {"ele": "928", "name": "Leutscheberg", "natural": "peak"}}, {"name": "Piz Gendusas", "latitude": 46.720355, "longitude": 8.7774441, "elevation": 2979.0, "source": "osm", "_tags": {"ele": "2979", "name": "Piz Gendusas", "natural": "peak", "wikidata": "Q22386118"}}, {"name": "", "latitude": 46.4314993, "longitude": 8.4594086, "elevation": 2782.0, "source": "osm", "_tags": {"ele": "2782", "natural": "peak"}}, {"name": "", "latitude": 46.4347669, "longitude": 8.457534, "elevation": 2711.0, "source": "osm", "_tags": {"ele": "2711", "natural": "peak"}}, {"name": "", "latitude": 46.4370713, "longitude": 8.459399, "elevation": 2715.0, "source": "osm", "_tags": {"ele": "2715", "natural": "peak"}}, {"name": "", "latitude": 46.4382232, "longitude": 8.7161312, "elevation": 2940.0, "source": "osm", "_tags": {"ele": "2940", "natural": "peak"}}, {"name": "Tre Corni", "latitude": 46.4400183, "longitude": 8.71253, "elevation": 2954.0, "source": "osm", "_tags": {"ele": "2954", "name": "Tre Corni", "natural": "peak", "wikidata": "Q22522754"}}, {"name": "Mottone", "latitude": 46.4421463, "longitude": 8.546585, "elevation": 2812.0, "source": "osm", "_tags": {"ele": "2812", "name": "Mottone", "natural": "peak", "wikidata": "Q22408745"}}, {"name": "", "latitude": 46.4426576, "longitude": 8.708232, "elevation": 2780.0, "source": "osm", "_tags": {"ele": "2780", "natural": "peak"}}, {"name": "Pizzo Fiorina", "latitude": 46.4438474, "longitude": 8.4655998, "elevation": 2925.0, "source": "osm", "_tags": {"ele": "2925", "name": "Pizzo Fiorina", "natural": "peak", "wikidata": "Q22392949"}}, {"name": "", "latitude": 46.4455316, "longitude": 8.7062559, "elevation": 2701.0, "source": "osm", "_tags": {"ele": "2701", "natural": "peak"}}, {"name": "", "latitude": 46.4462559, "longitude": 8.4615517, "elevation": 2952.0, "source": "osm", "_tags": {"ele": "2952", "natural": "peak"}}, {"name": "Marchhorn", "latitude": 46.4484982, "longitude": 8.4625353, "elevation": 2962.0, "source": "osm", "_tags": {"ele": "2962", "name": "Marchhorn", "name:de": "Markhorn", "name:it": "Punta del Termine", "name:wae": "Marchhore", "natural": "peak", "wikidata": "Q6756993"}}, {"name": "Pizzi di Morghirolo", "latitude": 46.4498366, "longitude": 8.7074629, "elevation": 2625.0, "source": "osm", "_tags": {"ele": "2625", "name": "Pizzi di Morghirolo", "natural": "peak", "wikidata": "Q22390934"}}, {"name": "Cima delle Donne", "latitude": 46.4543832, "longitude": 8.5374093, "elevation": 2723.0, "source": "osm", "_tags": {"ele": "2723", "name": "Cima delle Donne", "natural": "peak", "wikidata": "Q22503393"}}, {"name": "Punta di Valrossa", "latitude": 46.4547684, "longitude": 8.4023039, "elevation": 2968.0, "source": "osm", "_tags": {"alt_name": "Rotentalhorn", "ele": "2968", "name": "Punta di Valrossa", "name:bg": "Ротенталхорн", "name:ceb": "Rotentalhorn", "name:de": "Rotentalhorn", "name:fr": "Rotentalhorn", "name:it": "Punta di Valrossa", "name:nl": "Rotentalhorn", "natural": "peak", "wikidata": "Q31658318"}}, {"name": "Pizzo San Giacomo", "latitude": 46.4555912, "longitude": 8.4677529, "elevation": 2924.0, "source": "osm", "_tags": {"ele": "2924", "name": "Pizzo San Giacomo", "natural": "peak", "wikidata": "Q22393756"}}, {"name": "Pizzo Cavagnöö", "latitude": 46.4595561, "longitude": 8.4847772, "elevation": 2836.6, "source": "osm", "_tags": {"ele": "2836.6", "name": "Pizzo Cavagnöö", "natural": "peak", "wikidata": "Q22391350"}}, {"name": "", "latitude": 46.4602593, "longitude": 8.7467244, "elevation": 2223.0, "source": "osm", "_tags": {"ele": "2223", "natural": "peak"}}, {"name": "Cresta del Coro", "latitude": 46.4607083, "longitude": 8.5315097, "elevation": 2814.0, "source": "osm", "_tags": {"ele": "2814", "name": "Cresta del Coro", "natural": "peak", "wikidata": "Q22425281"}}, {"name": "Pizzo Grandinagia", "latitude": 46.4633998, "longitude": 8.4845259, "elevation": 2774.0, "source": "osm", "_tags": {"ele": "2774", "name": "Pizzo Grandinagia", "natural": "peak", "wikidata": "Q22393109"}}, {"name": "Motto Crostel", "latitude": 46.4651263, "longitude": 8.8669262, "elevation": 2300.0, "source": "osm", "_tags": {"ele": "2300", "name": "Motto Crostel", "natural": "peak", "wikidata": "Q22408188"}}, {"name": "Mottarone", "latitude": 46.4676372, "longitude": 8.8661459, "elevation": 2287.0, "source": "osm", "_tags": {"ele": "2287", "name": "Mottarone", "natural": "peak", "wikidata": "Q22407945"}}, {"name": "Poncione della Forca di Cristallina", "latitude": 46.470181, "longitude": 8.5334196, "elevation": 2792.0, "source": "osm", "_tags": {"ele": "2792", "name": "Poncione della Forca di Cristallina", "natural": "peak"}}, {"name": "Pizzo del Narèt", "latitude": 46.4770011, "longitude": 8.5536517, "elevation": 2588.0, "source": "osm", "_tags": {"ele": "2588", "name": "Pizzo del Narèt", "natural": "peak", "wikidata": "Q22392082"}}, {"name": "Pizzo Sassello", "latitude": 46.491151, "longitude": 8.6334646, "elevation": 2479.0, "source": "osm", "_tags": {"ele": "2479", "name": "Pizzo Sassello", "natural": "peak", "wikidata": "Q22392817"}}, {"name": "Il Madone", "latitude": 46.4919735, "longitude": 8.5589092, "elevation": 2756.0, "source": "osm", "_tags": {"ele": "2756", "name": "Il Madone", "natural": "peak", "wikidata": "Q5996581"}}, {"name": "", "latitude": 46.4970224, "longitude": 8.4316102, "elevation": null, "source": "osm", "_tags": {"natural": "peak"}}, {"name": "Pizzo di Campello", "latitude": 46.5160063, "longitude": 8.8270209, "elevation": 2660.0, "source": "osm", "_tags": {"ele": "2660", "name": "Pizzo di Campello", "natural": "peak", "source": "local knowledge", "wikidata": "Q7200045", "wikipedia": "en:Pizzo di Campello"}}, {"name": "Gerenhorn", "latitude": 46.5232392, "longitude": 8.4728201, "elevation": 3076.0, "source": "osm", "_tags": {"ele": "3076", "name": "Gerenhorn", "natural": "peak", "wikidata": "Q22637382"}}, {"name": "Pizzo dell'Uomo", "latitude": 46.5445565, "longitude": 8.7771617, "elevation": 2663.0, "source": "osm", "_tags": {"ele": "2663", "name": "Pizzo dell'Uomo", "natural": "peak", "wikidata": "Q7200042"}}, {"name": "Grathorn", "latitude": 46.4328289, "longitude": 8.2512032, "elevation": 2672.0, "source": "osm", "_tags": {"ele": "2672", "name": "Grathorn", "natural": "peak", "wikidata": "Q22418402"}}, {"name": "Merezebachschije", "latitude": 46.4392885, "longitude": 8.309544, "elevation": 3181.0, "source": "osm", "_tags": {"ele": "3181", "name": "Merezebachschije", "name:de": "Merezebachschije", "natural": "peak", "wikidata": "Q22496974"}}, {"name": "Ritzhörner", "latitude": 46.4480313, "longitude": 8.3235598, "elevation": 3107.0, "source": "osm", "_tags": {"ele": "3107", "name": "Ritzhörner", "name:de": "Ritzhörner", "natural": "peak", "wikidata": "Q22399623"}}, {"name": "Stockji", "latitude": 46.4565013, "longitude": 8.2914468, "elevation": 2604.0, "source": "osm", "_tags": {"ele": "2604", "name": "Stockji", "natural": "peak", "wikidata": "Q22402353"}}, {"name": "Kleines Dreieckhorn", "latitude": 46.4690152, "longitude": 8.0343156, "elevation": 3639.0, "source": "osm", "_tags": {"ele": "3639", "name": "Kleines Dreieckhorn", "name:de": "Kleines Dreieckhorn", "natural": "peak", "wikidata": "Q22543535", "wikipedia": "fr:Kleines Dreieckhorn"}}, {"name": "Teltschehorn", "latitude": 46.4736772, "longitude": 8.3284446, "elevation": 2744.0, "source": "osm", "_tags": {"ele": "2744", "name": "Teltschehorn", "natural": "peak", "wikidata": "Q22473676"}}, {"name": "Setzehorn", "latitude": 46.4759912, "longitude": 8.1607905, "elevation": 3061.0, "source": "osm", "_tags": {"ele": "3061", "name": "Setzehorn", "name:de": "Setzehorn", "natural": "peak", "wikidata": "Q7456984", "wikipedia": "en:Setzehorn"}}, {"name": "Bochtehorn", "latitude": 46.4780199, "longitude": 8.351435, "elevation": 2473.0, "source": "osm", "_tags": {"ele": "2473", "name": "Bochtehorn", "natural": "peak", "wikidata": "Q22579268"}}, {"name": "", "latitude": 47.0310962, "longitude": 8.8353285, "elevation": 1783.0, "source": "osm", "_tags": {"ele": "1783", "historic": "wayside_cross", "natural": "peak"}}, {"name": "Wilerhorn", "latitude": 46.7728579, "longitude": 8.106899, "elevation": 2005.0, "source": "osm", "_tags": {"ele": "2005", "name": "Wilerhorn", "natural": "peak", "wikidata": "Q18394875"}}, {"name": "Stock", "latitude": 47.0549593, "longitude": 8.8317382, "elevation": 1600.0, "source": "osm", "_tags": {"ele": "1600", "name": "Stock", "natural": "peak", "tourism": "viewpoint", "wikidata": "Q22401489"}}, {"name": "Homberg", "latitude": 47.3860364, "longitude": 8.7007276, "elevation": 510.0, "source": "osm", "_tags": {"ele": "510", "name": "Homberg", "natural": "peak", "place": "locality"}}, {"name": "Wellenberg", "latitude": 46.8862796, "longitude": 8.3997927, "elevation": 1236.0, "source": "osm", "_tags": {"ele": "1236", "name": "Wellenberg", "natural": "peak", "note": "diese Kuppe ist wesentlich niedriger als der östlich benachbarte Hauptgipfel; mit Wellenberg wurde historisch die Alp bezeichnet, nicht der Gipfel", "wikidata": "Q19311455"}}, {"name": "Tanzbödeli", "latitude": 46.5270476, "longitude": 7.8878819, "elevation": null, "source": "osm", "_tags": {"name": "Tanzbödeli", "natural": "peak", "tourism": "viewpoint"}}, {"name": "Jungfrau", "latitude": 46.5367739, "longitude": 7.9625907, "elevation": 4158.0, "source": "osm", "_tags": {"ele": "4158", "name": "Jungfrau", "name:ja": "ユングフラウ", "name:ko": "융프라우", "name:zh": "少女峰", "natural": "peak", "prominence": "687", "source:prominence": "4158-3471 (Jungfraujoch)", "wikidata": "Q15312", "wikipedia": "de:Jungfrau (Berg)"}}, {"name": "Chrinnenhorn", "latitude": 46.6326844, "longitude": 8.0972213, "elevation": 2741.0, "source": "osm", "_tags": {"ele": "2741", "name": "Chrinnenhorn", "natural": "peak", "wikidata": "Q1076908"}}, {"name": "Cima della Costa", "latitude": 46.4649161, "longitude": 8.7568314, "elevation": 1931.0, "source": "osm", "_tags": {"ele": "1931", "name": "Cima della Costa", "natural": "peak", "wikidata": "Q22503330"}}, {"name": "Pizzo Campolungo", "latitude": 46.4594877, "longitude": 8.7194053, "elevation": 2714.0, "source": "osm", "_tags": {"ele": "2714", "name": "Pizzo Campolungo", "natural": "peak", "wikidata": "Q3905987", "wikipedia": "it:Pizzo Campolungo"}}, {"name": "Pizzo Canà", "latitude": 46.4405723, "longitude": 8.7096759, "elevation": 2947.0, "source": "osm", "_tags": {"ele": "2947", "name": "Pizzo Canà", "natural": "peak", "wikidata": "Q22391204"}},