[{"name": "مدرسة التكوين شبه الطبي", "latitude": 35.7943949, "longitude": 7.3931757, "source": "osm", "_tags": {"amenity": "hospital", "emergency": "no", "healthcare": "hospital", "name": "مدرسة التكوين شبه الطبي", "name:ar": "مدرسة التكوين شبه الطبي", "name:en": "Semi-Medical School", "name:fr": "école paramédical"}}, {"name": "مستشفى الأمومة والتوليد", "latitude": 35.7951245, "longitude": 7.3942211, "source": "osm", "_tags": {"amenity": "hospital", "name": "مستشفى الأمومة والتوليد", "name:ar": "مستشفى الأمومة والتوليد", "name:en": "Maternity Hospital", "name:fr": "Hôpital de maternité et d'obstétrique"}}, {"name": "المستشفى القديم", "latitude": 35.7916998, "longitude": 7.3907151, "source": "osm", "_tags": {"amenity": "hospital", "healthcare": "hospital", "name": "المستشفى القديم", "name:ar": "مشفى المناوبة الليلية", "name:en": "The Old Hospital"}}, {"name": "مستشفى الأمومة والتوليد", "latitude": 35.7950066, "longitude": 7.3941655, "source": "osm", "_tags": {"amenity": "hospital", "name": "مستشفى الأمومة والتوليد", "name:ar": "مستشفى الأمومة والتوليد", "name:fr": "Hôpital de maternité et d'obstétrique"}}, {"name": "عيادة رمزي صايم", "latitude": 35.7907903, "longitude": 7.4010268, "source": "osm", "_tags": {"amenity": "hospital", "healthcare": "hospital", "name": "عيادة رمزي صايم", "name:ar": "عيادة رمزي صايم", "name:fr": "Clinique Saim Remzi"}}, {"name": "مستوصف", "latitude": 35.4498428, "longitude": 7.1238579, "source": "osm", "_tags": {"addr:city": "خنشلة", "addr:city:ar": "خنشلة", "amenity": "hospital", "healthcare": "hospital", "name": "مستوصف", "name:ar": "مستوصف"}}, {"name": "عيادة الأمير", "latitude": 35.8014142, "longitude": 7.392083, "source": "osm", "_tags": {"amenity": "hospital", "description": "العيادة الطبية الامير", "healthcare": "hospital", "healthcare:speciality": "gynaecology;internal;general", "name": "عيادة الأمير", "name:ar": "عيادة الأمير", "name:en": "Clinique Amir", "operator": "berkani"}}, {"name": "عيادة الامل", "latitude": 35.7959078, "longitude": 7.3826288, "source": "osm", "_tags": {"amenity": "hospital", "healthcare": "hospital", "healthcare:speciality": "gynaecology", "name": "عيادة الامل", "name:ar": "عيادة الامل", "name:fr": "Clinique El Amel"}}, {"name": "pharmacier", "latitude": 35.7923614, "longitude": 7.3927627, "source": "osm", "_tags": {"amenity": "hospital", "healthcare": "hospital", "name": "pharmacier"}}, {"name": "EPSP Djellal", "latitude": 34.9156196, "longitude": 6.8940595, "source": "osm", "_tags": {"amenity": "hospital", "name": "EPSP Djellal"}}, {"name": "Hôpital de Kaïs", "latitude": 35.4908062, "longitude": 6.9348988, "source": "osm", "_tags": {"amenity": "hospital", "name": "Hôpital de Kaïs", "name:ar": "مستشفى حيحي عبد المجيد", "name:fr": "Hôpital Hihi Abdelmadjid"}}, {"name": "وكالة الأنباء الجزائرية ششار", "latitude": 35.0382188, "longitude": 7.0079943, "source": "osm", "_tags": {"addr:city": "ششار", "addr:city:ar": "ششار", "amenity": "hospital", "brand": "وكالة الأنباء الجزائرية", "brand:ar": "وكالة الأنباء الجزائرية", "brand:website": "http://www.aps.dz/ar/", "brand:wikidata": "Q1162323", "brand:wikipedia": "ar:وكالة الأنباء الجزائرية", "healthcare": "hospital", "name": "وكالة الأنباء الجزائرية ششار", "name:ar": "وكالة الأنباء الجزائرية ششار", "name:en": "APS Chechar"}}, {"name": "", "latitude": 35.6315027, "longitude": 7.6630553, "source": "osm", "_tags": {"amenity": "hospital", "healthcare": "hospital"}}, {"name": "Hôpital", "latitude": 35.3190556, "longitude": 6.7442602, "source": "osm", "_tags": {"amenity": "hospital", "name": "Hôpital"}}, {"name": "مستشفى علي بو سحابة", "latitude": 35.4324102, "longitude": 7.1499853, "source": "osm", "_tags": {"addr:city": "Khenchela", "addr:postcode": "40000", "addr:street": "Rue Ali Boushaba", "amenity": "hospital", "emergency": "yes", "healthcare": "hospital", "name": "مستشفى علي بو سحابة", "name:ar": "مستشفى علي بو سحابة", "name:fr": "Hôpital Ali Bou Sehaba"}}, {"name": "المؤسسة الاستشفائية للصحة الجوارية أحمد بن بلة", "latitude": 35.4500299, "longitude": 7.1189107, "source": "osm", "_tags": {"addr:city": "خنشلة", "addr:city:ar": "خنشلة", "addr:postcode": "40000", "amenity": "hospital", "barrier": "wall", "healthcare": "hospital", "name": "المؤسسة الاستشفائية للصحة الجوارية أحمد بن بلة", "name:ar": "المؤسسة الاستشفائية للصحة الجوارية أحمد بن بلة", "name:etymology": "أحمد بن بلة", "name:etymology:wikidata": "Q179908", "name:etymology:wikipedia": "ar:أحمد بن بلة", "name:fr": "EPH Ahmed Ben Bella"}}, {"name": "مستشفى زوي", "latitude": 35.2902976, "longitude": 7.3556469, "source": "osm", "_tags": {"amenity": "hospital", "name": "مستشفى زوي", "name:ar": "مستشفى زوي", "name:fr": "Hôpital de Zoui"}}, {"name": "مصلحة الولادة", "latitude": 35.4302374, "longitude": 7.1421134, "source": "osm", "_tags": {"amenity": "hospital", "healthcare": "hospital", "name": "مصلحة الولادة", "name:ar": "مصلحة الولادة", "name:fr": "Maternité"}}, {"name": "عيادة الامل", "latitude": 35.7958849, "longitude": 7.3826148, "source": "osm", "_tags": {"addr:city": "عين البيضاء", "amenity": "hospital", "healthcare": "hospital", "healthcare:speciality": "general;orthopaedics;chiropractic", "name": "عيادة الامل", "name:ar": "عيادة الامل", "name:fr": "clinique el amel"}}, {"name": "مستشفى الأمومة والتوليد", "latitude": 35.7949972, "longitude": 7.3943559, "source": "osm", "_tags": {"amenity": "hospital", "healthcare": "hospital", "name": "مستشفى الأمومة والتوليد", "name:ar": "مستشفى الأمومة والتوليد", "name:fr": "Hôpital de maternité et d'obstétrique"}}, {"name": "المستشفى القديم", "latitude": 35.7915882, "longitude": 7.3908763, "source": "osm", "_tags": {"amenity": "hospital", "healthcare": "hospital", "name": "المستشفى القديم"}}, {"name": "", "latitude": 35.0401673, "longitude": 7.0019715, "source": "osm", "_tags": {"addr:city": "ششار", "addr:city:ar": "ششار", "amenity": "hospital", "healthcare": "hospital", "internet_access": "wlan"}}, {"name": "عيادة رمزي صايم", "latitude": 35.7908073, "longitude": 7.4011254, "source": "osm", "_tags": {"amenity": "hospital", "healthcare": "hospital", "name": "عيادة رمزي صايم", "name:ar": "عيادة رمزي صايم"}}, {"name": "", "latitude": 35.4495008, "longitude": 7.1239357, "source": "osm", "_tags": {"addr:city": "خنشلة", "addr:city:ar": "خنشلة", "amenity": "hospital", "healthcare": "hospital"}}, {"name": "عيادة الأمير", "latitude": 35.8013925, "longitude": 7.3918992, "source": "osm", "_tags": {"amenity": "hospital", "healthcare": "hospital", "name": "عيادة الأمير", "name:ar": "عيادة الأمير", "name:en": "Clinique Amir"}}, {"name": "عيادة متعددة الخدمات", "latitude": 35.5097021, "longitude": 6.8127424, "source": "osm", "_tags": {"amenity": "hospital", "healthcare": "hospital", "name": "عيادة متعددة الخدمات"}}, {"name": "احمد بن بلة", "latitude": 35.3175691, "longitude": 6.7373566, "source": "osm", "_tags": {"addr:city": "بوحمامة", "addr:housenumber": "40", "amenity": "hospital", "emergency": "no", "healthcare": "hospital", "healthcare:speciality": "surgery", "name": "احمد بن بلة", "operator": "مستشفى", "operator:type": "public"}}]