[{"name": "Aurelia Hospital", "latitude": 41.8870757, "longitude": 12.3983943, "source": "osm", "_tags": {"amenity": "hospital", "emergency": "yes", "fixme": "should better be a polygon", "healthcare": "hospital", "name": "Aurelia Hospital", "url": "http://www.aureliahospital.com/", "wheelchair": "yes", "wikidata": "Q30279876"}}, {"name": "Pronto Soccorso Ospedale Oftalmico", "latitude": 41.9080048, "longitude": 12.4490492, "source": "osm", "_tags": {"addr:city": "Roma", "addr:housenumber": "23", "addr:postcode": "00136", "addr:street": "Via Vittor Pisani", "amenity": "hospital", "emergency": "yes", "healthcare": "hospital", "name": "Pronto Soccorso Ospedale Oftalmico"}}, {"name": "Ospedale Santa Maria della Scala", "latitude": 42.7458734, "longitude": 11.8653758, "source": "osm", "_tags": {"addr:city": "Acquapendente", "addr:country": "IT", "addr:housenumber": "68", "addr:postcode": "01021", "addr:street": "Via Cesare Battisti", "amenity": "hospital", "name": "Ospedale Santa Maria della Scala"}}, {"name": "Centro Salute Orte", "latitude": 42.4604088, "longitude": 12.3843922, "source": "osm", "_tags": {"amenity": "hospital", "name": "Centro Salute Orte"}}, {"name": "Ospedale \"SS Gonfalone\"", "latitude": 42.0504267, "longitude": 12.6214304, "source": "osm", "_tags": {"amenity": "hospital", "healthcare": "hospital", "name": "Ospedale \"SS Gonfalone\""}}, {"name": "Croce Rossa Morlupo", "latitude": 42.1450363, "longitude": 12.4936349, "source": "osm", "_tags": {"addr:city": "Morlupo", "addr:postcode": "00067", "addr:street": "Via Giuseppe di Vittorio", "amenity": "hospital", "emergency": "no", "name": "Croce Rossa Morlupo"}}, {"name": "POSTAZIONE 118", "latitude": 41.9333374, "longitude": 12.1269583, "source": "osm", "_tags": {"amenity": "hospital", "name": "POSTAZIONE 118"}}, {"name": "Casa Di Cura Villa Tiberia", "latitude": 42.0371774, "longitude": 12.6338272, "source": "osm", "_tags": {"addr:street": "Via Emilio Praga", "amenity": "hospital", "name": "Casa Di Cura Villa Tiberia"}}, {"name": "Pronto Soccorso Policlinico Tor Vergata", "latitude": 41.8583344, "longitude": 12.6303253, "source": "osm", "_tags": {"addr:city": "Roma", "addr:housenumber": "81", "addr:postcode": "00133", "addr:street": "Viale Oxford", "amenity": "hospital", "emergency": "yes", "healthcare": "hospital", "name": "Pronto Soccorso Policlinico Tor Vergata"}}, {"name": "Pronto Soccorso Ospedale \"Cristo Re\"", "latitude": 41.9181286, "longitude": 12.4206845, "source": "osm", "_tags": {"addr:city": "Roma", "addr:housenumber": "25", "addr:postcode": "00167", "addr:street": "Via delle Calasanziane", "amenity": "hospital", "emergency": "yes", "healthcare": "hospital", "name": "Pronto Soccorso Ospedale \"Cristo Re\""}}, {"name": "Pronto soccorso Ospedale Madre Giuseppina Vannini", "latitude": 41.8814374, "longitude": 12.5433268, "source": "osm", "_tags": {"addr:city": "Roma", "addr:housenumber": "22", "addr:postcode": "00177", "addr:street": "Via di Acqua Bullicante", "emergency": "emergency_ward_entrance", "entrance": "yes", "healthcare": "hospital", "name": "Pronto soccorso Ospedale Madre Giuseppina Vannini", "phone": "+39 06 24291255", "website": "https://roma.figliedisancamillo.it/struttura/servizi/pronto-soccorso/"}}, {"name": "Pronto Soccorso Ospedale \"Santa Maria della Scala\"", "latitude": 42.7459289, "longitude": 11.8648716, "source": "osm", "_tags": {"addr:city": "Acquapendente", "addr:postcode": "01021", "addr:street": "Via Cantorrivo", "amenity": "hospital", "emergency": "yes", "healthcare": "hospital", "name": "Pronto Soccorso Ospedale \"Santa Maria della Scala\""}}, {"name": "Pronto Soccorso Ospedale", "latitude": 42.0504488, "longitude": 12.6210631, "source": "osm", "_tags": {"addr:city": "Monterotondo", "amenity": "hospital", "emergency": "yes", "healthcare": "hospital", "name": "Pronto Soccorso Ospedale"}}, {"name": "Pronto Soccorso Ospedale \"Santo Spirito in Sassia\"", "latitude": 41.9006565, "longitude": 12.4625854, "source": "osm", "_tags": {"addr:city": "Roma", "addr:street": "Lungotevere in Sassia", "amenity": "hospital", "emergency": "yes", "healthcare": "hospital", "name": "Pronto Soccorso Ospedale \"Santo Spirito in Sassia\""}}, {"name": "NCL", "latitude": 41.8662194, "longitude": 12.5407757, "source": "osm", "_tags": {"amenity": "hospital", "emergency": "no", "healthcare": "hospital", "healthcare:speciality": "neurology", "name": "NCL", "name:en": "Neurological Center of Latium", "website": "https://www.nclroma.it/"}}, {"name": "Casa di Cura \"San Domenico\"", "latitude": 41.9086684, "longitude": 12.5124122, "source": "osm", "_tags": {"addr:housenumber": "5", "addr:street": "Piazza Sassari", "amenity": "hospital", "healthcare": "hospital", "name": "Casa di Cura \"San Domenico\"", "website": "https://sandomeniconline.it/"}}, {"name": "AISPS Roma - Centro di Sessuologia", "latitude": 41.9017366, "longitude": 12.4396529, "source": "osm", "_tags": {"addr:city": "Roma", "addr:housenumber": "330", "addr:postcode": "00167", "addr:street": "Via Baldo degli Ubaldi", "amenity": "hospital", "healthcare": "hospital", "name": "AISPS Roma - Centro di Sessuologia"}}, {"name": "Studio Odontoiatrico Dominici", "latitude": 41.8296386, "longitude": 12.4890698, "source": "osm", "_tags": {"addr:city": "Roma", "addr:housenumber": "22", "addr:postcode": "00142", "addr:street": "Via Duccio di Buoninsegna", "amenity": "hospital", "email": "segreteria@studiodontoiatricodominici.com", "healthcare": "hospital", "healthcare:speciality": "dentist", "internet_access": "yes", "name": "Studio Odontoiatrico Dominici", "operator": "Studio Medico Odontoiatrico Dominici", "operator:type": "private", "phone": "+39 06 503 0773", "website": "http://www.studiodontoiatricodominici.com/it", "wheelchair": "yes"}}, {"name": "Ospedale Pediatrico Bambino Gesù - Sede di via Baldelli", "latitude": 41.8568665, "longitude": 12.4744766, "source": "osm", "_tags": {"amenity": "hospital", "healthcare": "hospital", "healthcare:speciality": "paediatrics", "name": "Ospedale Pediatrico Bambino Gesù - Sede di via Baldelli", "operator": "Ospedale Pediatrico Bambino Gesù", "operator:type": "religious", "phone": "+390668591", "website": "https://www.ospedalebambinogesu.it/sede-roma-baldelli"}}, {"name": "Casa della Salute", "latitude": 42.6255597, "longitude": 12.1008315, "source": "osm", "_tags": {"amenity": "hospital", "healthcare": "hospital", "healthcare:speciality": "ASL", "name": "Casa della Salute"}}, {"name": "Gemelli CURAE", "latitude": 41.9333079, "longitude": 12.4315372, "source": "osm", "_tags": {"amenity": "hospital", "healthcare": "hospital", "name": "Gemelli CURAE"}}, {"name": "Biologo Nutrizionista", "latitude": 41.8175394, "longitude": 12.7150242, "source": "osm", "_tags": {"addr:city": "Monte Porzio Catone", "addr:housenumber": "30", "addr:postcode": "00078", "addr:street": "Via Quattro Novembre", "amenity": "hospital", "healthcare": "yes", "healthcare:speciality": "biology", "name": "Biologo Nutrizionista", "operator": "Dr. Ludovico Palma", "operator:type": "private", "website": "https://ludovicopalma.it/"}}, {"name": "Villa Paola", "latitude": 42.2590699, "longitude": 12.1725793, "source": "osm", "_tags": {"addr:city": "Capranica", "addr:country": "IT", "addr:housenumber": "1", "addr:street": "Piazzale Madonna del Piano", "amenity": "hospital", "healthcare": "hospital", "name": "Villa Paola", "operator": "IDI"}}, {"name": "Ospedale Sandro Pertini", "latitude": 41.9205767, "longitude": 12.5404562, "source": "osm", "_tags": {"addr:city": "Roma", "addr:housename": "Ospedale Sandro Pertini", "addr:housenumber": "385", "addr:postcode": "00157", "addr:street": "via dei Monti Tiburtini", "amenity": "hospital", "emergency": "yes", "healthcare": "hospital", "name": "Ospedale Sandro Pertini", "operator": "ASL Roma B", "phone": "+39 06 41431", "website": "http://www.aslromab.it/cittadini/ospedali/pertini/index.php"}}, {"name": "Ospedale Sant'Anna", "latitude": 42.2923881, "longitude": 12.2121956, "source": "osm", "_tags": {"addr:city": "Ronciglione", "addr:housenumber": "17", "addr:street": "Via dell'Ospedale Consorziale", "amenity": "hospital", "email": "dirsanronc@asl.vt.it", "emergency": "yes", "healthcare": "hospital", "name": "Ospedale Sant'Anna", "operator": "ASL Viterbo", "phone": "+39 0761 651 254; 800 692 911", "website": "http://www.asl.vt.it/Ospedaliera/Ospedali/baseOspedali.php"}}, {"name": "Policlinico Umberto I", "latitude": 41.9065618, "longitude": 12.5120467, "source": "osm", "_tags": {"addr:city": "Roma", "addr:housenumber": "155", "addr:postcode": "00161", "addr:street": "Viale del Policlinico", "amenity": "hospital", "description": "Complesso ospedaliero Umberto I", "emergency": "yes", "healthcare": "hospital", "name": "Policlinico Umberto I", "operator": "Azienda ospedaliero-universitaria Policlinico Umberto I", "operator:type": "university", "start_date": "1903", "website": "https://www.policlinicoumberto1.it/", "wikidata": "Q500377", "wikimedia_commons": "Category:Policlinico Umberto I (Rome)", "wikipedia": "it:Policlinico Umberto I"}}, {"name": "Centro Medicina Nucleare Italiano Villa Bianca", "latitude": 41.9252601, "longitude": 12.5125358, "source": "osm", "_tags": {"access": "private", "amenity": "hospital", "healthcare": "hospital", "leisure": "park", "name": "Centro Medicina Nucleare Italiano Villa Bianca"}}, {"name": "Policlinico Italia", "latitude": 41.9162373, "longitude": 12.523399, "source": "osm", "_tags": {"amenity": "hospital", "building": "yes", "healthcare": "hospital", "name": "Policlinico Italia", "name:etymology:wikidata": "Q38"}}, {"name": "Punto di Primo Soccorso", "latitude": 41.8581546, "longitude": 12.2016474, "source": "osm", "_tags": {"amenity": "hospital", "building": "yes", "emergency": "yes", "healthcare": "hospital", "name": "Punto di Primo Soccorso", "wheelchair": "yes"}}, {"name": "Ospedale San Filippo Neri", "latitude": 41.9477845, "longitude": 12.4136631, "source": "osm", "_tags": {"addr:city": "Roma", "addr:housenumber": "20", "addr:postcode": "00135", "addr:street": "Via Giovanni Martinotti", "amenity": "hospital", "email": "urpsfn@aslroma1.it", "emergency": "yes", "healthcare": "hospital", "healthcare:speciality": "cardiology;surgery;orthopaedics;gynaecology;oncology;emergency;maternity", "name": "Ospedale San Filippo Neri", "opening_hours": "24/7", "operator": "ASL Roma 1", "operator:type": "public", "phone": "+390633062676", "website": "https://www.aslroma1.it/presidi-ospedalieri/presidio-ospedaliero-san-filippo-neri", "wikidata": "Q3886634", "wikipedia": "it:Ospedale San Filippo Neri"}}, {"name": "Ospedale San Camillo", "latitude": 41.868994, "longitude": 12.4564115, "source": "osm", "_tags": {"addr:city": "Roma", "addr:housenumber": "87", "addr:postcode": "00152", "addr:street": "Circonvallazione Gianicolense", "amenity": "hospital", "emergency": "yes", "healthcare": "hospital", "healthcare:speciality": "neurology;dermatology;psychology;cardiology;intensive;gynaecology;general;oncology;radiology;physiatry", "name": "Ospedale San Camillo", "name:it": "Ospedale San Camillo", "opening_hours": "24/7", "operator": "Azienda ospedaliera San Camillo-Forlanini", "operator:type": "public", "phone": "+390658703011", "website": "https://www.scamilloforlanini.rm.it/", "wikidata": "Q24941324", "wikipedia": "it:Azienda ospedaliera San Camillo-Forlanini"}}, {"name": "Ospedale Oftalmico", "latitude": 41.9080718, "longitude": 12.4482271, "source": "osm", "_tags": {"amenity": "hospital", "building": "yes", "check_date": "2024-09-10", "name": "Ospedale Oftalmico"}}, {"name": "Posto di Primo Soccorso", "latitude": 41.9692575, "longitude": 12.0809096, "source": "osm", "_tags": {"amenity": "hospital", "building": "yes", "healthcare": "hospital", "name": "Posto di Primo Soccorso"}}, {"name": "European Hospital", "latitude": 41.8533402, "longitude": 12.4363277, "source": "osm", "_tags": {"addr:city": "Roma", "addr:housenumber": "700", "addr:postcode": "00149", "addr:street": "Via Portuense", "amenity": "hospital", "check_date": "2024-03-16", "email": "europeanhospitalspa@legalmail.it", "emergency": "no", "healthcare": "hospital", "healthcare:speciality": "cardiology;intensive;radiology", "name": "European Hospital", "operator": "European Hospital S.p.A.", "operator:type": "private", "phone": "+3906659759", "website": "https://www.europeanhospital.it/", "wikidata": "Q30280130"}}, {"name": "Ospedale CTO Andrea Alesini", "latitude": 41.8580874, "longitude": 12.4868587, "source": "osm", "_tags": {"addr:city": "Roma", "addr:postcode": "00145", "addr:street": "Via San Nemesio", "amenity": "hospital", "emergency": "yes", "healthcare": "hospital", "loc_name": "CTO", "name": "Ospedale CTO Andrea Alesini", "operator": "ASL Roma 2", "operator:type": "public"}}, {"name": "Clinica Villa Benedetta", "latitude": 41.9005771, "longitude": 12.4256819, "source": "osm", "_tags": {"amenity": "hospital", "barrier": "wall", "healthcare": "hospital", "name": "Clinica Villa Benedetta"}}, {"name": "Ospedale Civile di Montefiascone", "latitude": 42.5362827, "longitude": 12.0311772, "source": "osm", "_tags": {"addr:city": "Montefiascone", "addr:country": "IT", "addr:postcode": "01027", "addr:street": "Via Donatori di Sangue", "amenity": "hospital", "building": "yes", "email": "dirsanmon@asl.vt.it", "name": "Ospedale Civile di Montefiascone", "operator": "ASL Viterbo", "phone": "+39 0761 8331"}}, {"name": "Policlinico Universitario Agostino Gemelli", "latitude": 41.931765, "longitude": 12.429715, "source": "osm", "_tags": {"addr:city": "Roma", "addr:housenumber": "8", "addr:postcode": "00168", "addr:street": "Largo Agostino Gemelli", "amenity": "hospital", "check_date": "2022-12-14", "email": "urp@policlinicogemelli.it", "email:pec": "protocollo.generale.gemelli@pec.it", "emergency": "yes", "healthcare": "hospital", "healthcare:speciality": "general", "internet_access": "yes", "internet_access:fee": "no", "internet_access:ssid": "FPG-Wifi-Free", "name": "Policlinico Universitario Agostino Gemelli", "opening_hours": "24/7", "operator": "Fondazione Policlinico Universitario Agostino Gemelli IRCCS", "operator:type": "private", "payment:cash": "yes", "payment:credit_cards": "yes", "payment:maestro": "yes", "payment:mastercard": "yes", "payment:visa": "yes", "phone": "+39 06 30151;+39 06 88805560", "ref:vatin": "IT13109681000", "start_date": "1964", "website": "https://www.policlinicogemelli.it/", "wheelchair": "yes", "wikidata": "Q1501084", "wikimedia_commons": "Category:Policlinico Agostino Gemelli", "wikipedia": "it:Policlinico Agostino Gemelli"}}, {"name": "Ospedale San Pietro Fatebenefratelli", "latitude": 41.9635875, "longitude": 12.4507113, "source": "osm", "_tags": {"addr:city": "Roma", "addr:housenumber": "600", "addr:postcode": "00189", "addr:street": "Via Cassia", "amenity": "hospital", "email": "info.urp@fbfrm.it", "emergency": "yes", "healthcare": "hospital", "healthcare:speciality": "intensive;cardiology;surgery;paediatrics;gynaecology;psychiatry;oncology;orthopaedics;radiology;ophthalmology", "name": "Ospedale San Pietro Fatebenefratelli", "opening_hours": "24/7", "operator": "Ordine Ospedaliero di san Giovanni di Dio", "operator:type": "private", "phone": "+390633581", "website": "https://www.ospedalesanpietro.it/web/guest"}}, {"name": "Policlinico Casilino", "latitude": 41.8687548, "longitude": 12.5895875, "source": "osm", "_tags": {"addr:city": "Roma", "addr:housenumber": "1049", "addr:postcode": "00169", "addr:street": "Via Casilina", "amenity": "hospital", "emergency": "yes", "healthcare": "hospital", "name": "Policlinico Casilino", "phone": "+39 06 231881", "website": "https://policlinicocasilino.it/", "wikidata": "Q30296383"}}, {"name": "Istituto Dermopatico dell'Immacolata", "latitude": 41.9012638, "longitude": 12.4302671, "source": "osm", "_tags": {"addr:city": "Roma", "addr:housenumber": "104", "addr:postcode": "00167", "addr:street": "Via dei Monti di Creta", "amenity": "hospital", "building": "no", "contact:facebook": "https://www.facebook.com/IDIcuraEricerca", "contact:instagram": "https://www.instagram.com/idicuraericerca/", "contact:linkedin": "https://www.linkedin.com/company/idi-istituto-dermopatico-immacolata/", "contact:youtube": "https://www.youtube.com/@idiospedale-irccs4343", "healthcare": "hospital", "name": "Istituto Dermopatico dell'Immacolata", "operator": "Fondazione Luigi Maria Monti", "phone": "+39 06 66464094", "short_name": "IDI", "website": "https://www.idi.it/", "wheelchair": "yes"}}, {"name": "Complesso Integrato Columbus", "latitude": 41.9269618, "longitude": 12.429917, "source": "osm", "_tags": {"amenity": "hospital", "healthcare": "hospital", "name": "Complesso Integrato Columbus"}}, {"name": "", "latitude": 41.9285753, "longitude": 12.4164597, "source": "osm", "_tags": {"amenity": "hospital", "wheelchair": "yes"}}, {"name": "Hospice Villa Speranza", "latitude": 41.9313146, "longitude": 12.426725, "source": "osm", "_tags": {"amenity": "hospital", "healthcare": "hospital", "name": "Hospice Villa Speranza"}}, {"name": "ASL RME", "latitude": 41.9204267, "longitude": 12.4148066, "source": "osm", "_tags": {"amenity": "hospital", "healthcare": "hospital", "name": "ASL RME", "operator": "ASL", "operator:wikidata": "Q3631467"}}, {"name": "Ospedale Cristo Re", "latitude": 41.9178972, "longitude": 12.4207855, "source": "osm", "_tags": {"amenity": "hospital", "healthcare": "hospital", "name": "Ospedale Cristo Re"}}, {"name": "", "latitude": 42.2496115, "longitude": 11.7594302, "source": "osm", "_tags": {"amenity": "hospital", "emergency": "yes", "healthcare": "hospital"}}, {"name": "San Carlo di Nancy", "latitude": 41.8976333, "longitude": 12.4386628, "source": "osm", "_tags": {"amenity": "hospital", "healthcare": "hospital", "name": "San Carlo di Nancy"}}, {"name": "Ospedale Pediatrico Bambino Gesù - Sede di San Paolo", "latitude": 41.8576341, "longitude": 12.4753637, "source": "osm", "_tags": {"addr:city": "Roma", "addr:housenumber": "15", "addr:postcode": "00146", "addr:street": "Viale di San Paolo", "amenity": "hospital", "building": "hospital", "cafeteria": "yes", "healthcare": "hospital", "healthcare:speciality": "paediatrics", "name": "Ospedale Pediatrico Bambino Gesù - Sede di San Paolo", "operator": "Ospedale Pediatrico Bambino Gesù", "operator:type": "religious"}}, {"name": "Policlinico militare Celio", "latitude": 41.8866856, "longitude": 12.4981244, "source": "osm", "_tags": {"access": "permissive", "amenity": "hospital", "fixme": "is this really permissive access?", "healthcare": "hospital", "landuse": "military", "name": "Policlinico militare Celio", "wikidata": "Q16591171", "wikipedia": "it:Policlinico militare Celio"}}, {"name": "Ospedale Nuovo Regina Margherita", "latitude": 41.8859054, "longitude": 12.4709115, "source": "osm", "_tags": {"amenity": "hospital", "building": "hospital", "healthcare": "hospital", "name": "Ospedale Nuovo Regina Margherita", "source": "Bing, Local knowledge", "wheelchair": "yes"}}, {"name": "Ospedale Santa Maria dei Laici", "latitude": 42.5592215, "longitude": 12.4120444, "source": "osm", "_tags": {"addr:city": "Amelia", "addr:housenumber": "18", "addr:postcode": "05022", "addr:street": "Via dell'Ospedale", "amenity": "hospital", "building": "yes", "building:levels": "4", "emergency": "no", "name": "Ospedale Santa Maria dei Laici", "operator": "Azienda Unità Sanitaria Locale Umbria n. 2", "operator:type": "public", "phone": "+39 0744 9011", "website": "https://www.uslumbria2.it/pagine/ospedale-di-amelia-000"}}, {"name": "Presidio Marzio Marini", "latitude": 42.3716613, "longitude": 12.491267, "source": "osm", "_tags": {"amenity": "hospital", "building": "yes", "healthcare": "hospital", "name": "Presidio Marzio Marini"}}, {"name": "Casa di Cura Nuova ITOR", "latitude": 41.9244288, "longitude": 12.54258, "source": "osm", "_tags": {"amenity": "hospital", "building": "yes", "name": "Casa di Cura Nuova ITOR", "toilets:wheelchair": "yes", "wheelchair": "yes"}}, {"name": "Fondazione Santa Lucia", "latitude": 41.841172, "longitude": 12.5150833, "source": "osm", "_tags": {"amenity": "hospital", "name": "Fondazione Santa Lucia"}}, {"name": "Ospedale San Matteo degli Infermi", "latitude": 42.7324271, "longitude": 12.7255808, "source": "osm", "_tags": {"addr:city": "Spoleto", "addr:housenumber": "3", "addr:postcode": "06049", "addr:street": "Via Loreto", "amenity": "hospital", "email": "ospedale.spoleto@pec.uslumbria2.it", "emergency": "yes", "healthcare": "hospital", "name": "Ospedale San Matteo degli Infermi", "operator": "Azienda Unità Sanitaria Locale Umbria n. 2", "operator:type": "public", "phone": "+39 0743 2101", "website": "https://www.uslumbria2.it/pagine/ospedale-di-spoleto-000"}}, {"name": "Ospedale Sant'Eugenio", "latitude": 41.821307, "longitude": 12.4720454, "source": "osm", "_tags": {"addr:city": "Roma", "addr:housenumber": "10", "addr:postcode": "00144", "addr:street": "Piazzale dell'Umanesimo", "amenity": "hospital", "emergency": "yes", "name": "Ospedale Sant'Eugenio", "name:it": "Sant'Eugenio", "wikidata": "Q19678501"}}, {"name": "Clinica Guarnieri", "latitude": 41.882442, "longitude": 12.5628437, "source": "osm", "_tags": {"addr:city": "Roma", "addr:housenumber": "139", "addr:postcode": "00172", "addr:street": "Via Tor de' Schiavi", "amenity": "hospital", "emergency": "no", "healthcare": "hospital", "name": "Clinica Guarnieri", "operator": "Clinica Guarnieri S.p.a.", "operator:type": "private", "website": "https://www.clinicaguarnieri.it/"}}, {"name": "ASL", "latitude": 42.2711843, "longitude": 12.6867002, "source": "osm", "_tags": {"amenity": "hospital", "name": "ASL"}}, {"name": "Ospedale generale Madre Giuseppina Vannini", "latitude": 41.8810075, "longitude": 12.5434335, "source": "osm", "_tags": {"addr:city": "Roma", "addr:housenumber": "4", "addr:postcode": "00177", "addr:street": "Via di Acqua Bullicante", "alt_name": "Ospedale Figlie di San Camillo", "amenity": "hospital", "emergency": "yes", "healthcare": "hospital", "name": "Ospedale generale Madre Giuseppina Vannini", "operator": "Istituto delle Figlie di San Camillo", "operator:type": "religious", "website": "https://roma.figliedisancamillo.it/"}}, {"name": "Istituto nazionale per le malattie infettive Lazzaro Spallanzani", "latitude": 41.8660939, "longitude": 12.4577518, "source": "osm", "_tags": {"addr:city": "Roma", "addr:housenumber": "292", "addr:postcode": "00149", "addr:street": "Via Portuense", "amenity": "hospital", "emergency": "yes", "healthcare": "hospital", "healthcare:speciality": "infectious_diseases;intensive;surgery;cardiology", "name": "Istituto nazionale per le malattie infettive Lazzaro Spallanzani", "operator": "IRCCS INMI Lazzaro Spallanzani", "operator:type": "public", "phone": "+3906551701", "website": "https://www.inmi.it/", "wikidata": "Q3803781", "wikimedia_commons": "Category:Istituto nazionale per le malattie infettive Lazzaro Spallanzani", "wikipedia": "it:Istituto nazionale per le malattie infettive"}}, {"name": "Clinica Valle Giulia", "latitude": 41.9199791, "longitude": 12.4802788, "source": "osm", "_tags": {"addr:city": "Roma", "addr:housenumber": "2b", "addr:postcode": "00197", "addr:street": "Via Giuseppe De Notaris", "amenity": "hospital", "building": "yes", "email": "info@clinicavallegiulia.it", "emergency": "no", "healthcare": "hospital", "name": "Clinica Valle Giulia", "operator": "Clinica Valle Giulia Casa di Cura Spa", "operator:type": "private", "phone": "+39 06 324791", "website": "https://www.clinicavallegiulia.it/", "wikidata": "Q41568650"}}, {"name": "Clinica Parioli", "latitude": 41.9228473, "longitude": 12.4877648, "source": "osm", "_tags": {"addr:city": "Roma", "addr:housenumber": "8", "addr:postcode": "00197", "addr:street": "Via Felice Giordano", "amenity": "hospital", "building": "yes", "email": "info@clinicaparioli.it", "emergency": "no", "healthcare": "hospital", "name": "Clinica Parioli", "operator": "Fenice Parioli S.r.l", "operator:type": "private", "phone": "+39 06 807771", "website": "https://www.clinicaparioli.it/"}}, {"name": "Clinica Mater Dei", "latitude": 41.9239284, "longitude": 12.4879029, "source": "osm", "_tags": {"amenity": "hospital", "name": "Clinica Mater Dei", "religion": "christian"}}, {"name": "Clinica Sanatrix", "latitude": 41.9303335, "longitude": 12.5136608, "source": "osm", "_tags": {"amenity": "hospital", "name": "Clinica Sanatrix"}}, {"name": "Casa di Cura Città di Roma", "latitude": 41.8748795, "longitude": 12.4564571, "source": "osm", "_tags": {"addr:city": "Roma", "addr:housenumber": "20", "addr:postcode": "00152", "addr:street": "Via Francesco Maidalchini", "amenity": "hospital", "building": "yes", "healthcare": "hospital", "name": "Casa di Cura Città di Roma", "phone": "+39 06 58471", "source": "PCN", "website": "http://www.casadicuracittadiroma.com/", "wheelchair": "yes"}}, {"name": "", "latitude": 41.9404347, "longitude": 12.4692201, "source": "osm", "_tags": {"amenity": "hospital", "healthcare": "hospital"}}, {"name": "Casa della Salute", "latitude": 41.9957897, "longitude": 12.4814231, "source": "osm", "_tags": {"amenity": "hospital", "healthcare": "hospital", "name": "Casa della Salute", "roof:shape": "flat"}}, {"name": "San Raffaele Flaminia - Residenza Sanitaria Assitenziale", "latitude": 41.9890826, "longitude": 12.4913587, "source": "osm", "_tags": {"addr:housenumber": "121", "addr:street": "Via del Labaro", "amenity": "hospital", "level": "4", "name": "San Raffaele Flaminia - Residenza Sanitaria Assitenziale", "roof": "flat"}}, {"name": "Casa di cura Sant'Alessandro", "latitude": 41.9656529, "longitude": 12.5993698, "source": "osm", "_tags": {"amenity": "hospital", "email": "info@clinicasantalessandro.it", "fax": "+39 06 41400343", "healthcare": "hospital", "name": "Casa di cura Sant'Alessandro", "phone": "+39 06 41400356", "website": "http://www.clinicasantalessandro.it/"}}, {"name": "Ospedale Santa Rosa", "latitude": 42.3931762, "longitude": 12.1236757, "source": "osm", "_tags": {"addr:city": "Viterbo", "addr:country": "IT", "addr:postcode": "01100", "addr:street": "Strada Sammartinese", "amenity": "hospital", "emergency": "yes", "fax": "+39 0761 3381", "name": "Ospedale Santa Rosa", "old_name": "Ospedale Belcolle", "operator": "ASL Viterbo", "phone": "+39 0761 3391", "website": "http://www.asl.vt.it"}}, {"name": "Policlinico Tor Vergata", "latitude": 41.8576287, "longitude": 12.6309789, "source": "osm", "_tags": {"addr:city": "Roma", "addr:country": "IT", "addr:housenumber": "81", "addr:postcode": "00133", "addr:province": "RM", "addr:street": "Viale Oxford", "amenity": "hospital", "check_date": "2025-02-01", "contact:facebook": "https://facebook.com/policlinicotorvergata", "contact:instagram": "https://www.instagram.com/policlinicotorvergata", "contact:twitter": "https://twitter.com/ptvonline2001", "contact:youtube": "https://www.youtube.com/ptvweb", "email": "info@ptvonline.it", "healthcare": "hospital", "name": "Policlinico Tor Vergata", "phone": "+39 06 20901", "ref:vatin": "IT10110821005", "website": "https://www.ptvonline.it", "wikidata": "Q30254147"}}, {"name": "Salvator Mundi international Hospital", "latitude": 41.8833417, "longitude": 12.4625024, "source": "osm", "_tags": {"addr:city": "Roma", "addr:housenumber": "67", "addr:postcode": "00152", "addr:street": "Viale delle Mura Gianicolensi", "amenity": "hospital", "email": "info@salvatormundi.it", "healthcare": "hospital", "name": "Salvator Mundi international Hospital", "phone": "+39 06 588961", "website": "https://www.salvatormundi.it/"}}, {"name": "Villa Tiberia", "latitude": 41.946119, "longitude": 12.5579795, "source": "osm", "_tags": {"addr:city": "Roma", "addr:housenumber": "26", "addr:postcode": "00137", "addr:street": "Via Emilio Praga", "amenity": "hospital", "building": "yes", "building:levels": "4", "emergency": "no", "healthcare": "hospital", "name": "Villa Tiberia", "phone": "+39 06 82098040", "website": "http://www.villatiberiahospital.it/"}}, {"name": "Nuova Villa Claudia", "latitude": 41.952484, "longitude": 12.4738961, "source": "osm", "_tags": {"addr:city": "Roma", "addr:country": "IT", "addr:housenumber": "280", "addr:postcode": "00191", "addr:street": "Via Flaminia Nuova", "amenity": "hospital", "email": "segreteria@nuovavillaclaudia.it", "healthcare": "hospital", "name": "Nuova Villa Claudia", "phone": "+39 06 367971", "website": "https://www.nuovavillaclaudia.it/"}}, {"name": "Villa Stuart", "latitude": 41.9276598, "longitude": 12.4505964, "source": "osm", "_tags": {"addr:city": "Roma", "addr:housenumber": "5952", "addr:postcode": "00135", "addr:street": "Via Trionfale", "amenity": "hospital", "building": "yes", "healthcare": "hospital", "name": "Villa Stuart", "phone": "+39 06 35528500", "website": "https://www.villastuart.it/"}}, {"name": "Ospedale Andosilla di Civita Castellana", "latitude": 42.2904961, "longitude": 12.4204826, "source": "osm", "_tags": {"amenity": "hospital", "emergency": "yes", "healthcare": "hospital", "name": "Ospedale Andosilla di Civita Castellana"}}, {"name": "Azienda Ospedaliera Santa Maria", "latitude": 42.5561544, "longitude": 12.6550695, "source": "osm", "_tags": {"addr:city": "Terni", "addr:postcode": "05100", "addr:street": "Viale Tristano di Joannuccio", "amenity": "hospital", "email": "info@aospterni.it", "email:pec": "aospterni@postacert.umbria.it", "emergency": "yes", "fax": "+39 0744 205006", "healthcare": "hospital", "healthcare:speciality": "psychiatry;paediatrics;orthodontics;chiropractic;nephrology;orthopaedics;dermatology;intensive;radiology;cardiology;oncology;vaccination;surgery;angiology;biology;emergency;neurology;gynaecology;ophthalmology;internal;acupuncture;physiatry;osteopathy;body", "name": "Azienda Ospedaliera Santa Maria", "operator": "Azienda Ospedaliera “Santa Maria” – Terni", "operator:type": "public", "phone": "+39 0744 2051 (Centralino9", "website": "https://www.aospterni.it/", "wheelchair": "yes"}}, {"name": "Ospedale Santa Maria della Stella", "latitude": 42.7321662, "longitude": 12.145217, "source": "osm", "_tags": {"addr:city": "Orvieto", "addr:place": "Località Ciconia", "addr:postcode": "05018", "amenity": "hospital", "emergency": "yes", "healthcare": "hospital", "name": "Ospedale Santa Maria della Stella", "operator": "Azienda Unità Sanitaria Locale Umbria n. 2", "operator:type": "public", "phone": "+39 0763 3071", "website": "https://www.uslumbria2.it/pagine/ospedale-di-orvieto"}}, {"name": "Rome American Hospital", "latitude": 41.8994855, "longitude": 12.6028298, "source": "osm", "_tags": {"addr:city": "Roma", "addr:housenumber": "83", "addr:postcode": "00155", "addr:street": "Via Emilio Longoni", "amenity": "hospital", "email": "servizioclienti.rah@hcir.it", "emergency": "no", "healthcare": "hospital", "name": "Rome American Hospital", "operator": "Health Care Italia Roma", "operator:type": "private", "phone": "+39 06 22551", "website": "https://hcir.it/rome-american-hospital"}}, {"name": "Ospedale Israelitico", "latitude": 41.835746, "longitude": 12.4284157, "source": "osm", "_tags": {"addr:city": "Roma", "addr:housenumber": "14", "addr:postcode": "00148", "addr:street": "Via Fulda", "amenity": "hospital", "emergency": "no", "healthcare": "hospital", "healthcare:speciality": "surgery;cardiology;gynaecology;oncology;ophthalmology;dermatology;orthopaedics", "name": "Ospedale Israelitico", "opening_hours": "24/7", "operator": "Network Ospedale Israelitico", "operator:type": "private", "phone": "+39 06 655891", "website": "https://ospedaleisraelitico.it"}}, {"name": "Villa Sandra", "latitude": 41.8502764, "longitude": 12.4209269, "source": "osm", "_tags": {"addr:city": "Roma", "addr:country": "IT", "addr:housenumber": "798", "addr:postcode": "00148", "addr:street": "Via Portuense", "amenity": "hospital", "contact:facebook": "https://www.facebook.com/casadicuravillasandra", "contact:linkedin": "https://www.linkedin.com/company/casa-di-cura-privata-a-roma-villa-sandra/", "email": "info@villasandra.it", "emergency": "no", "fax": "+39 06 65595240", "healthcare": "hospital", "healthcare:speciality": "general", "name": "Villa Sandra", "opening_hours": "24/7", "operator": "Villa Sandra Casa di Cura Privata S.p.A.", "operator:type": "private", "phone": "+39 06 655951", "ref:vatin": "IT00893071001", "website": "https://casadicuravillasandraconvenzionataconserviziosanitario.roma.it/", "wikidata": "Q105578197"}}, {"name": "Policlinico Luigi di Liegro", "latitude": 41.8538942, "longitude": 12.4236974, "source": "osm", "_tags": {"addr:city": "Roma", "addr:housenumber": "5", "addr:postcode": "00148", "addr:street": "Via dei Badoer", "amenity": "hospital", "emergency": "no", "healthcare": "hospital", "healthcare:speciality": "general;surgery;radiology", "name": "Policlinico Luigi di Liegro", "operator": "Policlinico Portuense SpA", "operator:type": "private", "phone": "+3906656565", "website": "https://www.policlinicodiliegro.it/"}}, {"name": "Casa di Cura \"Assunzione di Maria Santissima\"", "latitude": 41.9184819, "longitude": 12.5131676, "source": "osm", "_tags": {"addr:city": "Roma", "addr:housenumber": "311", "addr:postcode": "00162", "addr:street": "Via Nomentana", "amenity": "hospital", "email": "info@amss.it", "emergency": "no", "fax": "+39 06 8542432", "healthcare": "hospital", "name": "Casa di Cura \"Assunzione di Maria Santissima\"", "operator": "Congregazione delle Serve di Maria Riparatrici", "operator:type": "private", "phone": "+39 06 8537231", "website": "http://www.amss.it/"}}, {"name": "Nuova Clinica Annunziatella", "latitude": 41.8554316, "longitude": 12.5059714, "source": "osm", "_tags": {"addr:city": "Roma", "addr:housenumber": "124", "addr:postcode": "00147", "addr:street": "Via Meropia", "amenity": "hospital", "email": "info@annunziatella.com", "emergency": "no", "healthcare": "hospital", "name": "Nuova Clinica Annunziatella", "operator": "Nuova Clinica Annunziatella", "operator:type": "private", "phone": "+39 06 51058500", "website": "https://www.nuovaclinicaannunziatella.com/"}}, {"name": "San Raffaele Pisana", "latitude": 41.8779244, "longitude": 12.4165523, "source": "osm", "_tags": {"addr:city": "Roma", "addr:housenumber": "235", "addr:postcode": "00163", "addr:street": "Via della Pisana", "alt_name": "IRCCS San Raffaele Pisana", "amenity": "hospital", "email": "IRCCS@sanraffaele.it", "healthcare": "hospital", "name": "San Raffaele Pisana", "phone": "+39 06 660581", "ref:vatin": "IT08253151008", "website": "https://sanraffaele.it/strutture/irccs-san-raffaele/"}}, {"name": "Fondazione Don Gnocchi - Centro Santa Maria della Pace", "latitude": 41.9387465, "longitude": 12.4623921, "source": "osm", "_tags": {"addr:city": "Roma", "addr:housenumber": "30", "addr:postcode": "00194", "addr:street": "Via Maresciallo Caviglia", "amenity": "hospital", "healthcare": "rehabilitation", "healthcare:speciality": "psychiatry;physiatry", "name": "Fondazione Don Gnocchi - Centro Santa Maria della Pace", "operator": "Fondazione Don Carlo Gnocchi ONLUS", "website": "https://www.dongnocchi.it/@strutture/centro-s-maria-della-pace"}}, {"name": "Policlinico Umberto I - Clinica di Neuropsichiatria infantile", "latitude": 41.8986301, "longitude": 12.5189656, "source": "osm", "_tags": {"addr:city": "Roma", "addr:housenumber": "108", "addr:postcode": "00185", "addr:street": "Via dei Sabelli", "amenity": "hospital", "healthcare": "hospital", "healthcare:speciality": "child_psychiatry", "name": "Policlinico Umberto I - Clinica di Neuropsichiatria infantile", "operator": "Policlinico Umberto I", "operator:type": "university", "phone": "+390649972910", "website": "https://www.policlinicoumberto1.it/unita/neuropsichiatria-infantile/"}}, {"name": "Presidio ospedaliero George Eastman", "latitude": 41.9073599, "longitude": 12.5144364, "source": "osm", "_tags": {"addr:city": "Roma", "addr:housenumber": "287b", "addr:postcode": "00161", "addr:street": "Viale Regina Elena", "amenity": "hospital", "description": "Storico ospedale odontoiatrico di Roma. Ora ospita anche alcuni reparti e servizi del Policlinico Umberto I.", "emergency": "yes", "healthcare": "hospital", "healthcare:speciality": "ophthalmology;oncology;dental_oral_maxillo_facial_surgery", "name": "Presidio ospedaliero George Eastman", "operator": "Policlinico Umberto I", "operator:type": "university"}}, {"name": "Ospedale San Giovanni - Presidio Addolorata", "latitude": 41.8851497, "longitude": 12.4987159, "source": "osm", "_tags": {"addr:city": "Roma", "addr:housenumber": "4", "addr:postcode": "00184", "addr:street": "Via di Santo Stefano Rotondo", "amenity": "hospital", "emergency": "no", "healthcare": "hospital", "name": "Ospedale San Giovanni - Presidio Addolorata", "operator": "Azienda ospedaliera San Giovanni-Addolorata", "operator:type": "public", "phone": "+39 06 7705 4503", "website": "https://hsangiovanni.roma.it/", "wikidata": "Q3145226", "wikimedia_commons": "Category:Azienda ospedaliera san Giovanni-Addolorata (Rome)", "wikipedia": "it:Azienda ospedaliera San Giovanni Addolorata"}}, {"name": "Ospedale Britannico", "latitude": 41.88428, "longitude": 12.4972929, "source": "osm", "_tags": {"addr:city": "Roma", "addr:housenumber": "6", "addr:postcode": "00184", "addr:street": "Via di Santo Stefano Rotondo", "amenity": "hospital", "emergency": "no", "healthcare": "hospital", "healthcare:speciality": "ophthalmology", "name": "Ospedale Britannico", "operator": "Fondazione IRCCS G.B. Bietti", "operator:type": "private_non_profit", "phone": "+39 06 7705 2834", "website": "https://www.fondazionebietti.it/"}}, {"name": "Casa di cura Villa Mendicini", "latitude": 41.8781445, "longitude": 12.5762434, "source": "osm", "_tags": {"addr:city": "Roma", "addr:housenumber": "55", "addr:postcode": "00172", "addr:street": "Via degli Olmi", "amenity": "hospital", "email": "amministrazione@villamendicini.it", "emergency": "no", "healthcare": "rehabilitation", "healthcare:speciality": "psychiatry", "name": "Casa di cura Villa Mendicini", "phone": "+39 06 2307444", "ref:vatin": "IT01093511002", "website": "https://www.villamendicini.it"}}, {"name": "Ospedale degli Infermi", "latitude": 42.5170267, "longitude": 12.5218029, "source": "osm", "_tags": {"addr:city": "Narni", "addr:housenumber": "3", "addr:postcode": "05035", "addr:street": "Via dei Cappuccini Nuovi", "amenity": "hospital", "emergency": "yes", "name": "Ospedale degli Infermi", "operator": "Azienda Unità Sanitaria Locale Umbria n. 2", "operator:type": "public", "phone": "+39 0744 7401", "website": "https://www.uslumbria2.it/pagine/ospedale-di-narni-000"}}, {"name": "", "latitude": 42.5557061, "longitude": 12.6555077, "source": "osm", "_tags": {"building": "hospital", "healthcare": "hospital"}}, {"name": "", "latitude": 42.5555963, "longitude": 12.6557129, "source": "osm", "_tags": {"building": "hospital", "healthcare": "hospital"}}, {"name": "Casa di cura Quisisana", "latitude": 41.9286376, "longitude": 12.4890777, "source": "osm", "_tags": {"addr:city": "Roma", "addr:housenumber": "5", "addr:postcode": "00197", "addr:street": "Via Gian Giacomo Porro", "amenity": "hospital", "healthcare": "hospital", "name": "Casa di cura Quisisana", "phone": "+39 06 809581", "website": "https://www.clinicaquisisana.it"}}, {"name": "", "latitude": 41.8867526, "longitude": 12.3987006, "source": "osm", "_tags": {"amenity": "hospital", "healthcare": "hospital"}}, {"name": "Casa di Cura Pio XI", "latitude": 41.8955364, "longitude": 12.4201891, "source": "osm", "_tags": {"addr:postcode": "00165", "amenity": "hospital", "healthcare": "hospital", "internet_access": "wlan", "name": "Casa di Cura Pio XI", "operator:type": "private", "phone": "+39 06 664 941", "website": "http://www.casadicurapioxi.it"}}, {"name": "Ospedale Santo Spirito in Sassia", "latitude": 41.9010592, "longitude": 12.4623577, "source": "osm", "_tags": {"alt_name": "Ospedale Santo Spirito in Saxia", "amenity": "hospital", "building": "yes", "healthcare": "hospital", "name": "Ospedale Santo Spirito in Sassia", "name:fr": "Hôpital Santo Spirito in Saxia", "tourism": "attraction", "type": "multipolygon", "wikidata": "Q3621743"}}, {"name": "Ospedale S.Anna - A.S.L. Roma A", "latitude": 41.919649, "longitude": 12.5001542, "source": "osm", "_tags": {"amenity": "hospital", "building": "yes", "name": "Ospedale S.Anna - A.S.L. Roma A", "type": "multipolygon"}}, {"name": "Fatebenefratelli", "latitude": 41.8909089, "longitude": 12.4769649, "source": "osm", "_tags": {"addr:city": "Roma", "addr:housenumber": "39", "addr:postcode": "00186", "addr:street": "Via di Ponte Quattro Capi", "amenity": "hospital", "building": "yes", "emergency": "yes", "healthcare": "hospital", "name": "Fatebenefratelli", "type": "multipolygon", "website": "https://www.fatebenefratelli-isolatiberina.it/", "wikidata": "Q27961004", "wikimedia_commons": "Category:Ospedale San Giovanni Calibita Fatebenefratelli", "wikipedia": "en:Fatebenefratelli Hospital"}}, {"name": "Ospedale San Giovanni – Presidio Santa Maria", "latitude": 41.8880633, "longitude": 12.503272, "source": "osm", "_tags": {"addr:city": "Roma", "addr:housenumber": "155", "addr:postcode": "00184", "addr:street": "Via di San Giovanni in Laterano", "amenity": "hospital", "emergency": "no", "healthcare": "hospital", "hgv": "permissive", "name": "Ospedale San Giovanni – Presidio Santa Maria", "operator": "Azienda ospedaliera San Giovanni-Addolorata", "operator:type": "public", "type": "multipolygon", "website": "https://hsangiovanni.roma.it/", "wikidata": "Q3145226", "wikipedia": "it:Azienda ospedaliera San Giovanni Addolorata"}}, {"name": "Ospedale San Giovanni", "latitude": 41.8861493, "longitude": 12.5022197, "source": "osm", "_tags": {"access": "permissive", "addr:city": "Roma", "addr:housenumber": "4", "addr:postcode": "00184", "addr:street": "Via dell'Amba Aradam", "amenity": "hospital", "emergency": "yes", "healthcare": "hospital", "name": "Ospedale San Giovanni", "operator": "Azienda ospedaliera San Giovanni-Addolorata", "operator:type": "public", "type": "multipolygon", "website": "https://hsangiovanni.roma.it/", "wikidata": "Q3145226", "wikipedia": "it:Azienda ospedaliera San Giovanni Addolorata"}}, {"name": "Policlinico militare Celio", "latitude": 41.8857295, "longitude": 12.5003722, "source": "osm", "_tags": {"access": "private", "amenity": "hospital", "healthcare": "hospital", "landuse": "military", "name": "Policlinico militare Celio", "operator": "Ministero della Difesa", "type": "multipolygon", "wikidata": "Q16591171", "wikipedia": "it:Policlinico militare Celio"}}, {"name": "Casa di Cura Santa Famiglia", "latitude": 41.909054, "longitude": 12.4651132, "source": "osm", "_tags": {"addr:city": "Roma", "addr:housenumber": "134", "addr:postcode": "00192", "addr:street": "Via dei Gracchi", "amenity": "hospital", "contact:facebook": "https://www.facebook.com/ClinicaSantaFamiglia/", "contact:instagram": "https://www.instagram.com/casadicurasantafamiglia", "contact:twitter": "https://twitter.com/santafamiglia", "contact:youtube": "https://www.youtube.com/channel/UCQr4y8w8pyC_6JMyVSFle1A", "email": "info@santafamiglia.it", "fax": "+39 06 3216658", "healthcare": "clinic", "healthcare:speciality": "gynaecology", "name": "Casa di Cura Santa Famiglia", "phone": "+39 06 328331", "start_date": "1950", "type": "multipolygon", "website": "http://www.santafamiglia.it"}}, {"name": "", "latitude": 42.3926229, "longitude": 12.1236297, "source": "osm", "_tags": {"amenity": "hospital", "emergency": "ambulance_station", "type": "multipolygon"}}, {"name": "Ospedale Padre Pio", "latitude": 42.0962482, "longitude": 12.172243, "source": "osm", "_tags": {"addr:city": "Bracciano", "addr:country": "IT", "addr:postcode": "00062", "addr:street": "Via Santa Lucia", "amenity": "hospital", "emergency": "yes", "healthcare": "hospital", "healthcare:speciality": "ophthalmology;dentistry;dermatology;urology;surgery;orthopaedics;dialysis;cardiology;gynaecology;neurology", "name": "Ospedale Padre Pio", "operator": "ASL RM4", "operator:type": "public", "phone": "+3906998901", "type": "multipolygon", "website": "https://www.aslroma4.it/strutture-sanitarie/ospedale-padre-pio-di-bracciano"}}, {"name": "Cittadella della Salute", "latitude": 42.4098502, "longitude": 12.1092329, "source": "osm", "_tags": {"addr:city": "Viterbo", "addr:country": "IT", "addr:housenumber": "15", "addr:postcode": "01100", "addr:street": "Via Enrico Fermi", "amenity": "hospital", "building": "public", "healthcare": "hospital", "name": "Cittadella della Salute", "opening_hours": "Mo-Fr 08:00-18:00", "operator": "ASL", "operator:wikidata": "Q3631467", "phone": "+39 0761 3391", "type": "multipolygon", "website": "http://www.asl.vt.it/", "wheelchair": "yes"}}, {"name": "Ospedale \"San Paolo\"", "latitude": 42.0980492, "longitude": 11.809807, "source": "osm", "_tags": {"addr:city": "Civitavecchia", "addr:housenumber": "1", "addr:postcode": "00053", "addr:street": "Largo Donatori del Sangue", "amenity": "hospital", "emergency": "yes", "healthcare": "hospital", "name": "Ospedale \"San Paolo\"", "operator": "Regione Lazio", "operator:type": "public", "type": "multipolygon", "website": "https://www.aslroma4.it/strutture-sanitarie/ospedale-san-paolo-civitavecchia"}}, {"name": "Ospedale Bambin Gesù", "latitude": 42.0322352, "longitude": 11.8510799, "source": "osm", "_tags": {"addr:city": "Santa Marinella", "addr:housenumber": "36", "addr:postcode": "00058", "addr:street": "Lungomare Guglielmo Marconi", "amenity": "hospital", "emergency": "no", "healthcare": "hospital", "healthcare:speciality": "paediatrics", "name": "Ospedale Bambin Gesù", "operator": "Ospedale Pediatrico Bambino Gesù", "operator:type": "religious", "phone": "+390668591", "type": "multipolygon", "website": "https://www.ospedalebambinogesu.it/santa-marinella-112947/"}}, {"name": "Ospedale Sant'Andrea", "latitude": 41.983225, "longitude": 12.4704798, "source": "osm", "_tags": {"addr:city": "Roma", "addr:country": "IT", "addr:housenumber": "1035", "addr:postcode": "00189", "addr:street": "Via di Grottarossa", "amenity": "hospital", "name": "Ospedale Sant'Andrea", "operator": "Azienda ospedaliero-universitaria Sant'Andrea", "type": "multipolygon", "website": "https://www.ospedalesantandrea.it", "wikidata": "Q16530334", "wikipedia": "it:Azienda ospedaliera Sant'Andrea"}}, {"name": "Ospedale Pediatrico Bambino Gesù", "latitude": 41.9191311, "longitude": 12.1414422, "source": "osm", "_tags": {"addr:place": "Palidoro", "addr:postcode": "00050", "addr:street": "Via della Torre di Palidoro", "amenity": "hospital", "healthcare": "hospital", "healthcare:speciality": "paediatrics", "name": "Ospedale Pediatrico Bambino Gesù", "operator": "Santa Sede", "operator:type": "religious", "phone": "+390668591", "type": "multipolygon", "website": "https://www.ospedalebambinogesu.it/"}}, {"name": "Ospedale San Giovanni Battista", "latitude": 41.8282404, "longitude": 12.4178738, "source": "osm", "_tags": {"addr:city": "Roma", "addr:housenumber": "13", "addr:postcode": "00148", "addr:street": "Via Luigi Ercole Morselli", "amenity": "hospital", "email": "info.ambulatori@acismom.it", "emergency": "no", "healthcare": "hospital", "healthcare:speciality": "neurology;rehab", "name": "Ospedale San Giovanni Battista", "operator": "Associazione dei Cavalieri Italiani del Sovrano Ordine di Malta", "operator:type": "private", "phone": "+3906655961", "type": "multipolygon", "website": "https://sanita.acismom.it/ospedale-san-giovanni-battista/"}}, {"name": "Ospedale Pediatrico Bambino Gesù", "latitude": 41.8970501, "longitude": 12.4606114, "source": "osm", "_tags": {"addr:city": "Roma", "addr:housenumber": "4", "addr:postcode": "00165", "addr:street": "Piazza di Sant'Onofrio", "amenity": "hospital", "denomination": "roman_catholic", "emergency": "yes", "health_specialty:paediatrics": "yes", "healthcare": "hospital", "healthcare:speciality": "paediatrics", "name": "Ospedale Pediatrico Bambino Gesù", "name:en": "Bambino Gesù Hospital", "name:fr": "Hôpital Bambino Gesù", "name:it": "Ospedale Bambino Gesù", "operator": "Ospedale Pediatrico Bambino Gesù", "operator:type": "religious", "phone": "+390668591", "type": "multipolygon", "website": "https://www.ospedalebambinogesu.it/sede-roma-gianicolo", "wikidata": "Q3886684", "wikimedia_commons": "Category:Bambino Gesù Hospital (Rome)", "wikipedia": "it:Ospedale pediatrico Bambino Gesù"}}]